[
  {
    "country": "AD",
    "name": ".ANDORRA",
    "status": null,
    "function": [],
    "coordinates": {
      "lat": 0,
      "lon": 0
    }
  },
  {
    "country": "AD",
    "location": "ALV",
    "name": "Andorra la Vella",
    "nameWoDiacritics": "Andorra la Vella",
    "status": 3,
    "function": [
      2,
      3,
      5
    ],
    "date": 601,
    "coordinates": {
      "lat": 42.5,
      "lon": 1.5166666666666666
    }
  },
  {
    "country": "AD",
    "location": "CAN",
    "name": "Canillo",
    "nameWoDiacritics": "Canillo",
    "status": 7,
    "function": [
      2
    ],
    "date": 307,
    "coordinates": {
      "lat": 42.56666666666667,
      "lon": 1.5833333333333335
    }
  },
  {
    "country": "AD",
    "location": "ENC",
    "name": "Encamp",
    "nameWoDiacritics": "Encamp",
    "status": 7,
    "function": [
      2
    ],
    "date": 307,
    "coordinates": {
      "lat": 42.53333333333333,
      "lon": 1.5666666666666667
    }
  },
  {
    "country": "AD",
    "location": "ESC",
    "name": "Escaldes-Engordany",
    "nameWoDiacritics": "Escaldes-Engordany",
    "status": 7,
    "function": [
      2
    ],
    "date": 307,
    "coordinates": {
      "lat": 42.516666666666666,
      "lon": 1.55
    }
  },
  {
    "country": "AD",
    "location": "EAC",
    "name": "Esc‡s",
    "nameWoDiacritics": "Escas",
    "subdivision": 4,
    "status": 7,
    "function": [
      2
    ],
    "date": 1407,
    "coordinates": {
      "lat": 42.55,
      "lon": 1.5166666666666666
    }
  },
  {
    "country": "AD",
    "location": "FMO",
    "name": "La Farga de Moles",
    "nameWoDiacritics": "La Farga de Moles",
    "status": 9,
    "function": [],
    "date": 307,
    "coordinates": {
      "lat": 0,
      "lon": 0
    }
  },
  {
    "country": "AD",
    "location": "LMA",
    "name": "La Massana",
    "nameWoDiacritics": "La Massana",
    "status": 7,
    "function": [
      2
    ],
    "date": 307,
    "coordinates": {
      "lat": 42.56666666666667,
      "lon": 1.4833333333333334
    }
  },
  {
    "country": "AD",
    "location": "ORD",
    "name": "Ordino",
    "nameWoDiacritics": "Ordino",
    "status": 7,
    "function": [
      2
    ],
    "date": 307,
    "coordinates": {
      "lat": 42.55,
      "lon": 1.5166666666666666
    }
  },
  {
    "country": "AD",
    "location": "PAS",
    "name": "Pas de la Casa",
    "nameWoDiacritics": "Pas de la Casa",
    "status": 7,
    "function": [],
    "date": 307,
    "coordinates": {
      "lat": 42.55,
      "lon": 1.7333333333333334
    }
  },
  {
    "country": "AD",
    "location": "SJL",
    "name": "Sant Juli‡ de LÚria",
    "nameWoDiacritics": "Sant Julia de Loria",
    "status": 7,
    "function": [
      2
    ],
    "date": 1101,
    "coordinates": {
      "lat": 42.46666666666667,
      "lon": 1.5
    }
  },
  {
    "country": "AD",
    "location": "SCO",
    "name": "Santa Coloma",
    "nameWoDiacritics": "Santa Coloma",
    "status": 7,
    "function": [
      2
    ],
    "date": 307,
    "coordinates": {
      "lat": 42.5,
      "lon": 1.5
    }
  }
]