[
  {
    "country": "AU",
    "name": ".AUSTRALIA",
    "function": [],
    "coordinates": {
      "lat": 0,
      "lon": 0
    }
  },
  {
    "country": "AU",
    "location": "ABP",
    "name": "Abbot Point",
    "nameWoDiacritics": "Abbot Point",
    "subdivision": "QLD",
    "status": "AC",
    "function": [
      0
    ],
    "date": 1607,
    "coordinates": {
      "lat": -19.9,
      "lon": 15.333333333333334
    }
  },
  {
    "country": "AU",
    "location": "ABA",
    "name": "Abbotsford",
    "nameWoDiacritics": "Abbotsford",
    "subdivision": "VIC",
    "status": "RL",
    "function": [
      2
    ],
    "date": 1607,
    "coordinates": {
      "lat": -37.8,
      "lon": 14.833333333333334
    }
  },
  {
    "country": "AU",
    "location": "ALP",
    "name": "Abell Point",
    "nameWoDiacritics": "Abell Point",
    "subdivision": "QLD",
    "status": "AC",
    "function": [
      0,
      2
    ],
    "date": 1401,
    "coordinates": {
      "lat": -20.266666666666666,
      "lon": 15.4
    }
  },
  {
    "country": "AU",
    "location": "ABD",
    "name": "Aberdeen",
    "nameWoDiacritics": "Aberdeen",
    "subdivision": "NSW",
    "status": "RL",
    "function": [
      2
    ],
    "date": 1601,
    "coordinates": {
      "lat": -32.166666666666664,
      "lon": 15.083333333333334
    }
  },
  {
    "country": "AU",
    "location": "S4A",
    "name": "Aberfoyle Park",
    "nameWoDiacritics": "Aberfoyle Park",
    "subdivision": "SA",
    "status": "RL",
    "function": [
      2
    ],
    "date": 1601,
    "coordinates": {
      "lat": -35.06666666666667,
      "lon": 14.383333333333333
    }
  },
  {
    "country": "AU",
    "location": "ABG",
    "name": "Abingdon",
    "nameWoDiacritics": "Abingdon",
    "subdivision": "QLD",
    "status": "AI",
    "function": [
      3
    ],
    "date": 9601,
    "coordinates": {
      "lat": 0,
      "lon": 0
    }
  },
  {
    "country": "AU",
    "location": "ACA",
    "name": "Acacia Ridge",
    "nameWoDiacritics": "Acacia Ridge",
    "subdivision": "QLD",
    "status": "RL",
    "function": [
      2
    ],
    "date": 607,
    "coordinates": {
      "lat": -27.583333333333332,
      "lon": 15.5
    }
  },
  {
    "country": "AU",
    "location": "MST",
    "name": "Adamstown",
    "nameWoDiacritics": "Adamstown",
    "subdivision": "NSW",
    "status": "RL",
    "function": [
      2
    ],
    "date": 1801,
    "coordinates": {
      "lat": -32.93333333333333,
      "lon": 15.233333333333333
    }
  },
  {
    "country": "AU",
    "location": "ADL",
    "name": "Adelaide",
    "nameWoDiacritics": "Adelaide",
    "subdivision": "SA",
    "status": "AC",
    "function": [
      0,
      1,
      2,
      3,
      4
    ],
    "date": 307,
    "coordinates": {
      "lat": -34.916666666666664,
      "lon": 14.383333333333333
    }
  },
  {
    "country": "AU",
    "location": "ADA",
    "name": "Adelaide Apt",
    "nameWoDiacritics": "Adelaide Apt",
    "subdivision": "SA",
    "status": "AC",
    "function": [
      3
    ],
    "date": 9511,
    "coordinates": {
      "lat": 0,
      "lon": 0
    }
  },
  {
    "country": "AU",
    "location": "ALO",
    "name": "Adelong",
    "nameWoDiacritics": "Adelong",
    "subdivision": "NSW",
    "status": "RL",
    "function": [
      2
    ],
    "date": 607,
    "coordinates": {
      "lat": -35.31666666666667,
      "lon": 15.333333333333334
    }
  },
  {
    "country": "AU",
    "location": "ANB",
    "name": "Agnes Bank",
    "nameWoDiacritics": "Agnes Bank",
    "subdivision": "NSW",
    "status": "RL",
    "function": [
      2
    ],
    "date": 1501,
    "coordinates": {
      "lat": -33.6,
      "lon": 15.066666666666666
    }
  },
  {
    "country": "AU",
    "location": "AGW",
    "name": "Agnew",
    "nameWoDiacritics": "Agnew",
    "subdivision": "QLD",
    "status": "AI",
    "function": [
      3
    ],
    "date": 9601,
    "coordinates": {
      "lat": 0,
      "lon": 0
    }
  },
  {
    "country": "AU",
    "location": "WSY",
    "name": "Airlie Beach",
    "nameWoDiacritics": "Airlie Beach",
    "subdivision": "QLD",
    "status": "AI",
    "function": [
      3
    ],
    "date": 9912,
    "coordinates": {
      "lat": 0,
      "lon": 0
    }
  },
  {
    "country": "AU",
    "location": "AIR",
    "name": "Airlie Terminal",
    "nameWoDiacritics": "Airlie Terminal",
    "subdivision": "WA",
    "status": "RL",
    "function": [
      0
    ],
    "date": 212,
    "coordinates": {
      "lat": -21.333333333333332,
      "lon": 11.85
    },
    "remarks": "Airlie Island"
  },
  {
    "country": "AU",
    "location": "APW",
    "name": "Airport West",
    "nameWoDiacritics": "Airport West",
    "subdivision": "VIC",
    "status": "RL",
    "function": [
      2
    ],
    "date": 1207,
    "coordinates": {
      "lat": -37.733333333333334,
      "lon": 14.75
    }
  },
  {
    "country": "AU",
    "location": "ALH",
    "name": "Albany",
    "nameWoDiacritics": "Albany",
    "subdivision": "WA",
    "status": "AC",
    "function": [
      0,
      3
    ],
    "date": 9511,
    "coordinates": {
      "lat": 0,
      "lon": 0
    }
  },
  {
    "country": "AU",
    "location": "ACK",
    "name": "Albany Creek",
    "nameWoDiacritics": "Albany Creek",
    "subdivision": "QLD",
    "status": "RL",
    "function": [
      5
    ],
    "date": 1107,
    "coordinates": {
      "lat": -27.35,
      "lon": 15.416666666666666
    }
  },
  {
    "country": "AU",
    "location": "ABO",
    "name": "Alberton",
    "nameWoDiacritics": "Alberton",
    "subdivision": "QLD",
    "status": "RL",
    "function": [
      2
    ],
    "date": 1801,
    "coordinates": {
      "lat": -27.7,
      "lon": 15.516666666666667
    }
  },
  {
    "country": "AU",
    "location": "APK",
    "name": "Albion Park",
    "nameWoDiacritics": "Albion Park",
    "subdivision": "NSW",
    "status": "RL",
    "function": [
      2
    ],
    "date": 607,
    "coordinates": {
      "lat": -34.56666666666667,
      "lon": 15.066666666666666
    }
  },
  {
    "country": "AU",
    "location": "ABX",
    "name": "Albury",
    "nameWoDiacritics": "Albury",
    "subdivision": "NSW",
    "status": "AI",
    "function": [
      1,
      2,
      3
    ],
    "date": 307,
    "coordinates": {
      "lat": -36.083333333333336,
      "lon": 15.083333333333334
    }
  },
  {
    "country": "AU",
    "location": "ALD",
    "name": "Aldgate",
    "nameWoDiacritics": "Aldgate",
    "subdivision": "SA",
    "status": "RL",
    "function": [
      0,
      5
    ],
    "date": 1107,
    "coordinates": {
      "lat": -35.016666666666666,
      "lon": 14.4
    }
  },
  {
    "country": "AU",
    "location": "ADG",
    "name": "Aldinga",
    "nameWoDiacritics": "Aldinga",
    "subdivision": "SA",
    "status": "RL",
    "function": [
      2
    ],
    "date": 1601,
    "coordinates": {
      "lat": -35.28333333333333,
      "lon": 14.366666666666667
    }
  },
  {
    "country": "AU",
    "location": "AVA",
    "name": "Alexandra",
    "nameWoDiacritics": "Alexandra",
    "subdivision": "VIC",
    "status": "RL",
    "function": [
      5
    ],
    "date": 1201,
    "coordinates": {
      "lat": -37.18333333333333,
      "lon": 14.9
    }
  },
  {
    "country": "AU",
    "location": "ALX",
    "name": "Alexandria",
    "nameWoDiacritics": "Alexandria",
    "subdivision": "NSW",
    "status": "RL",
    "function": [
      2
    ],
    "date": 201,
    "coordinates": {
      "lat": -33.9,
      "lon": 15.183333333333334
    }
  },
  {
    "country": "AU",
    "location": "AXL",
    "name": "Alexandria",
    "nameWoDiacritics": "Alexandria",
    "subdivision": "NT",
    "status": "AI",
    "function": [
      3
    ],
    "date": 9601,
    "coordinates": {
      "lat": 0,
      "lon": 0
    }
  },
  {
    "country": "AU",
    "location": "ASP",
    "name": "Alice Springs",
    "nameWoDiacritics": "Alice Springs",
    "subdivision": "NT",
    "status": "AI",
    "function": [
      3
    ],
    "date": 9601,
    "coordinates": {
      "lat": 0,
      "lon": 0
    }
  },
  {
    "country": "AU",
    "location": "ALB",
    "name": "Allambie Heights",
    "nameWoDiacritics": "Allambie Heights",
    "subdivision": "NSW",
    "status": "RL",
    "function": [
      2
    ],
    "date": 1207,
    "coordinates": {
      "lat": -33.75,
      "lon": 15.183333333333334
    }
  },
  {
    "country": "AU",
    "location": "AFD",
    "name": "Allansford",
    "nameWoDiacritics": "Allansford",
    "subdivision": "VIC",
    "status": "RQ",
    "function": [
      2
    ],
    "date": 1101,
    "coordinates": {
      "lat": -38.4,
      "lon": 14.383333333333333
    }
  },
  {
    "country": "AU",
    "location": "ABH",
    "name": "Alpha",
    "nameWoDiacritics": "Alpha",
    "subdivision": "QLD",
    "status": "AI",
    "function": [
      3
    ],
    "date": 9601,
    "coordinates": {
      "lat": 0,
      "lon": 0
    }
  },
  {
    "country": "AU",
    "location": "APT",
    "name": "Alphington",
    "nameWoDiacritics": "Alphington",
    "subdivision": "VIC",
    "status": "RL",
    "function": [
      5
    ],
    "date": 1201,
    "coordinates": {
      "lat": -37.766666666666666,
      "lon": 14.833333333333334
    }
  },
  {
    "country": "AU",
    "location": "ALN",
    "name": "Alpine",
    "nameWoDiacritics": "Alpine",
    "subdivision": "NSW",
    "status": "RL",
    "function": [
      2
    ],
    "date": 1407,
    "coordinates": {
      "lat": -34.4,
      "lon": 15.05
    }
  },
  {
    "country": "AU",
    "location": "AYD",
    "name": "Alroy Downs",
    "nameWoDiacritics": "Alroy Downs",
    "subdivision": "NT",
    "status": "AI",
    "function": [
      3
    ],
    "date": 9912,
    "coordinates": {
      "lat": 0,
      "lon": 0
    }
  },
  {
    "country": "AU",
    "location": "AVI",
    "name": "Alstonville",
    "nameWoDiacritics": "Alstonville",
    "subdivision": "NSW",
    "status": "RL",
    "function": [
      2
    ],
    "date": 607,
    "coordinates": {
      "lat": -28.833333333333332,
      "lon": 15.533333333333333
    }
  },
  {
    "country": "AU",
    "location": "AWN",
    "name": "Alton Downs",
    "nameWoDiacritics": "Alton Downs",
    "subdivision": "SA",
    "status": "AI",
    "function": [
      3
    ],
    "date": 9912,
    "coordinates": {
      "lat": 0,
      "lon": 0
    }
  },
  {
    "country": "AU",
    "location": "ALT",
    "name": "Altona",
    "nameWoDiacritics": "Altona",
    "subdivision": "VIC",
    "status": "RL",
    "function": [
      2
    ],
    "date": 1407,
    "coordinates": {
      "lat": -37.86666666666667,
      "lon": 14.75
    }
  },
  {
    "country": "AU",
    "location": "ATO",
    "name": "Altona North",
    "nameWoDiacritics": "Altona North",
    "subdivision": "VIC",
    "status": "RL",
    "function": [
      5
    ],
    "date": 601,
    "coordinates": {
      "lat": -37.81666666666667,
      "lon": 14.75
    }
  },
  {
    "country": "AU",
    "location": "ALV",
    "name": "Alvie",
    "nameWoDiacritics": "Alvie",
    "subdivision": "VIC",
    "status": "RL",
    "function": [
      5
    ],
    "date": 1201,
    "coordinates": {
      "lat": -38.233333333333334,
      "lon": 14.55
    }
  },
  {
    "country": "AU",
    "location": "AYG",
    "name": "Alyangula",
    "nameWoDiacritics": "Alyangula",
    "subdivision": "NT",
    "status": "RL",
    "function": [
      2
    ],
    "date": 1501,
    "coordinates": {
      "lat": -13.85,
      "lon": 14.033333333333333
    }
  },
  {
    "country": "AU",
    "location": "AMT",
    "name": "Amata",
    "nameWoDiacritics": "Amata",
    "subdivision": "NT",
    "status": "AI",
    "function": [
      3
    ],
    "date": 9912,
    "coordinates": {
      "lat": 0,
      "lon": 0
    }
  },
  {
    "country": "AU",
    "location": "ABL",
    "name": "Amberley",
    "nameWoDiacritics": "Amberley",
    "subdivision": "QLD",
    "status": "AC",
    "function": [
      3
    ],
    "date": 9709,
    "coordinates": {
      "lat": 0,
      "lon": 0
    }
  },
  {
    "country": "AU",
    "location": "RCN",
    "name": "American River",
    "nameWoDiacritics": "American River",
    "subdivision": "SA",
    "status": "AI",
    "function": [
      3
    ],
    "date": 9912,
    "coordinates": {
      "lat": 0,
      "lon": 0
    }
  },
  {
    "country": "AU",
    "location": "AMX",
    "name": "Ammaroo",
    "nameWoDiacritics": "Ammaroo",
    "subdivision": "NT",
    "status": "AI",
    "function": [
      3
    ],
    "date": 9912,
    "coordinates": {
      "lat": 0,
      "lon": 0
    }
  },
  {
    "country": "AU",
    "location": "AMR",
    "name": "Amrun",
    "nameWoDiacritics": "Amrun",
    "subdivision": "QLD",
    "status": "AA",
    "function": [
      0
    ],
    "date": 1801,
    "coordinates": {
      "lat": -12.916666666666666,
      "lon": 14.216666666666667
    }
  },
  {
    "country": "AU",
    "location": "ADO",
    "name": "Andamooka",
    "nameWoDiacritics": "Andamooka",
    "subdivision": "SA",
    "status": "AI",
    "function": [
      3
    ],
    "date": 9601,
    "coordinates": {
      "lat": 0,
      "lon": 0
    }
  },
  {
    "country": "AU",
    "location": "AND",
    "name": "Andrews",
    "nameWoDiacritics": "Andrews",
    "subdivision": "QLD",
    "status": "RL",
    "function": [
      1,
      2
    ],
    "date": 607,
    "coordinates": {
      "lat": -33.6,
      "lon": 14.383333333333333
    }
  },
  {
    "country": "AU",
    "location": "ZCB",
    "name": "Angas Plains",
    "nameWoDiacritics": "Angas Plains",
    "subdivision": "SA",
    "status": "RL",
    "function": [
      2
    ],
    "date": 1501,
    "coordinates": {
      "lat": -35.35,
      "lon": 14.5
    }
  },
  {
    "country": "AU",
    "location": "ANG",
    "name": "Angaston",
    "nameWoDiacritics": "Angaston",
    "subdivision": "SA",
    "status": "RQ",
    "function": [
      2
    ],
    "date": 907,
    "coordinates": {
      "lat": -34.5,
      "lon": 14.5
    }
  },
  {
    "country": "AU",
    "location": "AVE",
    "name": "Angle Vale",
    "nameWoDiacritics": "Angle Vale",
    "subdivision": "SA",
    "status": "RL",
    "function": [
      2
    ],
    "date": 1001,
    "coordinates": {
      "lat": -34.63333333333333,
      "lon": 14.383333333333333
    }
  },
  {
    "country": "AU",
    "location": "ASE",
    "name": "Anglesea",
    "nameWoDiacritics": "Anglesea",
    "subdivision": "VIC",
    "status": "RL",
    "function": [
      2
    ],
    "date": 1601,
    "coordinates": {
      "lat": -38.416666666666664,
      "lon": 14.683333333333334
    }
  },
  {
    "country": "AU",
    "location": "ANZ",
    "name": "Angus Downs",
    "nameWoDiacritics": "Angus Downs",
    "subdivision": "NT",
    "status": "AI",
    "function": [
      3
    ],
    "date": 9912,
    "coordinates": {
      "lat": 0,
      "lon": 0
    }
  },
  {
    "country": "AU",
    "location": "ANN",
    "name": "Annandale",
    "nameWoDiacritics": "Annandale",
    "subdivision": "NSW",
    "status": "RL",
    "function": [
      0,
      5
    ],
    "date": 1107,
    "coordinates": {
      "lat": -33.88333333333333,
      "lon": 15.183333333333334
    }
  },
  {
    "country": "AU",
    "location": "ANL",
    "name": "Annerley",
    "nameWoDiacritics": "Annerley",
    "subdivision": "QLD",
    "status": "RL",
    "function": [
      2
    ],
    "date": 1207,
    "coordinates": {
      "lat": -27.483333333333334,
      "lon": 15.5
    }
  },
  {
    "country": "AU",
    "location": "AYL",
    "name": "Anthony Lagoon",
    "nameWoDiacritics": "Anthony Lagoon",
    "subdivision": "NT",
    "status": "AI",
    "function": [
      3
    ],
    "date": 9912,
    "coordinates": {
      "lat": 0,
      "lon": 0
    }
  },
  {
    "country": "AU",
    "location": "APP",
    "name": "Applecross",
    "nameWoDiacritics": "Applecross",
    "subdivision": "WA",
    "status": "RL",
    "function": [
      0,
      5
    ],
    "date": 1107,
    "coordinates": {
      "lat": -32.016666666666666,
      "lon": 11.916666666666666
    }
  },
  {
    "country": "AU",
    "location": "AXC",
    "name": "Aramac",
    "nameWoDiacritics": "Aramac",
    "subdivision": "QLD",
    "status": "AI",
    "function": [
      3
    ],
    "date": 9601,
    "coordinates": {
      "lat": 0,
      "lon": 0
    }
  },
  {
    "country": "AU",
    "location": "AHS",
    "name": "Arana Hills",
    "nameWoDiacritics": "Arana Hills",
    "subdivision": "QLD",
    "status": "RL",
    "function": [
      5
    ],
    "date": 1801,
    "coordinates": {
      "lat": -27.383333333333333,
      "lon": 15.416666666666666
    }
  },
  {
    "country": "AU",
    "location": "ARY",
    "name": "Ararat",
    "nameWoDiacritics": "Ararat",
    "subdivision": "VIC",
    "status": "AI",
    "function": [
      3
    ],
    "date": 9912,
    "coordinates": {
      "lat": 0,
      "lon": 0
    }
  },
  {
    "country": "AU",
    "location": "R5T",
    "name": "Arawata",
    "nameWoDiacritics": "Arawata",
    "subdivision": "VIC",
    "status": "RL",
    "function": [
      2
    ],
    "date": 1601,
    "coordinates": {
      "lat": -38.4,
      "lon": 14.916666666666666
    }
  },
  {
    "country": "AU",
    "location": "ACD",
    "name": "Arcadia",
    "nameWoDiacritics": "Arcadia",
    "subdivision": "NSW",
    "status": "RL",
    "function": [
      2
    ],
    "date": 1601,
    "coordinates": {
      "lat": -33.61666666666667,
      "lon": 15.166666666666666
    }
  },
  {
    "country": "AU",
    "location": "AFL",
    "name": "Archerfield",
    "nameWoDiacritics": "Archerfield",
    "subdivision": "QLD",
    "status": "RL",
    "function": [
      1,
      2
    ],
    "date": 701,
    "coordinates": {
      "lat": -27.566666666666666,
      "lon": 15.5
    }
  },
  {
    "country": "AU",
    "location": "ATA",
    "name": "Ardlethan",
    "nameWoDiacritics": "Ardlethan",
    "subdivision": "NSW",
    "status": "RL",
    "function": [
      1,
      2
    ],
    "date": 607,
    "coordinates": {
      "lat": -34.35,
      "lon": 15.083333333333334
    }
  },
  {
    "country": "AU",
    "location": "AHK",
    "name": "Ardross",
    "nameWoDiacritics": "Ardross",
    "subdivision": "WA",
    "status": "RL",
    "function": [
      2
    ],
    "date": 1601,
    "coordinates": {
      "lat": -32.016666666666666,
      "lon": 11.916666666666666
    }
  },
  {
    "country": "AU",
    "location": "ARD",
    "name": "Ardrossan",
    "nameWoDiacritics": "Ardrossan",
    "subdivision": "SA",
    "status": "AC",
    "function": [
      0
    ],
    "date": 9511,
    "coordinates": {
      "lat": 0,
      "lon": 0
    }
  },
  {
    "country": "AU",
    "location": "GYL",
    "name": "Argyle",
    "nameWoDiacritics": "Argyle",
    "subdivision": "WA",
    "status": "AI",
    "function": [
      3
    ],
    "date": 9912,
    "coordinates": {
      "lat": 0,
      "lon": 0
    }
  },
  {
    "country": "AU",
    "location": "AGY",
    "name": "Argyle Downs",
    "nameWoDiacritics": "Argyle Downs",
    "subdivision": "WA",
    "status": "AI",
    "function": [
      3
    ],
    "date": 9912,
    "coordinates": {
      "lat": 0,
      "lon": 0
    }
  },
  {
    "country": "AU",
    "location": "AMD",
    "name": "Armadale",
    "nameWoDiacritics": "Armadale",
    "subdivision": "VIC",
    "status": "RL",
    "function": [
      2
    ],
    "date": 1207,
    "coordinates": {
      "lat": -37.85,
      "lon": 14.833333333333334
    }
  },
  {
    "country": "AU",
    "location": "AUA",
    "name": "Armadale",
    "nameWoDiacritics": "Armadale",
    "subdivision": "WA",
    "status": "RL",
    "function": [
      0
    ],
    "date": 1101,
    "coordinates": {
      "lat": -32.15,
      "lon": 12
    }
  },
  {
    "country": "AU",
    "location": "ARM",
    "name": "Armidale",
    "nameWoDiacritics": "Armidale",
    "subdivision": "NSW",
    "status": "AI",
    "function": [
      3
    ],
    "date": 9601,
    "coordinates": {
      "lat": 0,
      "lon": 0
    }
  },
  {
    "country": "AU",
    "location": "ARC",
    "name": "Arncliffe",
    "nameWoDiacritics": "Arncliffe",
    "subdivision": "NSW",
    "status": "RL",
    "function": [
      2
    ],
    "date": 307,
    "coordinates": {
      "lat": -33.93333333333333,
      "lon": 15.166666666666666
    }
  },
  {
    "country": "AU",
    "location": "DLP",
    "name": "Arndell Park",
    "nameWoDiacritics": "Arndell Park",
    "subdivision": "NSW",
    "status": "RL",
    "function": [
      0,
      1,
      2
    ],
    "date": 1607,
    "coordinates": {
      "lat": -33.78333333333333,
      "lon": 15.083333333333334
    }
  },
  {
    "country": "AU",
    "location": "AAB",
    "name": "Arrabury",
    "nameWoDiacritics": "Arrabury",
    "subdivision": "QLD",
    "status": "AI",
    "function": [
      3
    ],
    "date": 9912,
    "coordinates": {
      "lat": 0,
      "lon": 0
    }
  },
  {
    "country": "AU",
    "location": "ART",
    "name": "Artarmon",
    "nameWoDiacritics": "Artarmon",
    "subdivision": "NSW",
    "status": "RL",
    "function": [
      2
    ],
    "date": 1207,
    "coordinates": {
      "lat": -33.81666666666667,
      "lon": 15.183333333333334
    }
  },
  {
    "country": "AU",
    "location": "T6C",
    "name": "Arthurs Creek",
    "nameWoDiacritics": "Arthurs Creek",
    "subdivision": "VIC",
    "status": "RL",
    "function": [
      2
    ],
    "date": 1601,
    "coordinates": {
      "lat": -37.583333333333336,
      "lon": 14.85
    }
  },
  {
    "country": "AU",
    "location": "AMN",
    "name": "Arumbera",
    "nameWoDiacritics": "Arumbera",
    "subdivision": "NT",
    "status": "RL",
    "function": [
      2
    ],
    "date": 1501,
    "coordinates": {
      "lat": -23.75,
      "lon": 13.583333333333334
    }
  },
  {
    "country": "AU",
    "location": "ARL",
    "name": "Arundel",
    "nameWoDiacritics": "Arundel",
    "subdivision": "QLD",
    "status": "RQ",
    "function": [
      2
    ],
    "date": 207,
    "coordinates": {
      "lat": 0,
      "lon": 0
    }
  },
  {
    "country": "AU",
    "location": "ACO",
    "name": "Ascot",
    "nameWoDiacritics": "Ascot",
    "subdivision": "WA",
    "status": "RL",
    "function": [
      5
    ],
    "date": 601,
    "coordinates": {
      "lat": -31.933333333333334,
      "lon": 11.916666666666666
    }
  },
  {
    "country": "AU",
    "location": "ASB",
    "name": "Ashburton",
    "nameWoDiacritics": "Ashburton",
    "subdivision": "WA",
    "status": "AM",
    "function": [
      0,
      2
    ],
    "date": 2007,
    "coordinates": {
      "lat": -21.683333333333334,
      "lon": 11.833333333333334
    }
  },
  {
    "country": "AU",
    "location": "ASF",
    "name": "Ashfield",
    "nameWoDiacritics": "Ashfield",
    "subdivision": "WA",
    "status": "RQ",
    "function": [
      1,
      2
    ],
    "date": 1101,
    "coordinates": {
      "lat": -31.916666666666668,
      "lon": 11.916666666666666
    }
  },
  {
    "country": "AU",
    "location": "FFH",
    "name": "Ashfield",
    "nameWoDiacritics": "Ashfield",
    "subdivision": "NSW",
    "status": "RL",
    "function": [
      2
    ],
    "date": 1601,
    "coordinates": {
      "lat": -33.88333333333333,
      "lon": 15.166666666666666
    }
  },
  {
    "country": "AU",
    "location": "ASC",
    "name": "Ashgrove/Brisbane",
    "nameWoDiacritics": "Ashgrove/Brisbane",
    "subdivision": "QLD",
    "status": "RL",
    "function": [
      2
    ],
    "date": 106,
    "coordinates": {
      "lat": -27.433333333333334,
      "lon": 15.416666666666666
    }
  },
  {
    "country": "AU",
    "location": "SOT",
    "name": "Ashmont",
    "nameWoDiacritics": "Ashmont",
    "subdivision": "NSW",
    "status": "AM",
    "function": [
      2
    ],
    "date": 2107,
    "coordinates": {
      "lat": -35.13333333333333,
      "lon": 15.2
    }
  },
  {
    "country": "AU",
    "location": "ASH",
    "name": "Ashton",
    "nameWoDiacritics": "Ashton",
    "subdivision": "SA",
    "status": "RL",
    "function": [
      0,
      5
    ],
    "date": 1107,
    "coordinates": {
      "lat": -34.93333333333333,
      "lon": 14.4
    }
  },
  {
    "country": "AU",
    "location": "AWD",
    "name": "Ashwood",
    "nameWoDiacritics": "Ashwood",
    "subdivision": "VIC",
    "status": "RQ",
    "function": [
      5
    ],
    "date": 907,
    "coordinates": {
      "lat": -37.86666666666667,
      "lon": 14.933333333333334
    }
  },
  {
    "country": "AU",
    "location": "P6D",
    "name": "Aspendale",
    "nameWoDiacritics": "Aspendale",
    "subdivision": "VIC",
    "status": "RL",
    "function": [
      0,
      2
    ],
    "date": 1601,
    "coordinates": {
      "lat": -38.03333333333333,
      "lon": 14.833333333333334
    }
  },
  {
    "country": "AU",
    "location": "APY",
    "name": "Aspley",
    "nameWoDiacritics": "Aspley",
    "subdivision": "QLD",
    "status": "RL",
    "function": [
      2
    ],
    "date": 1801,
    "coordinates": {
      "lat": -27.366666666666667,
      "lon": 15.5
    }
  },
  {
    "country": "AU",
    "location": "ASQ",
    "name": "Asquith",
    "nameWoDiacritics": "Asquith",
    "subdivision": "NSW",
    "status": "RL",
    "function": [
      5
    ],
    "date": 901,
    "coordinates": {
      "lat": -33.68333333333333,
      "lon": 15.166666666666666
    }
  },
  {
    "country": "AU",
    "location": "ATH",
    "name": "Athelstone",
    "nameWoDiacritics": "Athelstone",
    "subdivision": "SA",
    "status": "RL",
    "function": [
      2
    ],
    "date": 901,
    "coordinates": {
      "lat": -34.86666666666667,
      "lon": 14.4
    }
  },
  {
    "country": "AU",
    "location": "ATN",
    "name": "Atherton",
    "nameWoDiacritics": "Atherton",
    "subdivision": "QLD",
    "status": "RQ",
    "function": [
      1,
      2
    ],
    "date": 1001,
    "coordinates": {
      "lat": -17.266666666666666,
      "lon": 14.866666666666667
    }
  },
  {
    "country": "AU",
    "location": "APR",
    "name": "Athol Park",
    "nameWoDiacritics": "Athol Park",
    "subdivision": "SA",
    "status": "RL",
    "function": [
      2
    ],
    "date": 901,
    "coordinates": {
      "lat": -34.85,
      "lon": 14.383333333333333
    }
  },
  {
    "country": "AU",
    "location": "ATT",
    "name": "Attadale",
    "nameWoDiacritics": "Attadale",
    "subdivision": "WA",
    "status": "RL",
    "function": [
      0,
      5
    ],
    "date": 1107,
    "coordinates": {
      "lat": -32.016666666666666,
      "lon": 11.9
    }
  },
  {
    "country": "AU",
    "location": "WWG",
    "name": "Aubin Grove",
    "nameWoDiacritics": "Aubin Grove",
    "subdivision": "WA",
    "status": "RL",
    "function": [
      2
    ],
    "date": 1307,
    "coordinates": {
      "lat": -32.166666666666664,
      "lon": 11.916666666666666
    }
  },
  {
    "country": "AU",
    "location": "ABN",
    "name": "Auburn",
    "nameWoDiacritics": "Auburn",
    "subdivision": "SA",
    "status": "RL",
    "function": [
      2
    ],
    "date": 1101,
    "coordinates": {
      "lat": -34.016666666666666,
      "lon": 14.4
    }
  },
  {
    "country": "AU",
    "location": "AUB",
    "name": "Auburn",
    "nameWoDiacritics": "Auburn",
    "subdivision": "NSW",
    "status": "RL",
    "function": [
      2
    ],
    "date": 1101,
    "coordinates": {
      "lat": -33.85,
      "lon": 15.166666666666666
    }
  },
  {
    "country": "AU",
    "location": "AGS",
    "name": "Augusta",
    "nameWoDiacritics": "Augusta",
    "subdivision": "WA",
    "status": "RL",
    "function": [
      0,
      2
    ],
    "date": 607,
    "coordinates": {
      "lat": -34.31666666666667,
      "lon": 11.85
    }
  },
  {
    "country": "AU",
    "location": "AUD",
    "name": "Augustus Downs",
    "nameWoDiacritics": "Augustus Downs",
    "subdivision": "QLD",
    "status": "AI",
    "function": [
      3
    ],
    "date": 9912,
    "coordinates": {
      "lat": 0,
      "lon": 0
    }
  },
  {
    "country": "AU",
    "location": "ALA",
    "name": "Auldana",
    "nameWoDiacritics": "Auldana",
    "subdivision": "SA",
    "status": "RQ",
    "function": [
      5
    ],
    "date": 901,
    "coordinates": {
      "lat": 0,
      "lon": 0
    }
  },
  {
    "country": "AU",
    "location": "A7A",
    "name": "Aura",
    "nameWoDiacritics": "Aura",
    "subdivision": "VIC",
    "status": "RL",
    "function": [
      2
    ],
    "date": 1601,
    "coordinates": {
      "lat": -37.93333333333333,
      "lon": 14.866666666666667
    }
  },
  {
    "country": "AU",
    "location": "RSE",
    "name": "Au-Rose Bay",
    "nameWoDiacritics": "Au-Rose Bay",
    "subdivision": "NSW",
    "status": "AI",
    "function": [
      3
    ],
    "date": 9912,
    "coordinates": {
      "lat": 0,
      "lon": 0
    }
  },
  {
    "country": "AU",
    "location": "AUU",
    "name": "Aurukun Mission",
    "nameWoDiacritics": "Aurukun Mission",
    "subdivision": "QLD",
    "status": "AI",
    "function": [
      3
    ],
    "date": 9912,
    "coordinates": {
      "lat": 0,
      "lon": 0
    }
  },
  {
    "country": "AU",
    "location": "AWP",
    "name": "Austral Downs",
    "nameWoDiacritics": "Austral Downs",
    "subdivision": "NT",
    "status": "AI",
    "function": [
      3
    ],
    "date": 9912,
    "coordinates": {
      "lat": 0,
      "lon": 0
    }
  },
  {
    "country": "AU",
    "location": "ALI",
    "name": "Australind",
    "nameWoDiacritics": "Australind",
    "subdivision": "WA",
    "status": "RL",
    "function": [
      0,
      2
    ],
    "date": 607,
    "coordinates": {
      "lat": -33.28333333333333,
      "lon": 11.9
    }
  },
  {
    "country": "AU",
    "location": "AVG",
    "name": "Auvergne",
    "nameWoDiacritics": "Auvergne",
    "subdivision": "NT",
    "status": "AI",
    "function": [
      3
    ],
    "date": 9912,
    "coordinates": {
      "lat": 0,
      "lon": 0
    }
  },
  {
    "country": "AU",
    "location": "AVV",
    "name": "Avalon",
    "nameWoDiacritics": "Avalon",
    "subdivision": "VIC",
    "status": "AC",
    "function": [
      3
    ],
    "date": 9701,
    "coordinates": {
      "lat": 0,
      "lon": 0
    }
  },
  {
    "country": "AU",
    "location": "AYQ",
    "name": "Ayers Rock",
    "nameWoDiacritics": "Ayers Rock",
    "subdivision": "NT",
    "status": "AI",
    "function": [
      3
    ],
    "date": 9601,
    "coordinates": {
      "lat": 0,
      "lon": 0
    }
  },
  {
    "country": "AU",
    "location": "AYR",
    "name": "Ayr",
    "nameWoDiacritics": "Ayr",
    "subdivision": "QLD",
    "status": "AI",
    "function": [
      3
    ],
    "date": 9912,
    "coordinates": {
      "lat": 0,
      "lon": 0
    }
  },
  {
    "country": "AU",
    "location": "BMS",
    "name": "Bacchus Marsh",
    "nameWoDiacritics": "Bacchus Marsh",
    "subdivision": "VIC",
    "status": "RL",
    "function": [
      2
    ],
    "date": 1207,
    "coordinates": {
      "lat": -37.666666666666664,
      "lon": 14.7
    }
  },
  {
    "country": "AU",
    "location": "BCE",
    "name": "Badger Creek",
    "nameWoDiacritics": "Badger Creek",
    "subdivision": "VIC",
    "status": "RL",
    "function": [
      2
    ],
    "date": 1301,
    "coordinates": {
      "lat": -37.7,
      "lon": 14.883333333333333
    }
  },
  {
    "country": "AU",
    "location": "BDD",
    "name": "Badu Island",
    "nameWoDiacritics": "Badu Island",
    "subdivision": "QLD",
    "status": "AI",
    "function": [
      3
    ],
    "date": 9912,
    "coordinates": {
      "lat": 0,
      "lon": 0
    }
  },
  {
    "country": "AU",
    "location": "BAE",
    "name": "Baerami",
    "nameWoDiacritics": "Baerami",
    "subdivision": "NSW",
    "status": "RL",
    "function": [
      0,
      5
    ],
    "date": 1107,
    "coordinates": {
      "lat": -32.4,
      "lon": 15.033333333333333
    }
  },
  {
    "country": "AU",
    "location": "BSJ",
    "name": "Bairnsdale",
    "nameWoDiacritics": "Bairnsdale",
    "subdivision": "VIC",
    "status": "AI",
    "function": [
      3
    ],
    "date": 9601,
    "coordinates": {
      "lat": 0,
      "lon": 0
    }
  },
  {
    "country": "AU",
    "location": "BAK",
    "name": "Bakers Creek",
    "nameWoDiacritics": "Bakers Creek",
    "subdivision": "QLD",
    "status": "UR",
    "function": [
      2
    ],
    "date": 9701,
    "coordinates": {
      "lat": 0,
      "lon": 0
    }
  },
  {
    "country": "AU",
    "location": "BLK",
    "name": "Balaklava",
    "nameWoDiacritics": "Balaklava",
    "subdivision": "SA",
    "status": "RL",
    "function": [
      2
    ],
    "date": 1301,
    "coordinates": {
      "lat": -34.15,
      "lon": 14.366666666666667
    }
  },
  {
    "country": "AU",
    "location": "LCN",
    "name": "Balcanoona",
    "nameWoDiacritics": "Balcanoona",
    "subdivision": "SA",
    "status": "AI",
    "function": [
      3
    ],
    "date": 9912,
    "coordinates": {
      "lat": 0,
      "lon": 0
    }
  },
  {
    "country": "AU",
    "location": "BTT",
    "name": "Balcatta",
    "nameWoDiacritics": "Balcatta",
    "subdivision": "WA",
    "status": "RL",
    "function": [
      2
    ],
    "date": 601,
    "coordinates": {
      "lat": -31.85,
      "lon": 11.916666666666666
    }
  },
  {
    "country": "AU",
    "location": "A6L",
    "name": "Balcombe",
    "nameWoDiacritics": "Balcombe",
    "subdivision": "VIC",
    "status": "RL",
    "function": [
      2
    ],
    "date": 1601,
    "coordinates": {
      "lat": -38.25,
      "lon": 14.833333333333334
    }
  },
  {
    "country": "AU",
    "location": "BQW",
    "name": "Balgo Hills",
    "nameWoDiacritics": "Balgo Hills",
    "subdivision": "WA",
    "status": "AI",
    "function": [
      3
    ],
    "date": 9601,
    "coordinates": {
      "lat": 0,
      "lon": 0
    }
  },
  {
    "country": "AU",
    "location": "BWL",
    "name": "Balgowlah",
    "nameWoDiacritics": "Balgowlah",
    "subdivision": "NSW",
    "status": "RL",
    "function": [
      2
    ],
    "date": 607,
    "coordinates": {
      "lat": -33.8,
      "lon": 15.183333333333334
    }
  },
  {
    "country": "AU",
    "location": "BEG",
    "name": "Balgowlah Heights",
    "nameWoDiacritics": "Balgowlah Heights",
    "subdivision": "NSW",
    "status": "RL",
    "function": [
      2
    ],
    "date": 1601,
    "coordinates": {
      "lat": -33.8,
      "lon": 15.183333333333334
    }
  },
  {
    "country": "AU",
    "location": "BAA",
    "name": "Balhannah",
    "nameWoDiacritics": "Balhannah",
    "subdivision": "SA",
    "status": "RL",
    "function": [
      0,
      5
    ],
    "date": 1107,
    "coordinates": {
      "lat": -34.983333333333334,
      "lon": 14.416666666666666
    }
  },
  {
    "country": "AU",
    "location": "LLD",
    "name": "Ballandean",
    "nameWoDiacritics": "Ballandean",
    "subdivision": "QLD",
    "status": "RL",
    "function": [
      2
    ],
    "date": 1601,
    "coordinates": {
      "lat": -28.8,
      "lon": 15.25
    }
  },
  {
    "country": "AU",
    "location": "BQA",
    "name": "Ballarat",
    "nameWoDiacritics": "Ballarat",
    "subdivision": "VIC",
    "status": "UR",
    "function": [
      1,
      2
    ],
    "date": 9701,
    "coordinates": {
      "lat": 0,
      "lon": 0
    }
  },
  {
    "country": "AU",
    "location": "BAH",
    "name": "Ballast Head",
    "nameWoDiacritics": "Ballast Head",
    "subdivision": "SA",
    "status": "AC",
    "function": [
      0
    ],
    "date": 8203,
    "coordinates": {
      "lat": 0,
      "lon": 0
    }
  },
  {
    "country": "AU",
    "location": "BNK",
    "name": "Ballina",
    "nameWoDiacritics": "Ballina",
    "subdivision": "NSW",
    "status": "AC",
    "function": [
      0,
      3
    ],
    "date": 9511,
    "coordinates": {
      "lat": 0,
      "lon": 0
    }
  },
  {
    "country": "AU",
    "location": "BLM",
    "name": "Balmain",
    "nameWoDiacritics": "Balmain",
    "subdivision": "NSW",
    "status": "RQ",
    "function": [
      2
    ],
    "date": 901,
    "coordinates": {
      "lat": -33.86666666666667,
      "lon": 15.183333333333334
    }
  },
  {
    "country": "AU",
    "location": "BAL",
    "name": "Balnarring",
    "nameWoDiacritics": "Balnarring",
    "subdivision": "VIC",
    "status": "RL",
    "function": [
      0,
      5
    ],
    "date": 1107,
    "coordinates": {
      "lat": -38.36666666666667,
      "lon": 14.833333333333334
    }
  },
  {
    "country": "AU",
    "location": "R4A",
    "name": "Balnarring Beach",
    "nameWoDiacritics": "Balnarring Beach",
    "subdivision": "VIC",
    "status": "RL",
    "function": [
      2
    ],
    "date": 1601,
    "coordinates": {
      "lat": -38.35,
      "lon": 14.833333333333334
    }
  },
  {
    "country": "AU",
    "location": "BZD",
    "name": "Balranald",
    "nameWoDiacritics": "Balranald",
    "subdivision": "NSW",
    "status": "AI",
    "function": [
      3
    ],
    "date": 9912,
    "coordinates": {
      "lat": 0,
      "lon": 0
    }
  },
  {
    "country": "AU",
    "location": "BWN",
    "name": "Balwyn",
    "nameWoDiacritics": "Balwyn",
    "subdivision": "VIC",
    "status": "RL",
    "function": [
      5
    ],
    "date": 1201,
    "coordinates": {
      "lat": -37.8,
      "lon": 14.833333333333334
    }
  },
  {
    "country": "AU",
    "location": "ABM",
    "name": "Bamaga",
    "nameWoDiacritics": "Bamaga",
    "subdivision": "QLD",
    "status": "AI",
    "function": [
      3
    ],
    "date": 9912,
    "coordinates": {
      "lat": 0,
      "lon": 0
    }
  },
  {
    "country": "AU",
    "location": "BAN",
    "name": "Bandiana",
    "nameWoDiacritics": "Bandiana",
    "subdivision": "VIC",
    "status": "RL",
    "function": [
      2
    ],
    "date": 1207,
    "coordinates": {
      "lat": -36.15,
      "lon": 15.083333333333334
    }
  },
  {
    "country": "AU",
    "location": "BGW",
    "name": "Bangalow",
    "nameWoDiacritics": "Bangalow",
    "subdivision": "NSW",
    "status": "RL",
    "function": [
      1,
      2
    ],
    "date": 607,
    "coordinates": {
      "lat": -28.683333333333334,
      "lon": 15.55
    }
  },
  {
    "country": "AU",
    "location": "LME",
    "name": "Bangholme",
    "nameWoDiacritics": "Bangholme",
    "subdivision": "VIC",
    "status": "RQ",
    "function": [
      0
    ],
    "date": 901,
    "coordinates": {
      "lat": 0,
      "lon": 0
    }
  },
  {
    "country": "AU",
    "location": "GBH",
    "name": "Bangor",
    "nameWoDiacritics": "Bangor",
    "subdivision": "NSW",
    "status": "RL",
    "function": [
      2
    ],
    "date": 1601,
    "coordinates": {
      "lat": -34.016666666666666,
      "lon": 15.166666666666666
    }
  },
  {
    "country": "AU",
    "location": "BYX",
    "name": "Baniyala",
    "nameWoDiacritics": "Baniyala",
    "subdivision": "NT",
    "status": "AI",
    "function": [
      3
    ],
    "date": 9912,
    "coordinates": {
      "lat": 0,
      "lon": 0
    }
  },
  {
    "country": "AU",
    "location": "BMO",
    "name": "Banksmeadow",
    "nameWoDiacritics": "Banksmeadow",
    "subdivision": "NSW",
    "status": "RL",
    "function": [
      2
    ],
    "date": 901,
    "coordinates": {
      "lat": -33.95,
      "lon": 15.183333333333334
    }
  },
  {
    "country": "AU",
    "location": "BWU",
    "name": "Bankstown",
    "nameWoDiacritics": "Bankstown",
    "subdivision": "NSW",
    "status": "AC",
    "function": [
      3
    ],
    "date": 9511,
    "coordinates": {
      "lat": 0,
      "lon": 0
    }
  },
  {
    "country": "AU",
    "location": "BNN",
    "name": "Bannockburn",
    "nameWoDiacritics": "Bannockburn",
    "subdivision": "VIC",
    "status": "RL",
    "function": [
      0,
      5
    ],
    "date": 1107,
    "coordinates": {
      "lat": -38.05,
      "lon": 14.683333333333334
    }
  },
  {
    "country": "AU",
    "location": "BYD",
    "name": "Banyo",
    "nameWoDiacritics": "Banyo",
    "subdivision": "QLD",
    "status": "RL",
    "function": [
      2
    ],
    "date": 1207,
    "coordinates": {
      "lat": -27.366666666666667,
      "lon": 15.5
    }
  },
  {
    "country": "AU",
    "location": "BCI",
    "name": "Barcaldine",
    "nameWoDiacritics": "Barcaldine",
    "subdivision": "QLD",
    "status": "AI",
    "function": [
      3
    ],
    "date": 9601,
    "coordinates": {
      "lat": 0,
      "lon": 0
    }
  },
  {
    "country": "AU",
    "location": "BRL",
    "name": "Barellan",
    "nameWoDiacritics": "Barellan",
    "subdivision": "NSW",
    "status": "RL",
    "function": [
      1,
      2
    ],
    "date": 607,
    "coordinates": {
      "lat": -34.3,
      "lon": 15.05
    }
  },
  {
    "country": "AU",
    "location": "BKP",
    "name": "Barkly Downs",
    "nameWoDiacritics": "Barkly Downs",
    "subdivision": "QLD",
    "status": "AI",
    "function": [
      3
    ],
    "date": 9912,
    "coordinates": {
      "lat": 0,
      "lon": 0
    }
  },
  {
    "country": "AU",
    "location": "BRE",
    "name": "Barmera",
    "nameWoDiacritics": "Barmera",
    "subdivision": "SA",
    "status": "RL",
    "function": [
      2
    ],
    "date": 1601,
    "coordinates": {
      "lat": -34.25,
      "lon": 14.033333333333333
    }
  },
  {
    "country": "AU",
    "location": "BNW",
    "name": "Barnawartha",
    "nameWoDiacritics": "Barnawartha",
    "subdivision": "VIC",
    "status": "RL",
    "function": [
      5
    ],
    "date": 1201,
    "coordinates": {
      "lat": -36.1,
      "lon": 15.066666666666666
    }
  },
  {
    "country": "AU",
    "location": "BPT",
    "name": "Barney Point",
    "nameWoDiacritics": "Barney Point",
    "subdivision": "QLD",
    "status": "RL",
    "function": [
      2
    ],
    "date": 1301,
    "coordinates": {
      "lat": -23.833333333333332,
      "lon": 15.183333333333334
    }
  },
  {
    "country": "AU",
    "location": "RNG",
    "name": "Barongarook",
    "nameWoDiacritics": "Barongarook",
    "subdivision": "VIC",
    "status": "RL",
    "function": [
      2
    ],
    "date": 1601,
    "coordinates": {
      "lat": -38.416666666666664,
      "lon": 14.55
    }
  },
  {
    "country": "AU",
    "location": "RTA",
    "name": "Baroota",
    "nameWoDiacritics": "Baroota",
    "subdivision": "SA",
    "status": "RL",
    "function": [
      2
    ],
    "date": 1601,
    "coordinates": {
      "lat": -32.85,
      "lon": 14.333333333333334
    }
  },
  {
    "country": "AU",
    "location": "BWB",
    "name": "Barrow Island",
    "nameWoDiacritics": "Barrow Island",
    "subdivision": "WA",
    "status": "AC",
    "function": [
      0,
      3
    ],
    "date": 9511,
    "coordinates": {
      "lat": 0,
      "lon": 0
    }
  },
  {
    "country": "AU",
    "location": "BAR",
    "name": "Barry Beach",
    "nameWoDiacritics": "Barry Beach",
    "subdivision": "VIC",
    "status": "RQ",
    "function": [
      0,
      2
    ],
    "date": 901,
    "coordinates": {
      "lat": -38.7,
      "lon": 15.033333333333333
    }
  },
  {
    "country": "AU",
    "location": "RBG",
    "name": "Barunga",
    "nameWoDiacritics": "Barunga",
    "subdivision": "SA",
    "status": "RL",
    "function": [
      2
    ],
    "date": 1501,
    "coordinates": {
      "lat": -33.71666666666667,
      "lon": 14.333333333333334
    }
  },
  {
    "country": "AU",
    "location": "BRH",
    "name": "Barwon Heads",
    "nameWoDiacritics": "Barwon Heads",
    "subdivision": "VIC",
    "status": "RL",
    "function": [
      2
    ],
    "date": 1307,
    "coordinates": {
      "lat": -38.28333333333333,
      "lon": 14.716666666666667
    }
  },
  {
    "country": "AU",
    "location": "BR7",
    "name": "Basket Range",
    "nameWoDiacritics": "Basket Range",
    "subdivision": "SA",
    "status": "RL",
    "function": [
      2
    ],
    "date": 1501,
    "coordinates": {
      "lat": -34.93333333333333,
      "lon": 14.4
    }
  },
  {
    "country": "AU",
    "location": "BSH",
    "name": "Bass Hill",
    "nameWoDiacritics": "Bass Hill",
    "subdivision": "NSW",
    "status": "RQ",
    "function": [
      2
    ],
    "date": 1101,
    "coordinates": {
      "lat": -33.96666666666667,
      "lon": 15.166666666666666
    }
  },
  {
    "country": "AU",
    "location": "BAS",
    "name": "Bassendean",
    "nameWoDiacritics": "Bassendean",
    "subdivision": "WA",
    "status": "RL",
    "function": [
      2
    ],
    "date": 901,
    "coordinates": {
      "lat": -31.9,
      "lon": 11.916666666666666
    }
  },
  {
    "country": "AU",
    "location": "BVW",
    "name": "Batavia Downs",
    "nameWoDiacritics": "Batavia Downs",
    "subdivision": "QLD",
    "status": "AI",
    "function": [
      3
    ],
    "date": 9912,
    "coordinates": {
      "lat": 0,
      "lon": 0
    }
  },
  {
    "country": "AU",
    "location": "BUB",
    "name": "Bateau Bay",
    "nameWoDiacritics": "Bateau Bay",
    "subdivision": "NSW",
    "status": "RL",
    "function": [
      2
    ],
    "date": 1601,
    "coordinates": {
      "lat": -33.36666666666667,
      "lon": 15.2
    }
  },
  {
    "country": "AU",
    "location": "QBW",
    "name": "Batemans Bay",
    "nameWoDiacritics": "Batemans Bay",
    "subdivision": "NSW",
    "status": "RL",
    "function": [
      2
    ],
    "date": 901,
    "coordinates": {
      "lat": -35.71666666666667,
      "lon": 15.016666666666667
    }
  },
  {
    "country": "AU",
    "location": "BHS",
    "name": "Bathurst",
    "nameWoDiacritics": "Bathurst",
    "subdivision": "NSW",
    "status": "AI",
    "function": [
      3
    ],
    "date": 9601,
    "coordinates": {
      "lat": 0,
      "lon": 0
    }
  },
  {
    "country": "AU",
    "location": "BRT",
    "name": "Bathurst Island",
    "nameWoDiacritics": "Bathurst Island",
    "subdivision": "NT",
    "status": "AI",
    "function": [
      0,
      3
    ],
    "date": 9601,
    "coordinates": {
      "lat": 0,
      "lon": 0
    }
  },
  {
    "country": "AU",
    "location": "BTO",
    "name": "Batlow",
    "nameWoDiacritics": "Batlow",
    "subdivision": "NSW",
    "status": "RL",
    "function": [
      2
    ],
    "date": 607,
    "coordinates": {
      "lat": -35.516666666666666,
      "lon": 15.333333333333334
    }
  },
  {
    "country": "AU",
    "location": "BKH",
    "name": "Baulkham Hills",
    "nameWoDiacritics": "Baulkham Hills",
    "subdivision": "NSW",
    "status": "RL",
    "function": [
      2
    ],
    "date": 607,
    "coordinates": {
      "lat": -33.75,
      "lon": 15.166666666666666
    }
  },
  {
    "country": "AU",
    "location": "BXT",
    "name": "Baxter",
    "nameWoDiacritics": "Baxter",
    "subdivision": "VIC",
    "status": "RL",
    "function": [
      1,
      2,
      5
    ],
    "date": 607,
    "coordinates": {
      "lat": -38.2,
      "lon": 14.833333333333334
    }
  },
  {
    "country": "AU",
    "location": "BDN",
    "name": "Bayindeen",
    "nameWoDiacritics": "Bayindeen",
    "subdivision": "VIC",
    "status": "RL",
    "function": [
      1,
      2
    ],
    "date": 1601,
    "coordinates": {
      "lat": -37.31666666666667,
      "lon": 14.516666666666667
    }
  },
  {
    "country": "AU",
    "location": "BYN",
    "name": "Baynton",
    "nameWoDiacritics": "Baynton",
    "subdivision": "WA",
    "status": "RL",
    "function": [
      2
    ],
    "date": 1501,
    "coordinates": {
      "lat": -20.883333333333333,
      "lon": 12.066666666666666
    }
  },
  {
    "country": "AU",
    "location": "BYS",
    "name": "Bayswater",
    "nameWoDiacritics": "Bayswater",
    "subdivision": "VIC",
    "status": "RL",
    "function": [
      2
    ],
    "date": 201,
    "coordinates": {
      "lat": -37.833333333333336,
      "lon": 14.85
    }
  },
  {
    "country": "AU",
    "location": "BYW",
    "name": "Bayswater",
    "nameWoDiacritics": "Bayswater",
    "subdivision": "WA",
    "status": "RL",
    "function": [
      2
    ],
    "date": 1607,
    "coordinates": {
      "lat": -31.916666666666668,
      "lon": 11.916666666666666
    }
  },
  {
    "country": "AU",
    "location": "BYV",
    "name": "Bayview",
    "nameWoDiacritics": "Bayview",
    "subdivision": "SA",
    "status": "RQ",
    "function": [
      2
    ],
    "date": 1101,
    "coordinates": {
      "lat": -33.65,
      "lon": 15.183333333333334
    }
  },
  {
    "country": "AU",
    "location": "BCH",
    "name": "Beachport",
    "nameWoDiacritics": "Beachport",
    "subdivision": "SA",
    "status": "AC",
    "function": [
      0
    ],
    "date": 9511,
    "coordinates": {
      "lat": 0,
      "lon": 0
    }
  },
  {
    "country": "AU",
    "location": "BOH",
    "name": "Beacon Hill",
    "nameWoDiacritics": "Beacon Hill",
    "subdivision": "NSW",
    "status": "RQ",
    "function": [
      2
    ],
    "date": 1101,
    "coordinates": {
      "lat": -33.75,
      "lon": 15.183333333333334
    }
  },
  {
    "country": "AU",
    "location": "BEA",
    "name": "Beaconsfield",
    "nameWoDiacritics": "Beaconsfield",
    "subdivision": "TAS",
    "status": "RL",
    "function": [
      2
    ],
    "date": 901,
    "coordinates": {
      "lat": -41.2,
      "lon": 15.066666666666666
    }
  },
  {
    "country": "AU",
    "location": "BPR",
    "name": "Beaconsfield Upper",
    "nameWoDiacritics": "Beaconsfield Upper",
    "subdivision": "VIC",
    "status": "RL",
    "function": [
      5
    ],
    "date": 1607,
    "coordinates": {
      "lat": -38,
      "lon": 14.866666666666667
    }
  },
  {
    "country": "AU",
    "location": "BEE",
    "name": "Beagle Bay",
    "nameWoDiacritics": "Beagle Bay",
    "subdivision": "WA",
    "status": "AI",
    "function": [
      3
    ],
    "date": 9912,
    "coordinates": {
      "lat": 0,
      "lon": 0
    }
  },
  {
    "country": "AU",
    "location": "BDS",
    "name": "Beaudesert",
    "nameWoDiacritics": "Beaudesert",
    "subdivision": "QLD",
    "status": "RQ",
    "function": [
      0
    ],
    "date": 9601,
    "coordinates": {
      "lat": 0,
      "lon": 0
    }
  },
  {
    "country": "AU",
    "location": "BUT",
    "name": "Beaumont",
    "nameWoDiacritics": "Beaumont",
    "subdivision": "SA",
    "status": "RL",
    "function": [
      2
    ],
    "date": 1707,
    "coordinates": {
      "lat": -34.93333333333333,
      "lon": 14.383333333333333
    }
  },
  {
    "country": "AU",
    "location": "BYP",
    "name": "Beauty Point",
    "nameWoDiacritics": "Beauty Point",
    "subdivision": "TAS",
    "status": "AC",
    "function": [
      0
    ],
    "date": 9511,
    "coordinates": {
      "lat": 0,
      "lon": 0
    }
  },
  {
    "country": "AU",
    "location": "BEC",
    "name": "Beckenham",
    "nameWoDiacritics": "Beckenham",
    "subdivision": "WA",
    "status": "RL",
    "function": [
      2
    ],
    "date": 901,
    "coordinates": {
      "lat": -31.033333333333335,
      "lon": 11.916666666666666
    }
  },
  {
    "country": "AU",
    "location": "BKO",
    "name": "Beckom",
    "nameWoDiacritics": "Beckom",
    "subdivision": "NSW",
    "status": "RL",
    "function": [
      1,
      2
    ],
    "date": 607,
    "coordinates": {
      "lat": -34.333333333333336,
      "lon": 15.083333333333334
    }
  },
  {
    "country": "AU",
    "location": "BDW",
    "name": "Bedford Downs",
    "nameWoDiacritics": "Bedford Downs",
    "subdivision": "WA",
    "status": "AI",
    "function": [
      3
    ],
    "date": 9912,
    "coordinates": {
      "lat": 0,
      "lon": 0
    }
  },
  {
    "country": "AU",
    "location": "BDF",
    "name": "Bedford Park",
    "nameWoDiacritics": "Bedford Park",
    "subdivision": "SA",
    "status": "RL",
    "function": [
      2,
      5
    ],
    "date": 1107,
    "coordinates": {
      "lat": -35.03333333333333,
      "lon": 14.383333333333333
    }
  },
  {
    "country": "AU",
    "location": "BEU",
    "name": "Bedourie",
    "nameWoDiacritics": "Bedourie",
    "subdivision": "QLD",
    "status": "AI",
    "function": [
      3
    ],
    "date": 9912,
    "coordinates": {
      "lat": 0,
      "lon": 0
    }
  },
  {
    "country": "AU",
    "location": "BHH",
    "name": "Beechworth",
    "nameWoDiacritics": "Beechworth",
    "subdivision": "VIC",
    "status": "RL",
    "function": [
      5
    ],
    "date": 1607,
    "coordinates": {
      "lat": -36.36666666666667,
      "lon": 15.066666666666666
    }
  },
  {
    "country": "AU",
    "location": "BBL",
    "name": "Beelbangera",
    "nameWoDiacritics": "Beelbangera",
    "subdivision": "NSW",
    "status": "RL",
    "function": [
      0
    ],
    "date": 1107,
    "coordinates": {
      "lat": -34.266666666666666,
      "lon": 15
    }
  },
  {
    "country": "AU",
    "location": "BLG",
    "name": "Beenleigh",
    "nameWoDiacritics": "Beenleigh",
    "subdivision": "QLD",
    "status": "RL",
    "function": [
      1,
      2
    ],
    "date": 607,
    "coordinates": {
      "lat": -27.716666666666665,
      "lon": 15.516666666666667
    }
  },
  {
    "country": "AU",
    "location": "BEW",
    "name": "Beerwah",
    "nameWoDiacritics": "Beerwah",
    "subdivision": "QLD",
    "status": "RL",
    "function": [
      2
    ],
    "date": 901,
    "coordinates": {
      "lat": -27.416666666666668,
      "lon": 15.483333333333333
    }
  },
  {
    "country": "AU",
    "location": "QBE",
    "name": "Bega",
    "nameWoDiacritics": "Bega",
    "subdivision": "NSW",
    "status": "RL",
    "function": [
      2
    ],
    "date": 901,
    "coordinates": {
      "lat": -36.666666666666664,
      "lon": 15.583333333333334
    }
  },
  {
    "country": "AU",
    "location": "BLC",
    "name": "Belconnen",
    "nameWoDiacritics": "Belconnen",
    "subdivision": "ACT",
    "status": "AA",
    "function": [
      2
    ],
    "date": 1807,
    "coordinates": {
      "lat": -35.233333333333334,
      "lon": 15.5
    }
  },
  {
    "country": "AU",
    "location": "LFD",
    "name": "Belford",
    "nameWoDiacritics": "Belford",
    "subdivision": "NSW",
    "status": "RL",
    "function": [
      2
    ],
    "date": 1601,
    "coordinates": {
      "lat": -32.666666666666664,
      "lon": 15.183333333333334
    }
  },
  {
    "country": "AU",
    "location": "L7E",
    "name": "Belgrave",
    "nameWoDiacritics": "Belgrave",
    "subdivision": "VIC",
    "status": "RL",
    "function": [
      1,
      2
    ],
    "date": 1601,
    "coordinates": {
      "lat": -37.9,
      "lon": 14.866666666666667
    }
  },
  {
    "country": "AU",
    "location": "R5H",
    "name": "Belgrave Heights",
    "nameWoDiacritics": "Belgrave Heights",
    "subdivision": "VIC",
    "status": "RL",
    "function": [
      2
    ],
    "date": 1601,
    "coordinates": {
      "lat": -37.916666666666664,
      "lon": 14.866666666666667
    }
  },
  {
    "country": "AU",
    "location": "A5T",
    "name": "Belgrave South",
    "nameWoDiacritics": "Belgrave South",
    "subdivision": "VIC",
    "status": "RL",
    "function": [
      2
    ],
    "date": 1601,
    "coordinates": {
      "lat": -37.93333333333333,
      "lon": 14.866666666666667
    }
  },
  {
    "country": "AU",
    "location": "BEL",
    "name": "Bell Bay",
    "nameWoDiacritics": "Bell Bay",
    "subdivision": "TAS",
    "status": "AC",
    "function": [
      0,
      1,
      2
    ],
    "date": 9511,
    "coordinates": {
      "lat": 0,
      "lon": 0
    }
  },
  {
    "country": "AU",
    "location": "BLV",
    "name": "Bella Vista",
    "nameWoDiacritics": "Bella Vista",
    "subdivision": "NSW",
    "status": "RQ",
    "function": [
      2
    ],
    "date": 1101,
    "coordinates": {
      "lat": -33.733333333333334,
      "lon": 15.083333333333334
    }
  },
  {
    "country": "AU",
    "location": "BEX",
    "name": "Bellevue",
    "nameWoDiacritics": "Bellevue",
    "subdivision": "WA",
    "status": "RL",
    "function": [
      2
    ],
    "date": 901,
    "coordinates": {
      "lat": -31.9,
      "lon": 12
    }
  },
  {
    "country": "AU",
    "location": "IUH",
    "name": "Bellevue Hill",
    "nameWoDiacritics": "Bellevue Hill",
    "subdivision": "NSW",
    "status": "RL",
    "function": [
      2
    ],
    "date": 1407,
    "coordinates": {
      "lat": -33.86666666666667,
      "lon": 15.183333333333334
    }
  },
  {
    "country": "AU",
    "location": "NS3",
    "name": "Bellingen",
    "nameWoDiacritics": "Bellingen",
    "subdivision": "NSW",
    "status": "RL",
    "function": [
      2
    ],
    "date": 1601,
    "coordinates": {
      "lat": -30.45,
      "lon": 15.416666666666666
    }
  },
  {
    "country": "AU",
    "location": "BEO",
    "name": "Belmont",
    "nameWoDiacritics": "Belmont",
    "subdivision": "NSW",
    "status": "AI",
    "function": [
      3
    ],
    "date": 9912,
    "coordinates": {
      "lat": 0,
      "lon": 0
    }
  },
  {
    "country": "AU",
    "location": "BET",
    "name": "Belmont",
    "nameWoDiacritics": "Belmont",
    "subdivision": "WA",
    "status": "RL",
    "function": [
      2
    ],
    "date": 1207,
    "coordinates": {
      "lat": -31.933333333333334,
      "lon": 11.916666666666666
    }
  },
  {
    "country": "AU",
    "location": "BQ9",
    "name": "Belmont",
    "nameWoDiacritics": "Belmont",
    "subdivision": "QLD",
    "status": "RL",
    "function": [
      2
    ],
    "date": 1601,
    "coordinates": {
      "lat": -27.5,
      "lon": 15.5
    }
  },
  {
    "country": "AU",
    "location": "BEM",
    "name": "Belmore",
    "nameWoDiacritics": "Belmore",
    "subdivision": "NSW",
    "status": "RL",
    "function": [
      1,
      2
    ],
    "date": 701,
    "coordinates": {
      "lat": -33.916666666666664,
      "lon": 15.166666666666666
    }
  },
  {
    "country": "AU",
    "location": "BE9",
    "name": "Belrose",
    "nameWoDiacritics": "Belrose",
    "subdivision": "NSW",
    "status": "RL",
    "function": [
      0,
      5
    ],
    "date": 1107,
    "coordinates": {
      "lat": -33.733333333333334,
      "lon": 15.183333333333334
    }
  },
  {
    "country": "AU",
    "location": "BVD",
    "name": "Belvidere",
    "nameWoDiacritics": "Belvidere",
    "subdivision": "SA",
    "status": "RL",
    "function": [
      0,
      5
    ],
    "date": 1107,
    "coordinates": {
      "lat": -35.3,
      "lon": 14.416666666666666
    }
  },
  {
    "country": "AU",
    "location": "BMK",
    "name": "Bemboka",
    "nameWoDiacritics": "Bemboka",
    "subdivision": "NSW",
    "status": "RL",
    "function": [
      2
    ],
    "date": 607,
    "coordinates": {
      "lat": -36.63333333333333,
      "lon": 15.55
    }
  },
  {
    "country": "AU",
    "location": "BLN",
    "name": "Benalla",
    "nameWoDiacritics": "Benalla",
    "subdivision": "VIC",
    "status": "RL",
    "function": [
      1
    ],
    "date": 9901,
    "coordinates": {
      "lat": 0,
      "lon": 0
    }
  },
  {
    "country": "AU",
    "location": "BCB",
    "name": "Bencubbin",
    "nameWoDiacritics": "Bencubbin",
    "subdivision": "WA",
    "status": "RL",
    "function": [
      1,
      2
    ],
    "date": 607,
    "coordinates": {
      "lat": -30.816666666666666,
      "lon": 12.25
    }
  },
  {
    "country": "AU",
    "location": "BM5",
    "name": "Bendemeer",
    "nameWoDiacritics": "Bendemeer",
    "subdivision": "NSW",
    "status": "RL",
    "function": [
      2
    ],
    "date": 1601,
    "coordinates": {
      "lat": -30.883333333333333,
      "lon": 15.183333333333334
    }
  },
  {
    "country": "AU",
    "location": "BMU",
    "name": "Bendick Murrell",
    "nameWoDiacritics": "Bendick Murrell",
    "subdivision": "NSW",
    "status": "RL",
    "function": [
      1,
      2
    ],
    "date": 607,
    "coordinates": {
      "lat": -34.166666666666664,
      "lon": 15.366666666666667
    }
  },
  {
    "country": "AU",
    "location": "BDG",
    "name": "Bendigo",
    "nameWoDiacritics": "Bendigo",
    "subdivision": "VIC",
    "status": "AI",
    "function": [
      2,
      3
    ],
    "date": 9701,
    "iata": "BXG",
    "coordinates": {
      "lat": 0,
      "lon": 0
    }
  },
  {
    "country": "AU",
    "location": "BGN",
    "name": "Bennetts Green",
    "nameWoDiacritics": "Bennetts Green",
    "subdivision": "NSW",
    "status": "RQ",
    "function": [
      2
    ],
    "date": 901,
    "coordinates": {
      "lat": 0,
      "lon": 0
    }
  },
  {
    "country": "AU",
    "location": "OWA",
    "name": "Benowa",
    "nameWoDiacritics": "Benowa",
    "subdivision": "QLD",
    "status": "RL",
    "function": [
      2
    ],
    "date": 1801,
    "coordinates": {
      "lat": -28.016666666666666,
      "lon": 15.533333333333333
    }
  },
  {
    "country": "AU",
    "location": "BEY",
    "name": "Bentley",
    "nameWoDiacritics": "Bentley",
    "subdivision": "NSW",
    "status": "RL",
    "function": [
      2
    ],
    "date": 1501,
    "coordinates": {
      "lat": -28.766666666666666,
      "lon": 15.5
    }
  },
  {
    "country": "AU",
    "location": "BEN",
    "name": "Bentliegh Vic",
    "nameWoDiacritics": "Bentliegh Vic",
    "subdivision": "VIC",
    "status": "RL",
    "function": [
      2
    ],
    "date": 901,
    "coordinates": {
      "lat": -37.916666666666664,
      "lon": 14.833333333333334
    }
  },
  {
    "country": "AU",
    "location": "WRG",
    "name": "Berambing",
    "nameWoDiacritics": "Berambing",
    "subdivision": "NSW",
    "status": "RL",
    "function": [
      2
    ],
    "date": 1601,
    "coordinates": {
      "lat": -33.53333333333333,
      "lon": 15.033333333333333
    }
  },
  {
    "country": "AU",
    "location": "BFD",
    "name": "Beresfield",
    "nameWoDiacritics": "Beresfield",
    "subdivision": "NSW",
    "status": "RL",
    "function": [
      0,
      5
    ],
    "date": 901,
    "coordinates": {
      "lat": -32.8,
      "lon": 15.216666666666667
    }
  },
  {
    "country": "AU",
    "location": "BKE",
    "name": "Berkeley Vale",
    "nameWoDiacritics": "Berkeley Vale",
    "subdivision": "NSW",
    "status": "RL",
    "function": [
      0,
      5
    ],
    "date": 1201,
    "coordinates": {
      "lat": -33.35,
      "lon": 15.2
    }
  },
  {
    "country": "AU",
    "location": "ZAA",
    "name": "Berowra",
    "nameWoDiacritics": "Berowra",
    "subdivision": "NSW",
    "status": "RL",
    "function": [
      2
    ],
    "date": 1601,
    "coordinates": {
      "lat": -33.63333333333333,
      "lon": 15.166666666666666
    }
  },
  {
    "country": "AU",
    "location": "BER",
    "name": "Berri",
    "nameWoDiacritics": "Berri",
    "subdivision": "SA",
    "status": "AC",
    "function": [
      2
    ],
    "date": 1401,
    "coordinates": {
      "lat": -34.28333333333333,
      "lon": 14.05
    }
  },
  {
    "country": "AU",
    "location": "BRD",
    "name": "Berridale",
    "nameWoDiacritics": "Berridale",
    "subdivision": "NSW",
    "status": "RL",
    "function": [
      2
    ],
    "date": 607,
    "coordinates": {
      "lat": -36.36666666666667,
      "lon": 15.4
    }
  },
  {
    "country": "AU",
    "location": "TTM",
    "name": "Berriedale",
    "nameWoDiacritics": "Berriedale",
    "subdivision": "TAS",
    "status": "RL",
    "function": [
      2
    ],
    "date": 1601,
    "coordinates": {
      "lat": -42.81666666666667,
      "lon": 15.183333333333334
    }
  },
  {
    "country": "AU",
    "location": "BRG",
    "name": "Berrigan",
    "nameWoDiacritics": "Berrigan",
    "subdivision": "NSW",
    "status": "RL",
    "function": [
      2
    ],
    "date": 607,
    "coordinates": {
      "lat": -35.666666666666664,
      "lon": 14.9
    }
  },
  {
    "country": "AU",
    "location": "VRB",
    "name": "Berrima",
    "nameWoDiacritics": "Berrima",
    "subdivision": "NSW",
    "status": "RL",
    "function": [
      2
    ],
    "date": 1601,
    "coordinates": {
      "lat": -34.483333333333334,
      "lon": 15.033333333333333
    }
  },
  {
    "country": "AU",
    "location": "BRM",
    "name": "Berrimah",
    "nameWoDiacritics": "Berrimah",
    "subdivision": "NT",
    "status": "RQ",
    "function": [
      2
    ],
    "date": 907,
    "coordinates": {
      "lat": -12.416666666666666,
      "lon": 13.083333333333334
    }
  },
  {
    "country": "AU",
    "location": "BIB",
    "name": "Berrinba",
    "nameWoDiacritics": "Berrinba",
    "subdivision": "QLD",
    "status": "RL",
    "function": [
      2
    ],
    "date": 1301,
    "coordinates": {
      "lat": -27.65,
      "lon": 15.5
    }
  },
  {
    "country": "AU",
    "location": "BRR",
    "name": "Berrys Creek",
    "nameWoDiacritics": "Berrys Creek",
    "subdivision": "VIC",
    "status": "RL",
    "function": [
      0,
      5
    ],
    "date": 1107,
    "coordinates": {
      "lat": -38.416666666666664,
      "lon": 15
    }
  },
  {
    "country": "AU",
    "location": "WV5",
    "name": "Berwick",
    "nameWoDiacritics": "Berwick",
    "subdivision": "VIC",
    "status": "RL",
    "function": [
      2
    ],
    "date": 1601,
    "coordinates": {
      "lat": -38.03333333333333,
      "lon": 14.866666666666667
    }
  },
  {
    "country": "AU",
    "location": "BTX",
    "name": "Betoota",
    "nameWoDiacritics": "Betoota",
    "subdivision": "QLD",
    "status": "AI",
    "function": [
      3
    ],
    "date": 9912,
    "coordinates": {
      "lat": 0,
      "lon": 0
    }
  },
  {
    "country": "AU",
    "location": "ABC",
    "name": "Beulah",
    "nameWoDiacritics": "Beulah",
    "subdivision": "VIC",
    "status": "RL",
    "function": [
      2
    ],
    "date": 1601,
    "coordinates": {
      "lat": -35.93333333333333,
      "lon": 14.366666666666667
    }
  },
  {
    "country": "AU",
    "location": "BVV",
    "name": "Beverford",
    "nameWoDiacritics": "Beverford",
    "subdivision": "VIC",
    "status": "RL",
    "function": [
      2
    ],
    "date": 1601,
    "coordinates": {
      "lat": -35.233333333333334,
      "lon": 14.533333333333333
    }
  },
  {
    "country": "AU",
    "location": "BVS",
    "name": "Beverley",
    "nameWoDiacritics": "Beverley",
    "subdivision": "SA",
    "status": "RL",
    "function": [
      1,
      2
    ],
    "date": 601,
    "coordinates": {
      "lat": -34.88333333333333,
      "lon": 14.383333333333333
    }
  },
  {
    "country": "AU",
    "location": "BVY",
    "name": "Beverley",
    "nameWoDiacritics": "Beverley",
    "subdivision": "WA",
    "status": "RL",
    "function": [
      2
    ],
    "date": 1801,
    "coordinates": {
      "lat": -32.11666666666667,
      "lon": 12.083333333333334
    }
  },
  {
    "country": "AU",
    "location": "BVZ",
    "name": "Beverley Springs",
    "nameWoDiacritics": "Beverley Springs",
    "subdivision": "WA",
    "status": "AI",
    "function": [
      3
    ],
    "date": 9912,
    "coordinates": {
      "lat": 0,
      "lon": 0
    }
  },
  {
    "country": "AU",
    "location": "XBY",
    "name": "Bexley",
    "nameWoDiacritics": "Bexley",
    "subdivision": "NSW",
    "status": "RL",
    "function": [
      2
    ],
    "date": 1407,
    "coordinates": {
      "lat": -33.95,
      "lon": 15.166666666666666
    }
  },
  {
    "country": "AU",
    "location": "BBU",
    "name": "Bibbenluke",
    "nameWoDiacritics": "Bibbenluke",
    "subdivision": "NSW",
    "status": "RL",
    "function": [
      2
    ],
    "date": 607,
    "coordinates": {
      "lat": -36.81666666666667,
      "lon": 15.516666666666666
    }
  },
  {
    "country": "AU",
    "location": "BLA",
    "name": "Bibra Lake",
    "nameWoDiacritics": "Bibra Lake",
    "subdivision": "WA",
    "status": "RL",
    "function": [
      1,
      2,
      5
    ],
    "date": 607,
    "coordinates": {
      "lat": -32.06666666666667,
      "lon": 11.9
    }
  },
  {
    "country": "AU",
    "location": "BIC",
    "name": "Bicheno",
    "nameWoDiacritics": "Bicheno",
    "subdivision": "TAS",
    "status": "RL",
    "function": [
      0,
      5
    ],
    "date": 1107,
    "coordinates": {
      "lat": -41.86666666666667,
      "lon": 15.35
    }
  },
  {
    "country": "AU",
    "location": "BCZ",
    "name": "Bickerton Island",
    "nameWoDiacritics": "Bickerton Island",
    "subdivision": "NT",
    "status": "AI",
    "function": [
      3
    ],
    "date": 9912,
    "coordinates": {
      "lat": 0,
      "lon": 0
    }
  },
  {
    "country": "AU",
    "location": "BNT",
    "name": "Bicton",
    "nameWoDiacritics": "Bicton",
    "subdivision": "WA",
    "status": "RQ",
    "function": [
      5
    ],
    "date": 1001,
    "coordinates": {
      "lat": -32.016666666666666,
      "lon": 11.9
    }
  },
  {
    "country": "AU",
    "location": "BBE",
    "name": "Big Bell",
    "nameWoDiacritics": "Big Bell",
    "subdivision": "WA",
    "status": "AI",
    "function": [
      3
    ],
    "date": 9912,
    "coordinates": {
      "lat": 0,
      "lon": 0
    }
  },
  {
    "country": "AU",
    "location": "BGG",
    "name": "Biggera Waters",
    "nameWoDiacritics": "Biggera Waters",
    "subdivision": "QLD",
    "status": "RL",
    "function": [
      2
    ],
    "date": 1207,
    "coordinates": {
      "lat": -27.916666666666668,
      "lon": 15.533333333333333
    }
  },
  {
    "country": "AU",
    "location": "BIG",
    "name": "Bilinga",
    "nameWoDiacritics": "Bilinga",
    "subdivision": "QLD",
    "status": "RL",
    "function": [
      2
    ],
    "date": 1801,
    "coordinates": {
      "lat": -28.166666666666668,
      "lon": 15.55
    }
  },
  {
    "country": "AU",
    "location": "BIW",
    "name": "Billiluna",
    "nameWoDiacritics": "Billiluna",
    "subdivision": "WA",
    "status": "AI",
    "function": [
      3
    ],
    "date": 9912,
    "coordinates": {
      "lat": 0,
      "lon": 0
    }
  },
  {
    "country": "AU",
    "location": "BIL",
    "name": "Billinudgel",
    "nameWoDiacritics": "Billinudgel",
    "subdivision": "NSW",
    "status": "RL",
    "function": [
      2
    ],
    "date": 1801,
    "coordinates": {
      "lat": -28.5,
      "lon": 15.55
    }
  },
  {
    "country": "AU",
    "location": "BLO",
    "name": "Biloela",
    "nameWoDiacritics": "Biloela",
    "subdivision": "QLD",
    "status": "AC",
    "function": [
      2,
      3
    ],
    "date": 9511,
    "coordinates": {
      "lat": 0,
      "lon": 0
    }
  },
  {
    "country": "AU",
    "location": "BNG",
    "name": "Binalong",
    "nameWoDiacritics": "Binalong",
    "subdivision": "NSW",
    "status": "RL",
    "function": [
      1,
      2
    ],
    "date": 607,
    "coordinates": {
      "lat": -34.666666666666664,
      "lon": 15.383333333333333
    }
  },
  {
    "country": "AU",
    "location": "BBG",
    "name": "Bing Bong",
    "nameWoDiacritics": "Bing Bong",
    "subdivision": "NT",
    "status": "RL",
    "function": [
      0
    ],
    "date": 212,
    "coordinates": {
      "lat": -15.6,
      "lon": 14.033333333333333
    }
  },
  {
    "country": "AU",
    "location": "BBR",
    "name": "Binna Burra",
    "nameWoDiacritics": "Binna Burra",
    "subdivision": "NSW",
    "status": "RL",
    "function": [
      1,
      2
    ],
    "date": 607,
    "coordinates": {
      "lat": -28.7,
      "lon": 15.55
    }
  },
  {
    "country": "AU",
    "location": "BIN",
    "name": "Binningup",
    "nameWoDiacritics": "Binningup",
    "subdivision": "WA",
    "status": "RL",
    "function": [
      2
    ],
    "date": 1107,
    "coordinates": {
      "lat": -33.15,
      "lon": 11.9
    }
  },
  {
    "country": "AU",
    "location": "BNM",
    "name": "Binnum",
    "nameWoDiacritics": "Binnum",
    "subdivision": "SA",
    "status": "RQ",
    "function": [
      5
    ],
    "date": 1007,
    "coordinates": {
      "lat": -36.8,
      "lon": 14.083333333333334
    }
  },
  {
    "country": "AU",
    "location": "BYA",
    "name": "Binya",
    "nameWoDiacritics": "Binya",
    "subdivision": "NSW",
    "status": "RL",
    "function": [
      1,
      2
    ],
    "date": 607,
    "coordinates": {
      "lat": -34.233333333333334,
      "lon": 15.033333333333333
    }
  },
  {
    "country": "AU",
    "location": "BVI",
    "name": "Birdsville",
    "nameWoDiacritics": "Birdsville",
    "subdivision": "QLD",
    "status": "AC",
    "function": [
      3
    ],
    "date": 9511,
    "coordinates": {
      "lat": 0,
      "lon": 0
    }
  },
  {
    "country": "AU",
    "location": "VRR",
    "name": "Birdwood",
    "nameWoDiacritics": "Birdwood",
    "subdivision": "SA",
    "status": "RL",
    "function": [
      2
    ],
    "date": 1601,
    "coordinates": {
      "lat": -34.81666666666667,
      "lon": 14.416666666666666
    }
  },
  {
    "country": "AU",
    "location": "BKD",
    "name": "Birkdale",
    "nameWoDiacritics": "Birkdale",
    "subdivision": "QLD",
    "status": "RL",
    "function": [
      2
    ],
    "date": 1801,
    "coordinates": {
      "lat": -27.483333333333334,
      "lon": 15.516666666666667
    }
  },
  {
    "country": "AU",
    "location": "BIR",
    "name": "Birkenhead",
    "nameWoDiacritics": "Birkenhead",
    "subdivision": "SA",
    "status": "RQ",
    "function": [
      5
    ],
    "date": 1007,
    "coordinates": {
      "lat": -34.833333333333336,
      "lon": 14.383333333333333
    }
  },
  {
    "country": "AU",
    "location": "T6T",
    "name": "Bittern",
    "nameWoDiacritics": "Bittern",
    "subdivision": "VIC",
    "status": "RL",
    "function": [
      2
    ],
    "date": 1601,
    "coordinates": {
      "lat": -38.333333333333336,
      "lon": 14.85
    }
  },
  {
    "country": "AU",
    "location": "BZP",
    "name": "Bizant",
    "nameWoDiacritics": "Bizant",
    "subdivision": "QLD",
    "status": "AI",
    "function": [
      3
    ],
    "date": 9912,
    "coordinates": {
      "lat": 0,
      "lon": 0
    }
  },
  {
    "country": "AU",
    "location": "BLP",
    "name": "Black Point",
    "nameWoDiacritics": "Black Point",
    "subdivision": "NT",
    "status": "RL",
    "function": [
      0
    ],
    "date": 1401,
    "coordinates": {
      "lat": -11.15,
      "lon": 13.333333333333334
    }
  },
  {
    "country": "AU",
    "location": "BKQ",
    "name": "Blackall",
    "nameWoDiacritics": "Blackall",
    "subdivision": "QLD",
    "status": "AI",
    "function": [
      3
    ],
    "date": 9601,
    "coordinates": {
      "lat": 0,
      "lon": 0
    }
  },
  {
    "country": "AU",
    "location": "BBT",
    "name": "Blackbutt",
    "nameWoDiacritics": "Blackbutt",
    "subdivision": "QLD",
    "status": "RL",
    "function": [
      2
    ],
    "date": 1701,
    "coordinates": {
      "lat": -26.883333333333333,
      "lon": 15.333333333333334
    }
  },
  {
    "country": "AU",
    "location": "TTS",
    "name": "Blackmans Bay",
    "nameWoDiacritics": "Blackmans Bay",
    "subdivision": "TAS",
    "status": "RL",
    "function": [
      0,
      2
    ],
    "date": 1307,
    "coordinates": {
      "lat": -42.983333333333334,
      "lon": 15.183333333333334
    }
  },
  {
    "country": "AU",
    "location": "BOV",
    "name": "Blacktip Terminal",
    "nameWoDiacritics": "Blacktip Terminal",
    "subdivision": "NT",
    "status": "RQ",
    "function": [
      0
    ],
    "date": 1001,
    "coordinates": {
      "lat": -14.4,
      "lon": 13.533333333333333
    }
  },
  {
    "country": "AU",
    "location": "BCO",
    "name": "Blacktown",
    "nameWoDiacritics": "Blacktown",
    "subdivision": "NSW",
    "status": "RL",
    "function": [
      1,
      2,
      5
    ],
    "date": 607,
    "coordinates": {
      "lat": -33.766666666666666,
      "lon": 15.083333333333334
    }
  },
  {
    "country": "AU",
    "location": "BLT",
    "name": "Blackwater",
    "nameWoDiacritics": "Blackwater",
    "subdivision": "QLD",
    "status": "AI",
    "function": [
      3
    ],
    "date": 9601,
    "coordinates": {
      "lat": 0,
      "lon": 0
    }
  },
  {
    "country": "AU",
    "location": "BWD",
    "name": "Blackwood",
    "nameWoDiacritics": "Blackwood",
    "status": "RL",
    "function": [
      5
    ],
    "date": 1107,
    "coordinates": {
      "lat": -35.016666666666666,
      "lon": 14.383333333333333
    }
  },
  {
    "country": "AU",
    "location": "BGE",
    "name": "Blairgowrie",
    "nameWoDiacritics": "Blairgowrie",
    "subdivision": "VIC",
    "status": "RL",
    "function": [
      2
    ],
    "date": 1607,
    "coordinates": {
      "lat": -38.35,
      "lon": 14.733333333333333
    }
  },
  {
    "country": "AU",
    "location": "ZZK",
    "name": "Blakehurst",
    "nameWoDiacritics": "Blakehurst",
    "subdivision": "NSW",
    "status": "RL",
    "function": [
      2
    ],
    "date": 1601,
    "coordinates": {
      "lat": -33.983333333333334,
      "lon": 15.166666666666666
    }
  },
  {
    "country": "AU",
    "location": "BW5",
    "name": "Blanche Town",
    "nameWoDiacritics": "Blanche Town",
    "subdivision": "SA",
    "status": "RL",
    "function": [
      2
    ],
    "date": 1601,
    "coordinates": {
      "lat": -34.35,
      "lon": 14.55
    }
  },
  {
    "country": "AU",
    "location": "BNY",
    "name": "Blayney",
    "nameWoDiacritics": "Blayney",
    "subdivision": "NSW",
    "status": "RL",
    "function": [
      0,
      1,
      2,
      5
    ],
    "date": 601,
    "coordinates": {
      "lat": -33.53333333333333,
      "lon": 15.516666666666666
    }
  },
  {
    "country": "AU",
    "location": "BLI",
    "name": "Blenheim",
    "nameWoDiacritics": "Blenheim",
    "subdivision": "QLD",
    "status": "RL",
    "function": [
      2
    ],
    "date": 1801,
    "coordinates": {
      "lat": -27.666666666666668,
      "lon": 15.35
    }
  },
  {
    "country": "AU",
    "location": "BWS",
    "name": "Blewitts Springs",
    "nameWoDiacritics": "Blewitts Springs",
    "subdivision": "SA",
    "status": "RL",
    "function": [
      2
    ],
    "date": 1607,
    "coordinates": {
      "lat": -35.166666666666664,
      "lon": 14.383333333333333
    }
  },
  {
    "country": "AU",
    "location": "BGY",
    "name": "Blighty",
    "nameWoDiacritics": "Blighty",
    "subdivision": "NSW",
    "status": "RL",
    "function": [
      2
    ],
    "date": 607,
    "coordinates": {
      "lat": -35.583333333333336,
      "lon": 14.866666666666667
    }
  },
  {
    "country": "AU",
    "location": "BFC",
    "name": "Bloomfield",
    "nameWoDiacritics": "Bloomfield",
    "subdivision": "QLD",
    "status": "AI",
    "function": [
      3
    ],
    "date": 9912,
    "coordinates": {
      "lat": 0,
      "lon": 0
    }
  },
  {
    "country": "AU",
    "location": "BOB",
    "name": "Bobin",
    "nameWoDiacritics": "Bobin",
    "subdivision": "NSW",
    "status": "RL",
    "function": [
      0,
      6
    ],
    "date": 1107,
    "coordinates": {
      "lat": -31.716666666666665,
      "lon": 15.35
    }
  },
  {
    "country": "AU",
    "location": "BLE",
    "name": "Bohle",
    "nameWoDiacritics": "Bohle",
    "subdivision": "QLD",
    "status": "RQ",
    "function": [
      2
    ],
    "date": 1001,
    "coordinates": {
      "lat": -19.2,
      "lon": 15.066666666666666
    }
  },
  {
    "country": "AU",
    "location": "GIC",
    "name": "Boigu Island",
    "nameWoDiacritics": "Boigu Island",
    "subdivision": "QLD",
    "status": "AI",
    "function": [
      3
    ],
    "date": 9912,
    "coordinates": {
      "lat": 0,
      "lon": 0
    }
  },
  {
    "country": "AU",
    "location": "BLS",
    "name": "Bollon",
    "nameWoDiacritics": "Bollon",
    "subdivision": "QLD",
    "status": "AI",
    "function": [
      3
    ],
    "date": 9601,
    "coordinates": {
      "lat": 0,
      "lon": 0
    }
  },
  {
    "country": "AU",
    "location": "BCK",
    "name": "Bolwarra",
    "nameWoDiacritics": "Bolwarra",
    "subdivision": "QLD",
    "status": "AI",
    "function": [
      3
    ],
    "date": 9912,
    "coordinates": {
      "lat": 0,
      "lon": 0
    }
  },
  {
    "country": "AU",
    "location": "BDY",
    "name": "Bomaderry",
    "nameWoDiacritics": "Bomaderry",
    "subdivision": "NSW",
    "status": "RL",
    "function": [
      0,
      5
    ],
    "date": 1201,
    "coordinates": {
      "lat": -34.85,
      "lon": 15.05
    }
  },
  {
    "country": "AU",
    "location": "BMA",
    "name": "Bombala",
    "nameWoDiacritics": "Bombala",
    "subdivision": "NSW",
    "status": "RL",
    "function": [
      2
    ],
    "date": 607,
    "coordinates": {
      "lat": -36.916666666666664,
      "lon": 15.516666666666666
    }
  },
  {
    "country": "AU",
    "location": "7BM",
    "name": "Bomen",
    "nameWoDiacritics": "Bomen",
    "subdivision": "NSW",
    "status": "RL",
    "function": [
      2
    ],
    "date": 1501,
    "coordinates": {
      "lat": -35.06666666666667,
      "lon": 15.2
    }
  },
  {
    "country": "AU",
    "location": "B3B",
    "name": "Bonbeach",
    "nameWoDiacritics": "Bonbeach",
    "subdivision": "VIC",
    "status": "RL",
    "function": [
      1,
      2
    ],
    "date": 1601,
    "coordinates": {
      "lat": -38.05,
      "lon": 14.833333333333334
    }
  },
  {
    "country": "AU",
    "location": "BBC",
    "name": "Bondi Beach",
    "nameWoDiacritics": "Bondi Beach",
    "subdivision": "NSW",
    "status": "RL",
    "function": [
      2
    ],
    "date": 1207,
    "coordinates": {
      "lat": -33.88333333333333,
      "lon": 15.183333333333334
    }
  },
  {
    "country": "AU",
    "location": "BJT",
    "name": "Bondi Junction",
    "nameWoDiacritics": "Bondi Junction",
    "subdivision": "NSW",
    "status": "RL",
    "function": [
      1,
      2
    ],
    "date": 701,
    "coordinates": {
      "lat": -33.88333333333333,
      "lon": 15.183333333333334
    }
  },
  {
    "country": "AU",
    "location": "BLB",
    "name": "Bonnells Bay",
    "nameWoDiacritics": "Bonnells Bay",
    "subdivision": "NSW",
    "status": "RL",
    "function": [
      2
    ],
    "date": 1207,
    "coordinates": {
      "lat": -33.083333333333336,
      "lon": 15.216666666666667
    }
  },
  {
    "country": "AU",
    "location": "BQY",
    "name": "Bonnet Bay",
    "nameWoDiacritics": "Bonnet Bay",
    "subdivision": "NSW",
    "status": "RL",
    "function": [
      2
    ],
    "date": 1601,
    "coordinates": {
      "lat": -34,
      "lon": 15.166666666666666
    }
  },
  {
    "country": "AU",
    "location": "BEV",
    "name": "Bonnie Vale",
    "nameWoDiacritics": "Bonnie Vale",
    "subdivision": "WA",
    "status": "RL",
    "function": [
      1,
      2
    ],
    "date": 607,
    "coordinates": {
      "lat": -30.833333333333332,
      "lon": 12.183333333333334
    }
  },
  {
    "country": "AU",
    "location": "BOO",
    "name": "Booby Island",
    "nameWoDiacritics": "Booby Island",
    "subdivision": "QLD",
    "status": "RL",
    "function": [
      0,
      2
    ],
    "date": 307,
    "coordinates": {
      "lat": -10.6,
      "lon": 14.25
    }
  },
  {
    "country": "AU",
    "location": "BOD",
    "name": "Boondall",
    "nameWoDiacritics": "Boondall",
    "subdivision": "QLD",
    "status": "RL",
    "function": [
      0,
      5
    ],
    "date": 1207,
    "coordinates": {
      "lat": -27.333333333333332,
      "lon": 15.5
    }
  },
  {
    "country": "AU",
    "location": "BGO",
    "name": "Booragoon",
    "nameWoDiacritics": "Booragoon",
    "subdivision": "WA",
    "status": "RL",
    "function": [
      2
    ],
    "date": 901,
    "coordinates": {
      "lat": -32.03333333333333,
      "lon": 11.916666666666666
    }
  },
  {
    "country": "AU",
    "location": "BOT",
    "name": "Boort",
    "nameWoDiacritics": "Boort",
    "subdivision": "VIC",
    "status": "RL",
    "function": [
      0,
      5
    ],
    "date": 1107,
    "coordinates": {
      "lat": -36.11666666666667,
      "lon": 14.566666666666666
    }
  },
  {
    "country": "AU",
    "location": "VIB",
    "name": "Boronia",
    "nameWoDiacritics": "Boronia",
    "subdivision": "VIC",
    "status": "RQ",
    "function": [
      0
    ],
    "date": 901,
    "coordinates": {
      "lat": 0,
      "lon": 0
    }
  },
  {
    "country": "AU",
    "location": "BOX",
    "name": "Borroloola",
    "nameWoDiacritics": "Borroloola",
    "subdivision": "NT",
    "status": "AI",
    "function": [
      3
    ],
    "date": 9912,
    "coordinates": {
      "lat": 0,
      "lon": 0
    }
  },
  {
    "country": "AU",
    "location": "B2P",
    "name": "Bossley Park",
    "nameWoDiacritics": "Bossley Park",
    "subdivision": "NSW",
    "status": "RL",
    "function": [
      2
    ],
    "date": 1401,
    "coordinates": {
      "lat": -33.85,
      "lon": 15.083333333333334
    }
  },
  {
    "country": "AU",
    "location": "BTB",
    "name": "Botany Bay",
    "nameWoDiacritics": "Botany Bay",
    "subdivision": "NSW",
    "status": "AC",
    "function": [
      0
    ],
    "date": 9511,
    "coordinates": {
      "lat": 0,
      "lon": 0
    }
  },
  {
    "country": "AU",
    "location": "BLD",
    "name": "Boulder",
    "nameWoDiacritics": "Boulder",
    "subdivision": "WA",
    "status": "RL",
    "function": [
      2
    ],
    "date": 1207,
    "coordinates": {
      "lat": -30.783333333333335,
      "lon": 12.2
    }
  },
  {
    "country": "AU",
    "location": "BQL",
    "name": "Boulia",
    "nameWoDiacritics": "Boulia",
    "subdivision": "QLD",
    "status": "AI",
    "function": [
      3
    ],
    "date": 9912,
    "coordinates": {
      "lat": 0,
      "lon": 0
    }
  },
  {
    "country": "AU",
    "location": "BOU",
    "name": "Boundary Bend",
    "nameWoDiacritics": "Boundary Bend",
    "subdivision": "NSW",
    "status": "RL",
    "function": [
      0,
      5
    ],
    "date": 1107,
    "coordinates": {
      "lat": -34.7,
      "lon": 14.5
    }
  },
  {
    "country": "AU",
    "location": "BRK",
    "name": "Bourke",
    "nameWoDiacritics": "Bourke",
    "subdivision": "NSW",
    "status": "AI",
    "function": [
      3
    ],
    "date": 9601,
    "coordinates": {
      "lat": 0,
      "lon": 0
    }
  },
  {
    "country": "AU",
    "location": "ZBO",
    "name": "Bowen",
    "nameWoDiacritics": "Bowen",
    "subdivision": "QLD",
    "status": "AC",
    "function": [
      0,
      3
    ],
    "date": 9511,
    "coordinates": {
      "lat": 0,
      "lon": 0
    }
  },
  {
    "country": "AU",
    "location": "BWW",
    "name": "Bowen Hills",
    "nameWoDiacritics": "Bowen Hills",
    "subdivision": "QLD",
    "status": "RL",
    "function": [
      5
    ],
    "date": 1601,
    "coordinates": {
      "lat": -27.433333333333334,
      "lon": 15.5
    }
  },
  {
    "country": "AU",
    "location": "BWV",
    "name": "Bowenville",
    "nameWoDiacritics": "Bowenville",
    "subdivision": "QLD",
    "status": "RL",
    "function": [
      2
    ],
    "date": 1707,
    "coordinates": {
      "lat": -27.316666666666666,
      "lon": 15.2
    }
  },
  {
    "country": "AU",
    "location": "BWG",
    "name": "Bowning",
    "nameWoDiacritics": "Bowning",
    "subdivision": "NSW",
    "status": "RL",
    "function": [
      1,
      2
    ],
    "date": 607,
    "coordinates": {
      "lat": -34.766666666666666,
      "lon": 15.4
    }
  },
  {
    "country": "AU",
    "location": "BWA",
    "name": "Bowral",
    "nameWoDiacritics": "Bowral",
    "subdivision": "NSW",
    "status": "RL",
    "function": [
      1,
      2
    ],
    "date": 607,
    "coordinates": {
      "lat": -34.46666666666667,
      "lon": 15.033333333333333
    }
  },
  {
    "country": "AU",
    "location": "BXH",
    "name": "Box Hill",
    "nameWoDiacritics": "Box Hill",
    "subdivision": "VIC",
    "status": "RL",
    "function": [
      2
    ],
    "date": 1601,
    "coordinates": {
      "lat": -37.81666666666667,
      "lon": 14.833333333333334
    }
  },
  {
    "country": "AU",
    "location": "BXI",
    "name": "Box Hill",
    "nameWoDiacritics": "Box Hill",
    "subdivision": "NSW",
    "status": "RQ",
    "function": [
      2
    ],
    "date": 901,
    "coordinates": {
      "lat": -33.65,
      "lon": 15.083333333333334
    }
  },
  {
    "country": "AU",
    "location": "AYB",
    "name": "Boya",
    "nameWoDiacritics": "Boya",
    "subdivision": "WA",
    "status": "RL",
    "function": [
      1,
      2
    ],
    "date": 1601,
    "coordinates": {
      "lat": -31.933333333333334,
      "lon": 12
    }
  },
  {
    "country": "AU",
    "location": "BYU",
    "name": "Boyanup",
    "nameWoDiacritics": "Boyanup",
    "subdivision": "WA",
    "status": "RL",
    "function": [
      1,
      2
    ],
    "date": 607,
    "coordinates": {
      "lat": -33.483333333333334,
      "lon": 11.9
    }
  },
  {
    "country": "AU",
    "location": "BOY",
    "name": "Boyer",
    "nameWoDiacritics": "Boyer",
    "subdivision": "TAS",
    "status": "RL",
    "function": [
      0,
      5
    ],
    "date": 901,
    "coordinates": {
      "lat": -42.833333333333336,
      "lon": 15.183333333333334
    }
  },
  {
    "country": "AU",
    "location": "BOI",
    "name": "Boyne Island",
    "nameWoDiacritics": "Boyne Island",
    "subdivision": "QLD",
    "status": "RL",
    "function": [
      2
    ],
    "date": 1207,
    "coordinates": {
      "lat": -23.933333333333334,
      "lon": 15.2
    }
  },
  {
    "country": "AU",
    "location": "BYB",
    "name": "Boyup Brook",
    "nameWoDiacritics": "Boyup Brook",
    "subdivision": "WA",
    "status": "RL",
    "function": [
      1,
      2
    ],
    "date": 607,
    "coordinates": {
      "lat": -33.833333333333336,
      "lon": 12.033333333333333
    }
  },
  {
    "country": "AU",
    "location": "BCR",
    "name": "Bracken Ridge",
    "nameWoDiacritics": "Bracken Ridge",
    "subdivision": "QLD",
    "status": "RL",
    "function": [
      2
    ],
    "date": 1601,
    "coordinates": {
      "lat": -27.316666666666666,
      "lon": 15.5
    }
  },
  {
    "country": "AU",
    "location": "BMR",
    "name": "Braemar",
    "nameWoDiacritics": "Braemar",
    "subdivision": "NSW",
    "status": "RL",
    "function": [
      2
    ],
    "date": 1501,
    "coordinates": {
      "lat": -34.43333333333333,
      "lon": 15.033333333333333
    }
  },
  {
    "country": "AU",
    "location": "BRS",
    "name": "Braeside",
    "nameWoDiacritics": "Braeside",
    "subdivision": "VIC",
    "status": "RL",
    "function": [
      5
    ],
    "date": 901,
    "coordinates": {
      "lat": -37.983333333333334,
      "lon": 14.833333333333334
    }
  },
  {
    "country": "AU",
    "location": "BMP",
    "name": "Brampton",
    "nameWoDiacritics": "Brampton",
    "subdivision": "QLD",
    "status": "AC",
    "function": [
      3
    ],
    "date": 8203,
    "coordinates": {
      "lat": 0,
      "lon": 0
    }
  },
  {
    "country": "AU",
    "location": "TXB",
    "name": "Branxton",
    "nameWoDiacritics": "Branxton",
    "subdivision": "NSW",
    "status": "RL",
    "function": [
      2
    ],
    "date": 1601,
    "coordinates": {
      "lat": -32.666666666666664,
      "lon": 15.2
    }
  },
  {
    "country": "AU",
    "location": "BRB",
    "name": "Braybrook",
    "nameWoDiacritics": "Braybrook",
    "subdivision": "VIC",
    "status": "RQ",
    "function": [
      2
    ],
    "date": 907,
    "coordinates": {
      "lat": -37.78333333333333,
      "lon": 14.75
    }
  },
  {
    "country": "AU",
    "location": "BBY",
    "name": "Bremer Bay",
    "nameWoDiacritics": "Bremer Bay",
    "subdivision": "WA",
    "status": "RL",
    "function": [
      0,
      2
    ],
    "date": 701,
    "coordinates": {
      "lat": -34.38333333333333,
      "lon": 12.533333333333333
    }
  },
  {
    "country": "AU",
    "location": "BDE",
    "name": "Brendale",
    "nameWoDiacritics": "Brendale",
    "subdivision": "QLD",
    "status": "RL",
    "function": [
      2
    ],
    "date": 607,
    "coordinates": {
      "lat": -27.316666666666666,
      "lon": 15.416666666666666
    }
  },
  {
    "country": "AU",
    "location": "BWQ",
    "name": "Brewarrina",
    "nameWoDiacritics": "Brewarrina",
    "subdivision": "NSW",
    "status": "AI",
    "function": [
      3
    ],
    "date": 9601,
    "coordinates": {
      "lat": 0,
      "lon": 0
    }
  },
  {
    "country": "AU",
    "location": "BGT",
    "name": "Bridgetown",
    "nameWoDiacritics": "Bridgetown",
    "subdivision": "WA",
    "status": "RL",
    "function": [
      1,
      2
    ],
    "date": 607,
    "coordinates": {
      "lat": -33.96666666666667,
      "lon": 12
    }
  },
  {
    "country": "AU",
    "location": "BGR",
    "name": "Bridgewater",
    "nameWoDiacritics": "Bridgewater",
    "subdivision": "TAS",
    "status": "RQ",
    "function": [
      1,
      2
    ],
    "date": 901,
    "coordinates": {
      "lat": 0,
      "lon": 0
    }
  },
  {
    "country": "AU",
    "location": "BOL",
    "name": "Bridgewater-on-Loddon",
    "nameWoDiacritics": "Bridgewater-on-Loddon",
    "subdivision": "VIC",
    "status": "RL",
    "function": [
      0,
      5
    ],
    "date": 1107,
    "coordinates": {
      "lat": -36.6,
      "lon": 14.583333333333334
    }
  },
  {
    "country": "AU",
    "location": "BPO",
    "name": "Bridport",
    "nameWoDiacritics": "Bridport",
    "subdivision": "TAS",
    "status": "RL",
    "function": [
      0,
      2
    ],
    "date": 1601,
    "coordinates": {
      "lat": -41,
      "lon": 15.2
    }
  },
  {
    "country": "AU",
    "location": "BRI",
    "name": "Brigalow",
    "nameWoDiacritics": "Brigalow",
    "subdivision": "NSW",
    "status": "RL",
    "function": [
      2
    ],
    "date": 607,
    "coordinates": {
      "lat": -31.166666666666668,
      "lon": 15.4
    }
  },
  {
    "country": "AU",
    "location": "BRW",
    "name": "Brigalow",
    "nameWoDiacritics": "Brigalow",
    "subdivision": "QLD",
    "status": "RQ",
    "function": [
      2
    ],
    "date": 1001,
    "coordinates": {
      "lat": -26.85,
      "lon": 15.066666666666666
    }
  },
  {
    "country": "AU",
    "location": "BRJ",
    "name": "Bright",
    "nameWoDiacritics": "Bright",
    "subdivision": "VIC",
    "status": "AI",
    "function": [
      3
    ],
    "date": 9912,
    "coordinates": {
      "lat": 0,
      "lon": 0
    }
  },
  {
    "country": "AU",
    "location": "BRO",
    "name": "Brighton",
    "nameWoDiacritics": "Brighton",
    "subdivision": "SA",
    "status": "RQ",
    "function": [
      2
    ],
    "date": 1101,
    "coordinates": {
      "lat": -35.016666666666666,
      "lon": 14.383333333333333
    }
  },
  {
    "country": "AU",
    "location": "BTV",
    "name": "Brighton",
    "nameWoDiacritics": "Brighton",
    "subdivision": "VIC",
    "status": "RQ",
    "function": [
      2
    ],
    "date": 1101,
    "coordinates": {
      "lat": -37.916666666666664,
      "lon": 14.833333333333334
    }
  },
  {
    "country": "AU",
    "location": "BHT",
    "name": "Brighton Downs",
    "nameWoDiacritics": "Brighton Downs",
    "subdivision": "QLD",
    "status": "AI",
    "function": [
      3
    ],
    "date": 9912,
    "coordinates": {
      "lat": 0,
      "lon": 0
    }
  },
  {
    "country": "AU",
    "location": "BSA",
    "name": "Brighton-Le-Sands",
    "nameWoDiacritics": "Brighton-Le-Sands",
    "subdivision": "NSW",
    "status": "RL",
    "function": [
      0,
      5
    ],
    "date": 1107,
    "coordinates": {
      "lat": -33.95,
      "lon": 15.166666666666666
    }
  },
  {
    "country": "AU",
    "location": "BIY",
    "name": "Bringelly",
    "nameWoDiacritics": "Bringelly",
    "subdivision": "NSW",
    "status": "RL",
    "function": [
      2
    ],
    "date": 901,
    "coordinates": {
      "lat": -33.93333333333333,
      "lon": 15.066666666666666
    }
  },
  {
    "country": "AU",
    "location": "BNE",
    "name": "Brisbane",
    "nameWoDiacritics": "Brisbane",
    "subdivision": "QLD",
    "status": "AC",
    "function": [
      0,
      1,
      2,
      3,
      4
    ],
    "date": 307,
    "coordinates": {
      "lat": -27.466666666666665,
      "lon": 15.5
    }
  },
  {
    "country": "AU",
    "location": "BRA",
    "name": "Brisbane Apt",
    "nameWoDiacritics": "Brisbane Apt",
    "subdivision": "QLD",
    "status": "AC",
    "function": [
      3
    ],
    "date": 9511,
    "coordinates": {
      "lat": 0,
      "lon": 0
    }
  },
  {
    "country": "AU",
    "location": "WTB",
    "name": "Brisbane West Wellcamp Airport",
    "nameWoDiacritics": "Brisbane West Wellcamp Airport",
    "subdivision": "QLD",
    "status": "RL",
    "function": [
      3
    ],
    "date": 1601,
    "coordinates": {
      "lat": -27.55,
      "lon": 15.233333333333333
    }
  },
  {
    "country": "AU",
    "location": "BBA",
    "name": "Broadbeach",
    "nameWoDiacritics": "Broadbeach",
    "subdivision": "QLD",
    "status": "RL",
    "function": [
      2
    ],
    "date": 1807,
    "coordinates": {
      "lat": -28.016666666666666,
      "lon": 15.533333333333333
    }
  },
  {
    "country": "AU",
    "location": "BFR",
    "name": "Broadford",
    "nameWoDiacritics": "Broadford",
    "subdivision": "VIC",
    "status": "RL",
    "function": [
      1,
      2
    ],
    "date": 1307,
    "coordinates": {
      "lat": -37.2,
      "lon": 14.833333333333334
    }
  },
  {
    "country": "AU",
    "location": "BMD",
    "name": "Broadmeadows",
    "nameWoDiacritics": "Broadmeadows",
    "subdivision": "NSW",
    "status": "RL",
    "function": [
      2
    ],
    "date": 607,
    "coordinates": {
      "lat": -29.85,
      "lon": 15.35
    }
  },
  {
    "country": "AU",
    "location": "BMW",
    "name": "Broadmeadows",
    "nameWoDiacritics": "Broadmeadows",
    "subdivision": "VIC",
    "status": "AC",
    "function": [
      0
    ],
    "date": 9511,
    "coordinates": {
      "lat": 0,
      "lon": 0
    }
  },
  {
    "country": "AU",
    "location": "BOW",
    "name": "Broadwood",
    "nameWoDiacritics": "Broadwood",
    "subdivision": "WA",
    "status": "RL",
    "function": [
      2,
      5
    ],
    "date": 1207,
    "coordinates": {
      "lat": -30.783333333333335,
      "lon": 12.2
    }
  },
  {
    "country": "AU",
    "location": "NSB",
    "name": "Broke",
    "nameWoDiacritics": "Broke",
    "subdivision": "NSW",
    "status": "RL",
    "function": [
      0,
      5
    ],
    "date": 1107,
    "coordinates": {
      "lat": -32.75,
      "lon": 15.166666666666666
    }
  },
  {
    "country": "AU",
    "location": "BHQ",
    "name": "Broken Hill",
    "nameWoDiacritics": "Broken Hill",
    "subdivision": "NSW",
    "status": "AI",
    "function": [
      3
    ],
    "date": 9601,
    "coordinates": {
      "lat": 0,
      "lon": 0
    }
  },
  {
    "country": "AU",
    "location": "2WS",
    "name": "Brooklyn",
    "nameWoDiacritics": "Brooklyn",
    "subdivision": "NSW",
    "status": "RL",
    "function": [
      2
    ],
    "date": 1607,
    "coordinates": {
      "lat": -33.55,
      "lon": 15.183333333333334
    }
  },
  {
    "country": "AU",
    "location": "BKL",
    "name": "Brooklyn",
    "nameWoDiacritics": "Brooklyn",
    "subdivision": "VIC",
    "status": "RL",
    "function": [
      1,
      2
    ],
    "date": 601,
    "coordinates": {
      "lat": -37.81666666666667,
      "lon": 14.75
    }
  },
  {
    "country": "AU",
    "location": "BPK",
    "name": "Brooklyn Park",
    "nameWoDiacritics": "Brooklyn Park",
    "subdivision": "SA",
    "status": "RQ",
    "function": [
      2
    ],
    "date": 1101,
    "coordinates": {
      "lat": -34.916666666666664,
      "lon": 14.383333333333333
    }
  },