[
  {
    "country": "BO",
    "name": ".BOLIVIA, PLURINATIONAL STATE OF",
    "function": [],
    "coordinates": {
      "lat": 0,
      "lon": 0
    }
  },
  {
    "country": "BO",
    "location": "ACH",
    "name": "Achacachi",
    "nameWoDiacritics": "Achacachi",
    "subdivision": "L",
    "status": "RL",
    "function": [
      2
    ],
    "date": 1807,
    "coordinates": {
      "lat": -16.05,
      "lon": 7.4
    }
  },
  {
    "country": "BO",
    "location": "ACL",
    "name": "Achocalla",
    "nameWoDiacritics": "Achocalla",
    "subdivision": "L",
    "status": "RL",
    "function": [
      2
    ],
    "date": 1807,
    "coordinates": {
      "lat": -16.583333333333332,
      "lon": 7.35
    }
  },
  {
    "country": "BO",
    "location": "AQL",
    "name": "Aiquile",
    "nameWoDiacritics": "Aiquile",
    "subdivision": "C",
    "status": "RL",
    "function": [
      5
    ],
    "date": 1201,
    "coordinates": {
      "lat": -18.166666666666668,
      "lon": 6.85
    }
  },
  {
    "country": "BO",
    "location": "ALC",
    "name": "Alcal·",
    "nameWoDiacritics": "Alcala",
    "subdivision": "H",
    "status": "RL",
    "function": [
      2
    ],
    "date": 1807,
    "coordinates": {
      "lat": -19.366666666666667,
      "lon": 6.7
    }
  },
  {
    "country": "BO",
    "location": "ANC",
    "name": "Ancoraimes",
    "nameWoDiacritics": "Ancoraimes",
    "subdivision": "L",
    "status": "RL",
    "function": [
      2
    ],
    "date": 1807,
    "coordinates": {
      "lat": -15.9,
      "lon": 7.416666666666667
    }
  },
  {
    "country": "BO",
    "location": "APB",
    "name": "Apolo",
    "nameWoDiacritics": "Apolo",
    "subdivision": "L",
    "status": "AI",
    "function": [
      2,
      3
    ],
    "date": 407,
    "coordinates": {
      "lat": -14.716666666666667,
      "lon": 7.366666666666667
    }
  },
  {
    "country": "BO",
    "location": "ARC",
    "name": "Arica",
    "nameWoDiacritics": "Arica",
    "subdivision": "N",
    "status": "RL",
    "function": [
      2
    ],
    "date": 1807,
    "coordinates": {
      "lat": -9.766666666666667,
      "lon": 6.916666666666667
    }
  },
  {
    "country": "BO",
    "location": "ASC",
    "name": "AscensiÛn",
    "nameWoDiacritics": "Ascension",
    "subdivision": "S",
    "status": "AI",
    "function": [
      2,
      3
    ],
    "date": 407,
    "coordinates": {
      "lat": -15.7,
      "lon": 6.5
    }
  },
  {
    "country": "BO",
    "location": "AUC",
    "name": "Aucapata",
    "nameWoDiacritics": "Aucapata",
    "subdivision": "L",
    "status": "RL",
    "function": [
      2
    ],
    "date": 1807,
    "coordinates": {
      "lat": -15.366666666666667,
      "lon": 7.383333333333333
    }
  },
  {
    "country": "BO",
    "location": "ABA",
    "name": "Avaroa",
    "nameWoDiacritics": "Avaroa",
    "subdivision": "P",
    "status": "RL",
    "function": [
      1
    ],
    "date": 1007,
    "coordinates": {
      "lat": -21.333333333333332,
      "lon": 7.366666666666667
    }
  },
  {
    "country": "BO",
    "location": "AYT",
    "name": "Ayata",
    "nameWoDiacritics": "Ayata",
    "subdivision": "L",
    "status": "RL",
    "function": [
      2
    ],
    "date": 1807,
    "coordinates": {
      "lat": -15.35,
      "lon": 7.4
    }
  },
  {
    "country": "BO",
    "location": "AYO",
    "name": "Ayo Ayo",
    "nameWoDiacritics": "Ayo Ayo",
    "subdivision": "L",
    "status": "AC",
    "function": [
      2
    ],
    "date": 1901,
    "coordinates": {
      "lat": -17.083333333333332,
      "lon": 7.333333333333333
    }
  },
  {
    "country": "BO",
    "location": "AZY",
    "name": "Azurduy",
    "nameWoDiacritics": "Azurduy",
    "subdivision": "H",
    "status": "RL",
    "function": [
      2
    ],
    "date": 1807,
    "coordinates": {
      "lat": -20.1,
      "lon": 6.7
    }
  },
  {
    "country": "BO",
    "location": "BAT",
    "name": "Batallas",
    "nameWoDiacritics": "Batallas",
    "subdivision": "L",
    "status": "AC",
    "function": [
      2
    ],
    "date": 1901,
    "coordinates": {
      "lat": -16.333333333333332,
      "lon": 7.383333333333333
    }
  },
  {
    "country": "BO",
    "location": "BVL",
    "name": "Baures",
    "nameWoDiacritics": "Baures",
    "subdivision": "B",
    "status": "AI",
    "function": [
      2,
      3
    ],
    "date": 407,
    "coordinates": {
      "lat": -13.583333333333334,
      "lon": 6.55
    }
  },
  {
    "country": "BO",
    "location": "BEF",
    "name": "Bella Flor",
    "nameWoDiacritics": "Bella Flor",
    "subdivision": "N",
    "status": "RL",
    "function": [
      2
    ],
    "date": 1807,
    "coordinates": {
      "lat": -11.1,
      "lon": 7.216666666666667
    }
  },
  {
    "country": "BO",
    "location": "BJO",
    "name": "Bermejo",
    "nameWoDiacritics": "Bermejo",
    "subdivision": "T",
    "status": "AI",
    "function": [
      2,
      3
    ],
    "date": 407,
    "coordinates": {
      "lat": -22.65,
      "lon": 6.7
    }
  },
  {
    "country": "BO",
    "location": "BPB",
    "name": "Bolpebra",
    "nameWoDiacritics": "Bolpebra",
    "subdivision": "N",
    "status": "RL",
    "function": [
      2
    ],
    "date": 1807,
    "coordinates": {
      "lat": -10.933333333333334,
      "lon": 7.55
    }
  },
  {
    "country": "BO",
    "location": "CJT",
    "name": "Cajuata",
    "nameWoDiacritics": "Cajuata",
    "subdivision": "L",
    "status": "AC",
    "function": [
      2
    ],
    "date": 1901,
    "coordinates": {
      "lat": -16.816666666666666,
      "lon": 7.183333333333334
    }
  },
  {
    "country": "BO",
    "location": "CAO",
    "name": "Calacoto",
    "nameWoDiacritics": "Calacoto",
    "subdivision": "L",
    "status": "RL",
    "function": [
      2
    ],
    "date": 1501,
    "coordinates": {
      "lat": -17.3,
      "lon": 7.383333333333333
    }
  },
  {
    "country": "BO",
    "location": "CCM",
    "name": "Calacoto",
    "nameWoDiacritics": "Calacoto",
    "subdivision": "L",
    "status": "RL",
    "function": [
      2
    ],
    "date": 1501,
    "coordinates": {
      "lat": -16.533333333333335,
      "lon": 7.333333333333333
    }
  },
  {
    "country": "BO",
    "location": "CCO",
    "name": "Calacoto",
    "nameWoDiacritics": "Calacoto",
    "subdivision": "L",
    "status": "RL",
    "function": [
      2
    ],
    "date": 1501,
    "coordinates": {
      "lat": -17.283333333333335,
      "lon": 7.233333333333333
    }
  },
  {
    "country": "BO",
    "location": "CAL",
    "name": "Calamarca",
    "nameWoDiacritics": "Calamarca",
    "subdivision": "L",
    "status": "AC",
    "function": [
      2
    ],
    "date": 1901,
    "coordinates": {
      "lat": -16.9,
      "lon": 7.333333333333333
    }
  },
  {
    "country": "BO",
    "location": "CMR",
    "name": "Camargo",
    "nameWoDiacritics": "Camargo",
    "subdivision": "H",
    "status": "RL",
    "function": [
      2
    ],
    "date": 1807,
    "coordinates": {
      "lat": -20.65,
      "lon": 6.85
    }
  },
  {
    "country": "BO",
    "location": "CAM",
    "name": "Camiri",
    "nameWoDiacritics": "Camiri",
    "subdivision": "S",
    "status": "AI",
    "function": [
      2,
      3
    ],
    "date": 407,
    "coordinates": {
      "lat": -20.1,
      "lon": 6.55
    }
  },
  {
    "country": "BO",
    "location": "CNO",
    "name": "CaÒada Oruro",
    "nameWoDiacritics": "Canada Oruro",
    "subdivision": "T",
    "status": "RL",
    "function": [],
    "date": 1901,
    "coordinates": {
      "lat": -21.666666666666668,
      "lon": 6.366666666666666
    }
  },
  {
    "country": "BO",
    "location": "CAQ",
    "name": "Caquiaviri",
    "nameWoDiacritics": "Caquiaviri",
    "subdivision": "L",
    "status": "RL",
    "function": [
      2
    ],
    "date": 1807,
    "coordinates": {
      "lat": -17.016666666666666,
      "lon": 7.383333333333333
    }
  },
  {
    "country": "BO",
    "location": "CRN",
    "name": "Caranavi",
    "nameWoDiacritics": "Caranavi",
    "subdivision": "L",
    "status": "AC",
    "function": [
      2
    ],
    "date": 1901,
    "coordinates": {
      "lat": -15.816666666666666,
      "lon": 7.216666666666667
    }
  },
  {
    "country": "BO",
    "location": "CAI",
    "name": "Carapari",
    "nameWoDiacritics": "Carapari",
    "subdivision": "T",
    "status": "RL",
    "function": [
      2
    ],
    "date": 1807,
    "coordinates": {
      "lat": -21.666666666666668,
      "lon": 6.85
    }
  },
  {
    "country": "BO",
    "location": "CAR",
    "name": "Carrasco",
    "nameWoDiacritics": "Carrasco",
    "status": "RL",
    "function": [
      2
    ],
    "date": 701,
    "coordinates": {
      "lat": -15.666666666666666,
      "lon": 7.216666666666667
    }
  },
  {
    "country": "BO",
    "location": "CTC",
    "name": "Catacora",
    "nameWoDiacritics": "Catacora",
    "subdivision": "L",
    "status": "AC",
    "function": [
      2
    ],
    "date": 1901,
    "coordinates": {
      "lat": -16.283333333333335,
      "lon": 7.366666666666667
    }
  },
  {
    "country": "BO",
    "location": "CHR",
    "name": "Chacarilla",
    "nameWoDiacritics": "Chacarilla",
    "subdivision": "L",
    "status": "AC",
    "function": [
      2
    ],
    "date": 1901,
    "coordinates": {
      "lat": -17.566666666666666,
      "lon": 7.35
    }
  },
  {
    "country": "BO",
    "location": "CHA",
    "name": "CharaÒa",
    "nameWoDiacritics": "Charana",
    "subdivision": "L",
    "status": "RL",
    "function": [
      2
    ],
    "date": 1807,
    "coordinates": {
      "lat": -17.6,
      "lon": 7.533333333333333
    }
  },
  {
    "country": "BO",
    "location": "CHU",
    "name": "Chulumani",
    "nameWoDiacritics": "Chulumani",
    "subdivision": "L",
    "status": "AC",
    "function": [
      2
    ],
    "date": 1901,
    "coordinates": {
      "lat": -16.4,
      "lon": 7.216666666666667
    }
  },
  {
    "country": "BO",
    "location": "CHM",
    "name": "Chuma",
    "nameWoDiacritics": "Chuma",
    "subdivision": "L",
    "status": "RL",
    "function": [
      2
    ],
    "date": 1807,
    "coordinates": {
      "lat": -15.483333333333333,
      "lon": 7.416666666666667
    }
  },
  {
    "country": "BO",
    "location": "CIJ",
    "name": "Cobija",
    "nameWoDiacritics": "Cobija",
    "subdivision": "N",
    "status": "AI",
    "function": [
      2,
      3
    ],
    "date": 407,
    "coordinates": {
      "lat": -11.033333333333333,
      "lon": 7.4
    }
  },
  {
    "country": "BO",
    "location": "CBB",
    "name": "Cochabamba",
    "nameWoDiacritics": "Cochabamba",
    "subdivision": "C",
    "status": "AI",
    "function": [
      2,
      3,
      4
    ],
    "date": 407,
    "coordinates": {
      "lat": -17.383333333333333,
      "lon": 7
    }
  },
  {
    "country": "BO",
    "location": "CLL",
    "name": "Collana",
    "nameWoDiacritics": "Collana",
    "subdivision": "L",
    "status": "AC",
    "function": [
      2
    ],
    "date": 1901,
    "coordinates": {
      "lat": -16.9,
      "lon": 7.35
    }
  },
  {
    "country": "BO",
    "location": "CLN",
    "name": "Collpani",
    "nameWoDiacritics": "Collpani",
    "subdivision": "P",
    "status": "RL",
    "function": [
      2
    ],
    "date": 1101,
    "coordinates": {
      "lat": -20.916666666666668,
      "lon": 7.166666666666667
    }
  },
  {
    "country": "BO",
    "location": "COL",
    "name": "Collpani",
    "nameWoDiacritics": "Collpani",
    "subdivision": "L",
    "status": "RL",
    "function": [
      2
    ],
    "date": 1101,
    "coordinates": {
      "lat": -17.15,
      "lon": 7.216666666666667
    }
  },
  {
    "country": "BO",
    "location": "CLQ",
    "name": "Colquencha",
    "nameWoDiacritics": "Colquencha",
    "subdivision": "L",
    "status": "AC",
    "function": [
      2
    ],
    "date": 1901,
    "coordinates": {
      "lat": -16.933333333333334,
      "lon": 7.35
    }
  },
  {
    "country": "BO",
    "location": "CME",
    "name": "Comanche",
    "nameWoDiacritics": "Comanche",
    "subdivision": "L",
    "status": "AC",
    "function": [
      2
    ],
    "date": 1901,
    "coordinates": {
      "lat": -16.95,
      "lon": 7.366666666666667
    }
  },
  {
    "country": "BO",
    "location": "COM",
    "name": "Combaya",
    "nameWoDiacritics": "Combaya",
    "subdivision": "L",
    "status": "RL",
    "function": [
      2
    ],
    "date": 1807,
    "coordinates": {
      "lat": -15.783333333333333,
      "lon": 7.4
    }
  },
  {
    "country": "BO",
    "location": "CEP",
    "name": "ConcepciÛn",
    "nameWoDiacritics": "Concepcion",
    "subdivision": "S",
    "status": "AI",
    "function": [
      2,
      3
    ],
    "date": 407,
    "coordinates": {
      "lat": -16.133333333333333,
      "lon": 6.333333333333333
    }
  },
  {
    "country": "BO",
    "location": "CPB",
    "name": "Copacabana",
    "nameWoDiacritics": "Copacabana",
    "subdivision": "L",
    "status": "AC",
    "function": [
      0,
      2
    ],
    "date": 1901,
    "coordinates": {
      "lat": -16.15,
      "lon": 7.5
    }
  },
  {
    "country": "BO",
    "location": "CRP",
    "name": "Coripata",
    "nameWoDiacritics": "Coripata",
    "subdivision": "L",
    "status": "AC",
    "function": [
      2
    ],
    "date": 1901,
    "coordinates": {
      "lat": -16.3,
      "lon": 7.216666666666667
    }
  },
  {
    "country": "BO",
    "location": "CCR",
    "name": "Coro Coro",
    "nameWoDiacritics": "Coro Coro",
    "subdivision": "L",
    "status": "RL",
    "function": [
      2
    ],
    "date": 1807,
    "coordinates": {
      "lat": -17.166666666666668,
      "lon": 7.366666666666667
    }
  },
  {
    "country": "BO",
    "location": "COR",
    "name": "Coroico",
    "nameWoDiacritics": "Coroico",
    "subdivision": "L",
    "status": "AC",
    "function": [
      2
    ],
    "date": 1901,
    "coordinates": {
      "lat": -16.183333333333334,
      "lon": 7.233333333333333
    }
  },
  {
    "country": "BO",
    "location": "CUL",
    "name": "Culpina",
    "nameWoDiacritics": "Culpina",
    "subdivision": "H",
    "status": "RL",
    "function": [
      2
    ],
    "date": 1807,
    "coordinates": {
      "lat": -20.833333333333332,
      "lon": 6.75
    }
  },
  {
    "country": "BO",
    "location": "CUR",
    "name": "Curva",
    "nameWoDiacritics": "Curva",
    "subdivision": "L",
    "status": "AC",
    "function": [
      2
    ],
    "date": 1901,
    "coordinates": {
      "lat": -15.116666666666667,
      "lon": 7.5
    }
  },
  {
    "country": "BO",
    "location": "DES",
    "name": "Desaguadero",
    "nameWoDiacritics": "Desaguadero",
    "subdivision": "L",
    "status": "RL",
    "function": [
      2
    ],
    "date": 1701,
    "coordinates": {
      "lat": -16.566666666666666,
      "lon": 7.5
    }
  },
  {
    "country": "BO",
    "location": "ALT",
    "name": "El Alto",
    "nameWoDiacritics": "El Alto",
    "subdivision": "L",
    "status": "RL",
    "function": [
      1,
      2
    ],
    "date": 1101,
    "coordinates": {
      "lat": -16.5,
      "lon": 7.35
    }
  },
  {
    "country": "BO",
    "location": "ENT",
    "name": "Entre RÌos",
    "nameWoDiacritics": "Entre Rios",
    "subdivision": "T",
    "status": "RL",
    "function": [
      2
    ],
    "date": 1807,
    "coordinates": {
      "lat": -21.533333333333335,
      "lon": 6.683333333333334
    }
  },
  {
    "country": "BO",
    "location": "ESC",
    "name": "Escoma",
    "nameWoDiacritics": "Escoma",
    "subdivision": "L",
    "status": "RL",
    "function": [
      2
    ],
    "date": 1807,
    "coordinates": {
      "lat": -15.666666666666666,
      "lon": 7.5
    }
  },
  {
    "country": "BO",
    "location": "EXA",
    "name": "ExaltaciÛn",
    "nameWoDiacritics": "Exaltacion",
    "subdivision": "B",
    "status": "RL",
    "function": [
      2
    ],
    "date": 1807,
    "coordinates": {
      "lat": -13.266666666666667,
      "lon": 6.85
    }
  },
  {
    "country": "BO",
    "location": "FIL",
    "name": "Filadelfia",
    "nameWoDiacritics": "Filadelfia",
    "subdivision": "N",
    "status": "RL",
    "function": [
      2
    ],
    "date": 1807,
    "coordinates": {
      "lat": -11.333333333333334,
      "lon": 7.4
    }
  },
  {
    "country": "BO",
    "location": "GUA",
    "name": "Guanay",
    "nameWoDiacritics": "Guanay",
    "subdivision": "L",
    "status": "RL",
    "function": [
      2
    ],
    "date": 1807,
    "coordinates": {
      "lat": -15.483333333333333,
      "lon": 7.25
    }
  },
  {
    "country": "BO",
    "location": "GUQ",
    "name": "Guaqui",
    "nameWoDiacritics": "Guaqui",
    "subdivision": "L",
    "status": "AI",
    "function": [
      0,
      2
    ],
    "date": 407,
    "coordinates": {
      "lat": -16.583333333333332,
      "lon": 7.416666666666667
    }
  },
  {
    "country": "BO",
    "location": "GYA",
    "name": "GuayaramerÌn",
    "nameWoDiacritics": "Guayaramerin",
    "subdivision": "B",
    "status": "AI",
    "function": [
      3
    ],
    "date": 212,
    "coordinates": {
      "lat": -10.8,
      "lon": 6.866666666666667
    }
  },
  {
    "country": "BO",
    "location": "HIT",
    "name": "Hito Cajones",
    "nameWoDiacritics": "Hito Cajones",
    "subdivision": "P",
    "status": "RL",
    "function": [
      2
    ],
    "date": 1901,
    "coordinates": {
      "lat": -22.866666666666667,
      "lon": 7.233333333333333
    }
  },
  {
    "country": "BO",
    "location": "BVK",
    "name": "Huacaraje",
    "nameWoDiacritics": "Huacaraje",
    "subdivision": "B",
    "status": "AI",
    "function": [
      2,
      3
    ],
    "date": 407,
    "coordinates": {
      "lat": -13.55,
      "lon": 6.566666666666666
    }
  },
  {
    "country": "BO",
    "location": "HUA",
    "name": "Huacaya",
    "nameWoDiacritics": "Huacaya",
    "subdivision": "H",
    "status": "RL",
    "function": [
      2
    ],
    "date": 1807,
    "coordinates": {
      "lat": -20.75,
      "lon": 6.566666666666666
    }
  },
  {
    "country": "BO",
    "location": "HUR",
    "name": "Huarina",
    "nameWoDiacritics": "Huarina",
    "subdivision": "L",
    "status": "RL",
    "function": [
      2
    ],
    "date": 1807,
    "coordinates": {
      "lat": -16.2,
      "lon": 7.383333333333333
    }
  },
  {
    "country": "BO",
    "location": "HTJ",
    "name": "Huatajata",
    "nameWoDiacritics": "Huatajata",
    "subdivision": "L",
    "status": "RL",
    "function": [
      0,
      2
    ],
    "date": 1807,
    "coordinates": {
      "lat": -16.166666666666668,
      "lon": 7.4
    }
  },
  {
    "country": "BO",
    "location": "HMT",
    "name": "Humait·",
    "nameWoDiacritics": "Humaita",
    "subdivision": "N",
    "status": "RL",
    "function": [
      2
    ],
    "date": 1807,
    "coordinates": {
      "lat": -12.016666666666667,
      "lon": 7.35
    }
  },
  {
    "country": "BO",
    "location": "HUM",
    "name": "Humanata",
    "nameWoDiacritics": "Humanata",
    "subdivision": "L",
    "status": "RL",
    "function": [
      2
    ],
    "date": 1807,
    "coordinates": {
      "lat": -15.45,
      "lon": 7.5
    }
  },
  {
    "country": "BO",
    "location": "ICH",
    "name": "Ichoca",
    "nameWoDiacritics": "Ichoca",
    "subdivision": "L",
    "status": "AC",
    "function": [
      2
    ],
    "date": 1901,
    "coordinates": {
      "lat": -17.2,
      "lon": 7.183333333333334
    }
  },
  {
    "country": "BO",
    "location": "INQ",
    "name": "Inquisivi",
    "nameWoDiacritics": "Inquisivi",
    "subdivision": "L",
    "status": "AC",
    "function": [
      2
    ],
    "date": 1901,
    "coordinates": {
      "lat": -16.916666666666668,
      "lon": 7.166666666666667
    }
  },
  {
    "country": "BO",
    "location": "IRU",
    "name": "Irupana",
    "nameWoDiacritics": "Irupana",
    "subdivision": "L",
    "status": "AC",
    "function": [
      2
    ],
    "date": 1901,
    "coordinates": {
      "lat": -16.466666666666665,
      "lon": 7.2
    }
  },
  {
    "country": "BO",
    "location": "IXM",
    "name": "Ixiamas",
    "nameWoDiacritics": "Ixiamas",
    "subdivision": "L",
    "status": "AC",
    "function": [
      2
    ],
    "date": 1901,
    "coordinates": {
      "lat": -13.75,
      "lon": 7.333333333333333
    }
  },
  {
    "country": "BO",
    "location": "JMC",
    "name": "Jes˙s de Machaca",
    "nameWoDiacritics": "Jesus de Machaca",
    "subdivision": "L",
    "status": "RL",
    "function": [
      2
    ],
    "date": 1807,
    "coordinates": {
      "lat": -16.75,
      "lon": 7.416666666666667
    }
  },
  {
    "country": "BO",
    "location": "ASN",
    "name": "La Asunta",
    "nameWoDiacritics": "La Asunta",
    "subdivision": "L",
    "status": "AC",
    "function": [
      1
    ],
    "date": 1901,
    "coordinates": {
      "lat": -16.033333333333335,
      "lon": 7.183333333333334
    }
  },
  {
    "country": "BO",
    "location": "LPB",
    "name": "La Paz",
    "nameWoDiacritics": "La Paz",
    "subdivision": "L",
    "status": "AI",
    "function": [
      1,
      2,
      3,
      4
    ],
    "date": 407,
    "coordinates": {
      "lat": -16.5,
      "lon": 7.333333333333333
    }
  },
  {
    "country": "BO",
    "location": "LAJ",
    "name": "Laja",
    "nameWoDiacritics": "Laja",
    "subdivision": "L",
    "status": "AC",
    "function": [
      2
    ],
    "date": 1901,
    "coordinates": {
      "lat": -16.533333333333335,
      "lon": 7.366666666666667
    }
  },
  {
    "country": "BO",
    "location": "LOR",
    "name": "Loreto",
    "nameWoDiacritics": "Loreto",
    "subdivision": "B",
    "status": "RL",
    "function": [
      2
    ],
    "date": 1807,
    "coordinates": {
      "lat": -15.183333333333334,
      "lon": 6.733333333333333
    }
  },
  {
    "country": "BO",
    "location": "LUR",
    "name": "Luribay",
    "nameWoDiacritics": "Luribay",
    "subdivision": "L",
    "status": "RL",
    "function": [
      2
    ],
    "date": 1807,
    "coordinates": {
      "lat": -17.05,
      "lon": 7.233333333333333
    }
  },
  {
    "country": "BO",
    "location": "MCH",
    "name": "MacharetÌ",
    "nameWoDiacritics": "Machareti",
    "subdivision": "H",
    "status": "RL",
    "function": [
      2
    ],
    "date": 1807,
    "coordinates": {
      "lat": -20.816666666666666,
      "lon": 6.533333333333333
    }
  },
  {
    "country": "BO",
    "location": "MGD",
    "name": "Magdalena",
    "nameWoDiacritics": "Magdalena",
    "subdivision": "B",
    "status": "AI",
    "function": [
      2,
      3
    ],
    "date": 407,
    "coordinates": {
      "lat": -13.233333333333333,
      "lon": 6.683333333333334
    }
  },
  {
    "country": "BO",
    "location": "MLL",
    "name": "Malla",
    "nameWoDiacritics": "Malla",
    "subdivision": "L",
    "status": "RL",
    "function": [
      2
    ],
    "date": 1807,
    "coordinates": {
      "lat": -17.083333333333332,
      "lon": 7.2
    }
  },
  {
    "country": "BO",
    "location": "MAP",
    "name": "Mapiri",
    "nameWoDiacritics": "Mapiri",
    "subdivision": "L",
    "status": "RL",
    "function": [
      2
    ],
    "date": 1807,
    "coordinates": {
      "lat": -15.25,
      "lon": 7.35
    }
  },
  {
    "country": "BO",
    "location": "MEC",
    "name": "Mecapaca",
    "nameWoDiacritics": "Mecapaca",
    "subdivision": "L",
    "status": "RL",
    "function": [
      2
    ],
    "date": 1807,
    "coordinates": {
      "lat": -16.683333333333334,
      "lon": 7.333333333333333
    }
  },
  {
    "country": "BO",
    "location": "MOC",
    "name": "Moco Moco",
    "nameWoDiacritics": "Moco Moco",
    "subdivision": "L",
    "status": "RL",
    "function": [
      2
    ],
    "date": 1807,
    "coordinates": {
      "lat": -16.966666666666665,
      "lon": 7.4
    }
  },
  {
    "country": "BO",
    "location": "MOJ",
    "name": "Mojocoya",
    "nameWoDiacritics": "Mojocoya",
    "subdivision": "H",
    "status": "RL",
    "function": [
      2
    ],
    "date": 1807,
    "coordinates": {
      "lat": -18.75,
      "lon": 6.716666666666667
    }
  },
  {
    "country": "BO",
    "location": "MHW",
    "name": "Monteagudo",
    "nameWoDiacritics": "Monteagudo",
    "subdivision": "H",
    "status": "RL",
    "function": [
      3
    ],
    "date": 907,
    "coordinates": {
      "lat": -19.816666666666666,
      "lon": 6.583333333333333
    }
  },
  {
    "country": "BO",
    "location": "NES",
    "name": "Nueva Esperanza",
    "nameWoDiacritics": "Nueva Esperanza",
    "subdivision": "N",
    "status": "RL",
    "function": [
      2
    ],
    "date": 1807,
    "coordinates": {
      "lat": -10.933333333333334,
      "lon": 7.083333333333333
    }
  },
  {
    "country": "BO",
    "location": "OBS",
    "name": "Obrajes",
    "nameWoDiacritics": "Obrajes",
    "subdivision": "L",
    "status": "RL",
    "function": [
      2
    ],
    "date": 1501,
    "coordinates": {
      "lat": -16.533333333333335,
      "lon": 7.333333333333333
    }
  },
  {
    "country": "BO",
    "location": "ORU",
    "name": "Oruro",
    "nameWoDiacritics": "Oruro",
    "subdivision": "O",
    "status": "AI",
    "function": [
      1,
      2,
      3
    ],
    "date": 407,
    "coordinates": {
      "lat": -17.983333333333334,
      "lon": 7.166666666666667
    }
  },
  {
    "country": "BO",
    "location": "PDC",
    "name": "Padcaya",
    "nameWoDiacritics": "Padcaya",
    "subdivision": "T",
    "status": "RL",
    "function": [
      2
    ],
    "date": 1807,
    "coordinates": {
      "lat": -21.883333333333333,
      "lon": 6.733333333333333
    }
  },
  {
    "country": "BO",
    "location": "PAD",
    "name": "Padilla",
    "nameWoDiacritics": "Padilla",
    "subdivision": "H",
    "status": "RL",
    "function": [
      2
    ],
    "date": 1807,
    "coordinates": {
      "lat": -19.3,
      "lon": 6.683333333333334
    }
  },
  {
    "country": "BO",
    "location": "PAL",
    "name": "Palca",
    "nameWoDiacritics": "Palca",
    "subdivision": "L",
    "status": "RL",
    "function": [
      2
    ],
    "date": 1807,
    "coordinates": {
      "lat": -16.55,
      "lon": 7.25
    }
  },
  {
    "country": "BO",
    "location": "PPM",
    "name": "Papel Pampa",
    "nameWoDiacritics": "Papel Pampa",
    "subdivision": "L",
    "status": "AC",
    "function": [
      2
    ],
    "date": 1901,
    "coordinates": {
      "lat": -17.816666666666666,
      "lon": 7.233333333333333
    }
  },
  {
    "country": "BO",
    "location": "PAT",
    "name": "Patacamaya",
    "nameWoDiacritics": "Patacamaya",
    "subdivision": "L",
    "status": "AC",
    "function": [
      2
    ],
    "date": 1901,
    "coordinates": {
      "lat": -17.233333333333334,
      "lon": 7.25
    }
  },
  {
    "country": "BO",
    "location": "PEL",
    "name": "Pelechuco",
    "nameWoDiacritics": "Pelechuco",
    "subdivision": "L",
    "status": "RL",
    "function": [
      2
    ],
    "date": 1807,
    "coordinates": {
      "lat": -14.8,
      "lon": 7.5
    }
  },
  {
    "country": "BO",
    "location": "PIS",
    "name": "Pisiga",
    "nameWoDiacritics": "Pisiga",
    "subdivision": "O",
    "status": "RL",
    "function": [
      2
    ],
    "date": 1701,
    "coordinates": {
      "lat": -19.283333333333335,
      "lon": 7.383333333333333
    }
  },
  {
    "country": "BO",
    "location": "POR",
    "name": "Poroma",
    "nameWoDiacritics": "Poroma",
    "subdivision": "H",
    "status": "RL",
    "function": [
      2
    ],
    "date": 1807,
    "coordinates": {
      "lat": -18.483333333333334,
      "lon": 6.883333333333333
    }
  },
  {
    "country": "BO",
    "location": "PRV",
    "name": "Porvenir",
    "nameWoDiacritics": "Porvenir",
    "subdivision": "N",
    "status": "RL",
    "function": [
      2
    ],
    "date": 1807,
    "coordinates": {
      "lat": -10.516666666666667,
      "lon": 7.183333333333334
    }
  },
  {
    "country": "BO",
    "location": "POI",
    "name": "PotosÌ",
    "nameWoDiacritics": "Potosi",
    "subdivision": "P",
    "status": "AI",
    "function": [
      2,
      3
    ],
    "date": 407,
    "coordinates": {
      "lat": -19.583333333333332,
      "lon": 6.9
    }
  },
  {
    "country": "BO",
    "location": "PRE",
    "name": "Presto",
    "nameWoDiacritics": "Presto",
    "subdivision": "H",
    "status": "RL",
    "function": [
      2
    ],
    "date": 1807,
    "coordinates": {
      "lat": -18.916666666666668,
      "lon": 6.75
    }
  },
  {
    "country": "BO",
    "location": "PUC",
    "name": "Pucarani",
    "nameWoDiacritics": "Pucarani",
    "subdivision": "L",
    "status": "AC",
    "function": [
      2
    ],
    "date": 1901,
    "coordinates": {
      "lat": -16.4,
      "lon": 7.366666666666667
    }
  },
  {
    "country": "BO",
    "location": "PTA",
    "name": "Puerto Acosta",
    "nameWoDiacritics": "Puerto Acosta",
    "subdivision": "L",
    "status": "RL",
    "function": [
      2
    ],
    "date": 1807,
    "coordinates": {
      "lat": -15.533333333333333,
      "lon": 7.516666666666667
    }
  },
  {
    "country": "BO",
    "location": "PBU",
    "name": "Puerto Busch",
    "nameWoDiacritics": "Puerto Busch",
    "subdivision": "S",
    "status": "AI",
    "function": [
      0,
      2
    ],
    "date": 407,
    "coordinates": {
      "lat": -20.033333333333335,
      "lon": 6.25
    }
  },
  {
    "country": "BO",
    "location": "PTC",
    "name": "Puerto Carabuco",
    "nameWoDiacritics": "Puerto Carabuco",
    "subdivision": "L",
    "status": "RQ",
    "function": [
      0,
      2
    ],
    "date": 1807,
    "coordinates": {
      "lat": -15.75,
      "lon": 7.5
    }
  },
  {
    "country": "BO",
    "location": "PGM",
    "name": "Puerto Gonzalo Moreno",
    "nameWoDiacritics": "Puerto Gonzalo Moreno",
    "subdivision": "N",
    "status": "RL",
    "function": [
      2
    ],
    "date": 1807,
    "coordinates": {
      "lat": -11.066666666666666,
      "lon": 7.016666666666667
    }
  },
  {
    "country": "BO",
    "location": "PPR",
    "name": "Puerto PÈrez",
    "nameWoDiacritics": "Puerto Perez",
    "subdivision": "L",
    "status": "AC",
    "function": [
      0,
      2
    ],
    "date": 1901,
    "coordinates": {
      "lat": -16.266666666666666,
      "lon": 7.383333333333333
    }
  },
  {
    "country": "BO",
    "location": "QJR",
    "name": "Puerto Quijarro",
    "nameWoDiacritics": "Puerto Quijarro",
    "subdivision": "S",
    "status": "AI",
    "function": [
      0,
      2
    ],
    "date": 501,
    "coordinates": {
      "lat": -17.783333333333335,
      "lon": 6.233333333333333
    }
  },
  {
    "country": "BO",
    "location": "PUR",
    "name": "Puerto Rico",
    "nameWoDiacritics": "Puerto Rico",
    "subdivision": "N",
    "status": "RL",
    "function": [
      0,
      2,
      3
    ],
    "date": 407,
    "coordinates": {
      "lat": -11.083333333333334,
      "lon": 7.216666666666667
    }
  },
  {
    "country": "BO",
    "location": "PTS",
    "name": "Puerto Siles",
    "nameWoDiacritics": "Puerto Siles",
    "subdivision": "B",
    "status": "RL",
    "function": [
      2
    ],
    "date": 1807,
    "coordinates": {
      "lat": -12.8,
      "lon": 6.833333333333333
    }
  },
  {
    "country": "BO",
    "location": "PSZ",
    "name": "Puerto Su·rez",
    "nameWoDiacritics": "Puerto Suarez",
    "subdivision": "S",
    "status": "AI",
    "function": [
      0,
      3
    ],
    "date": 212,
    "coordinates": {
      "lat": -18.95,
      "lon": 6.233333333333333
    }
  },
  {
    "country": "BO",
    "location": "QBA",
    "name": "Quiabaya",
    "nameWoDiacritics": "Quiabaya",
    "subdivision": "L",
    "status": "RL",
    "function": [
      2
    ],
    "date": 1807,
    "coordinates": {
      "lat": -15.616666666666667,
      "lon": 7.4
    }
  },
  {
    "country": "BO",
    "location": "QUO",
    "name": "Quillacollo",
    "nameWoDiacritics": "Quillacollo",
    "subdivision": "C",
    "status": "RL",
    "function": [
      2
    ],
    "date": 1501,
    "coordinates": {
      "lat": -17.4,
      "lon": 7.016666666666667
    }
  },
  {
    "country": "BO",
    "location": "QME",
    "name": "Quime",
    "nameWoDiacritics": "Quime",
    "subdivision": "L",
    "status": "AC",
    "function": [
      2
    ],
    "date": 1901,
    "coordinates": {
      "lat": -17.033333333333335,
      "lon": 7.183333333333334
    }
  },
  {
    "country": "BO",
    "location": "REY",
    "name": "Reyes",
    "nameWoDiacritics": "Reyes",
    "subdivision": "B",
    "status": "AI",
    "function": [
      2,
      3
    ],
    "date": 407,
    "coordinates": {
      "lat": -14.316666666666666,
      "lon": 7.2
    }
  },
  {
    "country": "BO",
    "location": "RIB",
    "name": "Riberalta",
    "nameWoDiacritics": "Riberalta",
    "subdivision": "B",
    "status": "AI",
    "function": [
      0,
      2,
      3
    ],
    "date": 407,
    "coordinates": {
      "lat": -10.983333333333333,
      "lon": 7
    }
  },
  {
    "country": "BO",
    "location": "RBO",
    "name": "RoborÈ",
    "nameWoDiacritics": "Robore",
    "subdivision": "S",
    "status": "AI",
    "function": [
      2,
      3
    ],
    "date": 407,
    "coordinates": {
      "lat": -18.333333333333332,
      "lon": 6.566666666666666
    }
  },
  {
    "country": "BO",
    "location": "RBQ",
    "name": "Rurrenabaque",
    "nameWoDiacritics": "Rurrenabaque",
    "subdivision": "B",
    "status": "AI",
    "function": [
      0,
      2,
      3
    ],
    "date": 407,
    "coordinates": {
      "lat": -14.466666666666667,
      "lon": 7.216666666666667
    }
  },
  {
    "country": "BO",
    "location": "SAM",
    "name": "San AndrÈs de Machaca",
    "nameWoDiacritics": "San Andres de Machaca",
    "subdivision": "L",
    "status": "RL",
    "function": [
      2
    ],
    "date": 1807,
    "coordinates": {
      "lat": -16.95,
      "lon": 7.416666666666667
    }
  },
  {
    "country": "BO",
    "location": "SRJ",
    "name": "San Borja",
    "nameWoDiacritics": "San Borja",
    "subdivision": "B",
    "status": "AI",
    "function": [
      2,
      3
    ],
    "date": 407,
    "coordinates": {
      "lat": -14.816666666666666,
      "lon": 7.083333333333333
    }
  },
  {
    "country": "BO",
    "location": "SBV",
    "name": "San Buenaventura",
    "nameWoDiacritics": "San Buenaventura",
    "subdivision": "L",
    "status": "AC",
    "function": [
      2
    ],
    "date": 1901,
    "coordinates": {
      "lat": -14.466666666666667,
      "lon": 7.216666666666667
    }
  },
  {
    "country": "BO",
    "location": "SNM",
    "name": "San Ignacio de Moxo",
    "nameWoDiacritics": "San Ignacio de Moxo",
    "subdivision": "B",
    "status": "AI",
    "function": [
      3
    ],
    "date": 212,
    "coordinates": {
      "lat": -15,
      "lon": 6.883333333333333
    }
  },
  {
    "country": "BO",
    "location": "SNG",
    "name": "San Ignacio de Velasco",
    "nameWoDiacritics": "San Ignacio de Velasco",
    "subdivision": "S",
    "status": "AI",
    "function": [
      2,
      3
    ],
    "date": 407,
    "coordinates": {
      "lat": -16.366666666666667,
      "lon": 6.083333333333333
    }
  },
  {
    "country": "BO",
    "location": "SJV",
    "name": "San Javier",
    "nameWoDiacritics": "San Javier",
    "subdivision": "S",
    "status": "AI",
    "function": [
      2,
      3
    ],
    "date": 407,
    "coordinates": {
      "lat": -16.333333333333332,
      "lon": 6.383333333333334
    }
  },
  {
    "country": "BO",
    "location": "SJB",
    "name": "San JoaquÌn",
    "nameWoDiacritics": "San Joaquin",
    "subdivision": "B",
    "status": "AI",
    "function": [
      2,
      3
    ],
    "date": 407,
    "coordinates": {
      "lat": -13.066666666666666,
      "lon": 6.733333333333333
    }
  },
  {
    "country": "BO",
    "location": "SJS",
    "name": "San JosÈ",
    "nameWoDiacritics": "San Jose",
    "subdivision": "S",
    "status": "AI",
    "function": [
      2,
      3
    ],
    "date": 407,
    "coordinates": {
      "lat": -17.85,
      "lon": 6.066666666666666
    }
  },
  {
    "country": "BO",
    "location": "SLO",
    "name": "San Lorenzo",
    "nameWoDiacritics": "San Lorenzo",
    "subdivision": "T",
    "status": "RL",
    "function": [
      2
    ],
    "date": 1807,
    "coordinates": {
      "lat": -21.433333333333334,
      "lon": 6.733333333333333
    }
  },
  {
    "country": "BO",
    "location": "SLR",
    "name": "San Lorenzo",
    "nameWoDiacritics": "San Lorenzo",
    "subdivision": "N",
    "status": "RL",
    "function": [
      2
    ],
    "date": 1807,
    "coordinates": {
      "lat": -11.883333333333333,
      "lon": 7.083333333333333
    }
  },
  {
    "country": "BO",
    "location": "SLC",
    "name": "San Lucas",
    "nameWoDiacritics": "San Lucas",
    "subdivision": "H",
    "status": "RL",
    "function": [
      2
    ],
    "date": 1807,
    "coordinates": {
      "lat": -20.1,
      "lon": 6.833333333333333
    }
  },
  {
    "country": "BO",
    "location": "MQK",
    "name": "San Matias",
    "nameWoDiacritics": "San Matias",
    "subdivision": "B",
    "status": "RL",
    "function": [
      3
    ],
    "date": 907,
    "coordinates": {
      "lat": -11.683333333333334,
      "lon": 7.05
    }
  },
  {
    "country": "BO",
    "location": "SPH",
    "name": "San Pablo de Huacareta",
    "nameWoDiacritics": "San Pablo de Huacareta",
    "subdivision": "H",
    "status": "RL",
    "function": [
      2
    ],
    "date": 1807,
    "coordinates": {
      "lat": -20.3,
      "lon": 6.666666666666667
    }
  },
  {
    "country": "BO",
    "location": "SPD",
    "name": "San Pedro",
    "nameWoDiacritics": "San Pedro",
    "subdivision": "N",
    "status": "RL",
    "function": [
      2
    ],
    "date": 1807,
    "coordinates": {
      "lat": -11.183333333333334,
      "lon": 7.016666666666667
    }
  },
  {
    "country": "BO",
    "location": "SCH",
    "name": "San Pedro de Curahuara",
    "nameWoDiacritics": "San Pedro de Curahuara",
    "subdivision": "L",
    "status": "AC",
    "function": [
      2
    ],
    "date": 1901,
    "coordinates": {
      "lat": -17.65,
      "lon": 7.333333333333333
    }
  },
  {
    "country": "BO",
    "location": "SRD",
    "name": "San RamÛn",
    "nameWoDiacritics": "San Ramon",
    "subdivision": "B",
    "status": "AI",
    "function": [
      2,
      3
    ],
    "date": 407,
    "coordinates": {
      "lat": -13.283333333333333,
      "lon": 6.733333333333333
    }
  },
  {
    "country": "BO",
    "location": "SBL",
    "name": "Santa Ana",
    "nameWoDiacritics": "Santa Ana",
    "subdivision": "B",
    "status": "AI",
    "function": [
      2,
      3
    ],
    "date": 407,
    "coordinates": {
      "lat": -13.75,
      "lon": 6.866666666666667
    }
  },
  {
    "country": "BO",
    "location": "SRZ",
    "name": "Santa Cruz",
    "nameWoDiacritics": "Santa Cruz",
    "subdivision": "L",
    "status": "AI",
    "function": [
      1,
      2,
      3,
      4
    ],
    "date": 407,
    "coordinates": {
      "lat": -17.783333333333335,
      "lon": 6.516666666666667
    }
  },
  {
    "country": "BO",
    "location": "SCS",
    "name": "Santa Cruz de la Sierra",
    "nameWoDiacritics": "Santa Cruz de la Sierra",
    "subdivision": "S",
    "status": "RL",
    "function": [
      2
    ],
    "date": 1707,
    "coordinates": {
      "lat": 17.8,
      "lon": 6.516666666666667
    }
  },
  {
    "country": "BO",
    "location": "SRB",
    "name": "Santa Rosa",
    "nameWoDiacritics": "Santa Rosa",
    "status": "AI",
    "function": [
      3
    ],
    "date": 9912,
    "coordinates": {
      "lat": 0,
      "lon": 0
    }
  },
  {
    "country": "BO",
    "location": "SRA",
    "name": "Santa Rosa del Abun·",
    "nameWoDiacritics": "Santa Rosa del Abuna",
    "subdivision": "N",
    "status": "RL",
    "function": [
      2
    ],
    "date": 1807,
    "coordinates": {
      "lat": -10.6,
      "lon": 7.2
    }
  },
  {
    "country": "BO",
    "location": "SDH",
    "name": "Santiago de Huari",
    "nameWoDiacritics": "Santiago de Huari",
    "subdivision": "O",
    "status": "RL",
    "function": [
      2
    ],
    "date": 1701,
    "coordinates": {
      "lat": -19,
      "lon": 7.066666666666666
    }
  },
  {
    "country": "BO",
    "location": "STH",
    "name": "Santiago de Huata",
    "nameWoDiacritics": "Santiago de Huata",
    "subdivision": "L",
    "status": "RL",
    "function": [
      2
    ],
    "date": 1807,
    "coordinates": {
      "lat": -16.1,
      "lon": 7.416666666666667
    }
  },
  {
    "country": "BO",
    "location": "SMC",
    "name": "Santiago de Machaca",
    "nameWoDiacritics": "Santiago de Machaca",
    "subdivision": "L",
    "status": "AC",
    "function": [
      2
    ],
    "date": 1901,
    "coordinates": {
      "lat": -17.083333333333332,
      "lon": 7.516666666666667
    }
  },
  {
    "country": "BO",
    "location": "SAN",
    "name": "Santiv·Òez",
    "nameWoDiacritics": "Santivanez",
    "status": "RL",
    "function": [
      2
    ],
    "date": 701,
    "coordinates": {
      "lat": -17.55,
      "lon": 7.016666666666667
    }
  },
  {
    "country": "BO",
    "location": "SME",
    "name": "Santos Mercado",
    "nameWoDiacritics": "Santos Mercado",
    "subdivision": "N",
    "status": "RL",
    "function": [
      2
    ],
    "date": 1807,
    "coordinates": {
      "lat": -9.95,
      "lon": 7.05
    }
  },
  {
    "country": "BO",
    "location": "SAP",
    "name": "Sapahaqui",
    "nameWoDiacritics": "Sapahaqui",
    "subdivision": "L",
    "status": "RL",
    "function": [
      2
    ],
    "date": 1807,
    "coordinates": {
      "lat": -16.9,
      "lon": 7.25
    }
  },
  {
    "country": "BO",
    "location": "SIC",
    "name": "Sica Sica",
    "nameWoDiacritics": "Sica Sica",
    "subdivision": "L",
    "status": "AC",
    "function": [
      2
    ],
    "date": 1901,
    "coordinates": {
      "lat": -17.333333333333332,
      "lon": 7.233333333333333
    }
  },
  {
    "country": "BO",
    "location": "SIP",
    "name": "Sipe Sipe",
    "nameWoDiacritics": "Sipe Sipe",
    "subdivision": "C",
    "status": "RL",
    "function": [
      5
    ],
    "date": 1107,
    "coordinates": {
      "lat": -17.45,
      "lon": 7.033333333333333
    }
  },
  {
    "country": "BO",
    "location": "SOR",
    "name": "Sorata",
    "nameWoDiacritics": "Sorata",
    "subdivision": "L",
    "status": "RL",
    "function": [
      2
    ],
    "date": 1807,
    "coordinates": {
      "lat": -15.766666666666667,
      "lon": 7.383333333333333
    }
  },
  {
    "country": "BO",
    "location": "SRE",
    "name": "Sucre",
    "nameWoDiacritics": "Sucre",
    "subdivision": "H",
    "status": "AI",
    "function": [
      1,
      2,
      3
    ],
    "date": 407,
    "coordinates": {
      "lat": -19.033333333333335,
      "lon": 6.85
    }
  },
  {
    "country": "BO",
    "location": "TAC",
    "name": "Tacacoma",
    "nameWoDiacritics": "Tacacoma",
    "subdivision": "L",
    "status": "RL",
    "function": [
      2
    ],
    "date": 1807,
    "coordinates": {
      "lat": -15.583333333333334,
      "lon": 7.4
    }
  },
  {
    "country": "BO",
    "location": "TAQ",
    "name": "Tambo Quemado",
    "nameWoDiacritics": "Tambo Quemado",
    "subdivision": "O",
    "status": "RL",
    "function": [
      2
    ],
    "date": 1701,
    "coordinates": {
      "lat": -18.266666666666666,
      "lon": 7.5
    }
  },
  {
    "country": "BO",
    "location": "TAR",
    "name": "Tarabuco",
    "nameWoDiacritics": "Tarabuco",
    "subdivision": "H",
    "status": "RL",
    "function": [
      2
    ],
    "date": 1807,
    "coordinates": {
      "lat": -19.166666666666668,
      "lon": 6.75
    }
  },
  {
    "country": "BO",
    "location": "TRC",
    "name": "Taraco",
    "nameWoDiacritics": "Taraco",
    "subdivision": "L",
    "status": "RL",
    "function": [
      2
    ],
    "date": 1807,
    "coordinates": {
      "lat": -16.45,
      "lon": 7.416666666666667
    }
  },
  {
    "country": "BO",
    "location": "TJA",
    "name": "Tarija",
    "nameWoDiacritics": "Tarija",
    "subdivision": "T",
    "status": "AI",
    "function": [
      2,
      3
    ],
    "date": 407,
    "coordinates": {
      "lat": -21.516666666666666,
      "lon": 6.733333333333333
    }
  },
  {
    "country": "BO",
    "location": "TEO",
    "name": "Teoponte",
    "nameWoDiacritics": "Teoponte",
    "subdivision": "L",
    "status": "RL",
    "function": [
      2
    ],
    "date": 1807,
    "coordinates": {
      "lat": -15.466666666666667,
      "lon": 7.233333333333333
    }
  },
  {
    "country": "BO",
    "location": "TIA",
    "name": "Tiahuanacu",
    "nameWoDiacritics": "Tiahuanacu",
    "subdivision": "L",
    "status": "RL",
    "function": [
      2
    ],
    "date": 1807,
    "coordinates": {
      "lat": -16.55,
      "lon": 7.4
    }
  },
  {
    "country": "BO",
    "location": "TIP",
    "name": "Tipuani",
    "nameWoDiacritics": "Tipuani",
    "subdivision": "L",
    "status": "RL",
    "function": [
      2
    ],
    "date": 1807,
    "coordinates": {
      "lat": -15.55,
      "lon": 7.333333333333333
    }
  },
  {
    "country": "BO",
    "location": "TQY",
    "name": "Tiquipaya",
    "nameWoDiacritics": "Tiquipaya",
    "subdivision": "C",
    "status": "RL",
    "function": [
      2
    ],
    "date": 1601,
    "coordinates": {
      "lat": -17.333333333333332,
      "lon": 7.016666666666667
    }
  },
  {
    "country": "BO",
    "location": "TOM",
    "name": "Tomina",
    "nameWoDiacritics": "Tomina",
    "subdivision": "H",
    "status": "RL",
    "function": [
      2
    ],
    "date": 1807,
    "coordinates": {
      "lat": -19.183333333333334,
      "lon": 6.716666666666667
    }
  },
  {
    "country": "BO",
    "location": "TDD",
    "name": "Trinidad",
    "nameWoDiacritics": "Trinidad",
    "subdivision": "B",
    "status": "AI",
    "function": [
      0,
      2,
      3
    ],
    "date": 407,
    "coordinates": {
      "lat": -14.833333333333334,
      "lon": 6.75
    }
  },
  {
    "country": "BO",
    "location": "UMA",
    "name": "Umala",
    "nameWoDiacritics": "Umala",
    "subdivision": "L",
    "status": "AC",
    "function": [
      2
    ],
    "date": 1901,
    "coordinates": {
      "lat": -17.366666666666667,
      "lon": 7.333333333333333
    }
  },
  {
    "country": "BO",
    "location": "URI",
    "name": "Uriondo",
    "nameWoDiacritics": "Uriondo",
    "subdivision": "T",
    "status": "RL",
    "function": [
      2
    ],
    "date": 1807,
    "coordinates": {
      "lat": -21.683333333333334,
      "lon": 6.733333333333333
    }
  },
  {
    "country": "BO",
    "location": "UYU",
    "name": "Uyuni",
    "nameWoDiacritics": "Uyuni",
    "subdivision": "P",
    "status": "RL",
    "function": [
      2
    ],
    "date": 901,
    "coordinates": {
      "lat": -20.45,
      "lon": 7.066666666666666
    }
  },
  {
    "country": "BO",
    "location": "VAH",
    "name": "Vallegrande",
    "nameWoDiacritics": "Vallegrande",
    "subdivision": "S",
    "status": "AI",
    "function": [
      2,
      3
    ],
    "date": 407,
    "coordinates": {
      "lat": -18.483333333333334,
      "lon": 6.666666666666667
    }
  },
  {
    "country": "BO",
    "location": "VIA",
    "name": "Viacha",
    "nameWoDiacritics": "Viacha",
    "subdivision": "L",
    "status": "RL",
    "function": [
      2
    ],
    "date": 1807,
    "coordinates": {
      "lat": -16.65,
      "lon": 7.35
    }
  },
  {
    "country": "BO",
    "location": "VAB",
    "name": "Villa Abecia (Camataqui)",
    "nameWoDiacritics": "Villa Abecia (Camataqui)",
    "subdivision": "H",
    "status": "RL",
    "function": [
      2
    ],
    "date": 1807,
    "coordinates": {
      "lat": -20.95,
      "lon": 6.85
    }
  },
  {
    "country": "BO",
    "location": "VIN",
    "name": "Villa Nueva",
    "nameWoDiacritics": "Villa Nueva",
    "subdivision": "N",
    "status": "RL",
    "function": [
      2
    ],
    "date": 1807,
    "coordinates": {
      "lat": -10.783333333333333,
      "lon": 7.033333333333333
    }
  },
  {
    "country": "BO",
    "location": "VSR",
    "name": "Villa Serrano",
    "nameWoDiacritics": "Villa Serrano",
    "subdivision": "H",
    "status": "RL",
    "function": [
      2
    ],
    "date": 1807,
    "coordinates": {
      "lat": -19.116666666666667,
      "lon": 6.7
    }
  },
  {
    "country": "BO",
    "location": "VLM",
    "name": "Villamontes",
    "nameWoDiacritics": "Villamontes",
    "subdivision": "T",
    "status": "AI",
    "function": [
      2,
      3
    ],
    "date": 407,
    "coordinates": {
      "lat": -21.25,
      "lon": 6.55
    }
  },
  {
    "country": "BO",
    "location": "VL2",
    "name": "Villazon",
    "nameWoDiacritics": "Villazon",
    "subdivision": "H",
    "status": "RL",
    "function": [
      2
    ],
    "date": 1501,
    "coordinates": {
      "lat": -20.533333333333335,
      "lon": 6.35
    }
  },
  {
    "country": "BO",
    "location": "VLL",
    "name": "VillazÛn",
    "nameWoDiacritics": "Villazon",
    "subdivision": "P",
    "status": "RL",
    "function": [
      1,
      2
    ],
    "date": 1407,
    "coordinates": {
      "lat": -22.083333333333332,
      "lon": 6.883333333333333
    }
  },
  {
    "country": "BO",
    "location": "VVI",
    "name": "Viru Viru",
    "nameWoDiacritics": "Viru Viru",
    "subdivision": "H",
    "status": "AI",
    "function": [
      3
    ],
    "date": 212,
    "coordinates": {
      "lat": -18.383333333333333,
      "lon": 6.883333333333333
    }
  },
  {
    "country": "BO",
    "location": "WAB",
    "name": "Waldo Ballivian",
    "nameWoDiacritics": "Waldo Ballivian",
    "subdivision": "L",
    "status": "RL",
    "function": [
      2
    ],
    "date": 1807,
    "coordinates": {
      "lat": -17.533333333333335,
      "lon": 7.25
    }
  },
  {
    "country": "BO",
    "location": "YAC",
    "name": "Yaco",
    "nameWoDiacritics": "Yaco",
    "subdivision": "L",
    "status": "RL",
    "function": [
      2
    ],
    "date": 1807,
    "coordinates": {
      "lat": -17.15,
      "lon": 7.2
    }
  },
  {
    "country": "BO",
    "location": "BYC",
    "name": "Yacuiba",
    "nameWoDiacritics": "Yacuiba",
    "subdivision": "T",
    "status": "AI",
    "function": [
      1,
      2,
      3
    ],
    "date": 407,
    "coordinates": {
      "lat": -22.033333333333335,
      "lon": 6.566666666666666
    }
  },
  {
    "country": "BO",
    "location": "YAM",
    "name": "Yampar·ez",
    "nameWoDiacritics": "Yamparaez",
    "subdivision": "H",
    "status": "RL",
    "function": [
      2
    ],
    "date": 1807,
    "coordinates": {
      "lat": -19.183333333333334,
      "lon": 6.833333333333333
    }
  },
  {
    "country": "BO",
    "location": "YAN",
    "name": "Yanacachi",
    "nameWoDiacritics": "Yanacachi",
    "subdivision": "L",
    "status": "AC",
    "function": [
      2
    ],
    "date": 1901,
    "coordinates": {
      "lat": -16.383333333333333,
      "lon": 7.233333333333333
    }
  },
  {
    "country": "BO",
    "location": "YOT",
    "name": "Yotala",
    "nameWoDiacritics": "Yotala",
    "subdivision": "H",
    "status": "RL",
    "function": [
      2
    ],
    "date": 1807,
    "coordinates": {
      "lat": -19.15,
      "lon": 6.85
    }
  },
  {
    "country": "BO",
    "location": "YUO",
    "name": "Yucumo",
    "nameWoDiacritics": "Yucumo",
    "subdivision": "B",
    "status": "RL",
    "function": [
      2
    ],
    "date": 1401,
    "coordinates": {
      "lat": -15.133333333333333,
      "lon": 7.166666666666667
    }
  },
  {
    "country": "BO",
    "location": "YUN",
    "name": "Yunchara",
    "nameWoDiacritics": "Yunchara",
    "subdivision": "T",
    "status": "RL",
    "function": [
      2
    ],
    "date": 1807,
    "coordinates": {
      "lat": -21.783333333333335,
      "lon": 6.85
    }
  },
  {
    "country": "BO",
    "location": "ZUD",
    "name": "Zud·Òez",
    "nameWoDiacritics": "Zudanez",
    "subdivision": "H",
    "status": "RL",
    "function": [
      2
    ],
    "date": 1807,
    "coordinates": {
      "lat": -19.116666666666667,
      "lon": 6.733333333333333
    }
  }
]