[
  {
    "country": "BR",
    "name": ".BRAZIL",
    "function": [],
    "coordinates": {
      "lat": 0,
      "lon": 0
    }
  },
  {
    "country": "BR",
    "location": "ADG",
    "name": "Abadia de Goi·s",
    "nameWoDiacritics": "Abadia de Goias",
    "subdivision": "GO",
    "status": "AA",
    "function": [
      2
    ],
    "date": 2107,
    "coordinates": {
      "lat": -16.75,
      "lon": 5.533333333333333
    }
  },
  {
    "country": "BR",
    "location": "ADU",
    "name": "Abadia dos Dourados",
    "nameWoDiacritics": "Abadia dos Dourados",
    "subdivision": "MG",
    "status": "AA",
    "function": [
      2
    ],
    "date": 2107,
    "coordinates": {
      "lat": -18.483333333333334,
      "lon": 5.2
    }
  },
  {
    "country": "BR",
    "location": "AII",
    "name": "Abadi‚nia",
    "nameWoDiacritics": "Abadiania",
    "subdivision": "GO",
    "status": "AA",
    "function": [
      2
    ],
    "date": 2107,
    "coordinates": {
      "lat": -16.166666666666668,
      "lon": 5.4
    }
  },
  {
    "country": "BR",
    "location": "ABT",
    "name": "AbaetÈ",
    "nameWoDiacritics": "Abaete",
    "subdivision": "MG",
    "status": "AA",
    "function": [
      2
    ],
    "date": 2107,
    "coordinates": {
      "lat": -19.15,
      "lon": 4.866666666666667
    }
  },
  {
    "country": "BR",
    "location": "ATB",
    "name": "Abaetetuba",
    "nameWoDiacritics": "Abaetetuba",
    "subdivision": "PA",
    "status": "AA",
    "function": [
      2
    ],
    "date": 2107,
    "coordinates": {
      "lat": -1.7166666666666668,
      "lon": 5.416666666666667
    }
  },
  {
    "country": "BR",
    "location": "AAY",
    "name": "Abaiara",
    "nameWoDiacritics": "Abaiara",
    "subdivision": "CE",
    "status": "AA",
    "function": [
      2
    ],
    "date": 2107,
    "coordinates": {
      "lat": -7.35,
      "lon": 4.5
    }
  },
  {
    "country": "BR",
    "location": "AYR",
    "name": "AbaÌra",
    "nameWoDiacritics": "Abaira",
    "subdivision": "BA",
    "status": "AA",
    "function": [
      2
    ],
    "date": 2107,
    "coordinates": {
      "lat": -13.25,
      "lon": 4.216666666666667
    }
  },
  {
    "country": "BR",
    "location": "ABR",
    "name": "AbarÈ",
    "nameWoDiacritics": "Abare",
    "subdivision": "BA",
    "status": "AA",
    "function": [
      2
    ],
    "date": 2107,
    "coordinates": {
      "lat": -8.716666666666667,
      "lon": 4.5
    }
  },
  {
    "country": "BR",
    "location": "AYA",
    "name": "Abati·",
    "nameWoDiacritics": "Abatia",
    "subdivision": "PR",
    "status": "AA",
    "function": [
      2
    ],
    "date": 2107,
    "coordinates": {
      "lat": -23.3,
      "lon": 5.016666666666667
    }
  },
  {
    "country": "BR",
    "location": "ABB",
    "name": "Abdon Batista",
    "nameWoDiacritics": "Abdon Batista",
    "subdivision": "SC",
    "status": "AA",
    "function": [
      2
    ],
    "date": 2107,
    "coordinates": {
      "lat": -27.6,
      "lon": 5.166666666666667
    }
  },
  {
    "country": "BR",
    "location": "AFD",
    "name": "Abel Figueiredo",
    "nameWoDiacritics": "Abel Figueiredo",
    "subdivision": "PA",
    "status": "AA",
    "function": [
      2
    ],
    "date": 2107,
    "coordinates": {
      "lat": -4.95,
      "lon": 5.366666666666667
    }
  },
  {
    "country": "BR",
    "location": "ADL",
    "name": "Abelardo Luz",
    "nameWoDiacritics": "Abelardo Luz",
    "subdivision": "SC",
    "status": "AA",
    "function": [
      2
    ],
    "date": 2107,
    "coordinates": {
      "lat": -26.55,
      "lon": 5.366666666666666
    }
  },
  {
    "country": "BR",
    "location": "ACM",
    "name": "Abre Campo",
    "nameWoDiacritics": "Abre Campo",
    "subdivision": "MG",
    "status": "AA",
    "function": [
      2
    ],
    "date": 2107,
    "coordinates": {
      "lat": -20.3,
      "lon": 4.366666666666666
    }
  },
  {
    "country": "BR",
    "location": "ALM",
    "name": "Abreu e Lima",
    "nameWoDiacritics": "Abreu e Lima",
    "subdivision": "PE",
    "status": "AA",
    "function": [
      2
    ],
    "date": 2107,
    "coordinates": {
      "lat": -7.9,
      "lon": 3.75
    }
  },
  {
    "country": "BR",
    "location": "ABD",
    "name": "Abreul‚ndia",
    "nameWoDiacritics": "Abreulandia",
    "subdivision": "TO",
    "status": "AA",
    "function": [
      2
    ],
    "date": 2107,
    "coordinates": {
      "lat": -9.616666666666667,
      "lon": 5.5
    }
  },
  {
    "country": "BR",
    "location": "AKK",
    "name": "Acaiaca",
    "nameWoDiacritics": "Acaiaca",
    "subdivision": "MG",
    "status": "AA",
    "function": [
      2
    ],
    "date": 2107,
    "coordinates": {
      "lat": -20.35,
      "lon": 4.5
    }
  },
  {
    "country": "BR",
    "location": "ACL",
    "name": "AÁail‚ndia",
    "nameWoDiacritics": "Acailandia",
    "subdivision": "MA",
    "status": "AA",
    "function": [
      1,
      2
    ],
    "date": 2107,
    "coordinates": {
      "lat": -4.95,
      "lon": 5.216666666666667
    }
  },
  {
    "country": "BR",
    "location": "AJB",
    "name": "Acajutiba",
    "nameWoDiacritics": "Acajutiba",
    "subdivision": "BA",
    "status": "AA",
    "function": [
      2
    ],
    "date": 2107,
    "coordinates": {
      "lat": -11.65,
      "lon": 4.333333333333333
    }
  },
  {
    "country": "BR",
    "location": "AAR",
    "name": "Acar·",
    "nameWoDiacritics": "Acara",
    "subdivision": "PA",
    "status": "AA",
    "function": [
      0,
      2
    ],
    "date": 2107,
    "coordinates": {
      "lat": -1.95,
      "lon": 5.35
    }
  },
  {
    "country": "BR",
    "location": "ACE",
    "name": "Acarape",
    "nameWoDiacritics": "Acarape",
    "subdivision": "CE",
    "status": "AA",
    "function": [
      2
    ],
    "date": 1601,
    "coordinates": {
      "lat": -4.216666666666667,
      "lon": 4.4
    }
  },
  {
    "country": "BR",
    "location": "ACA",
    "name": "Acara˙",
    "nameWoDiacritics": "Acarau",
    "subdivision": "CE",
    "status": "AA",
    "function": [
      2
    ],
    "date": 2107,
    "coordinates": {
      "lat": -2.8833333333333333,
      "lon": 4
    }
  },
  {
    "country": "BR",
    "location": "ACR",
    "name": "Acari",
    "nameWoDiacritics": "Acari",
    "subdivision": "RN",
    "status": "AA",
    "function": [
      2
    ],
    "date": 2107,
    "coordinates": {
      "lat": -6.433333333333334,
      "lon": 4.05
    }
  },
  {
    "country": "BR",
    "location": "AKA",
    "name": "Acau„",
    "nameWoDiacritics": "Acaua",
    "subdivision": "PI",
    "status": "AA",
    "function": [
      2
    ],
    "date": 2107,
    "coordinates": {
      "lat": -8.216666666666667,
      "lon": 4.166666666666667
    }
  },
  {
    "country": "BR",
    "location": "AEU",
    "name": "Acegu·",
    "nameWoDiacritics": "Acegua",
    "subdivision": "RS",
    "status": "AA",
    "function": [
      2,
      5
    ],
    "date": 2107,
    "coordinates": {
      "lat": -31.85,
      "lon": 5.666666666666667
    }
  },
  {
    "country": "BR",
    "location": "AOA",
    "name": "Acopiara",
    "nameWoDiacritics": "Acopiara",
    "subdivision": "CE",
    "status": "AA",
    "function": [
      2
    ],
    "date": 2107,
    "coordinates": {
      "lat": -6.083333333333333,
      "lon": 4.533333333333333
    }
  },
  {
    "country": "BR",
    "location": "AZL",
    "name": "Acorizal",
    "nameWoDiacritics": "Acorizal",
    "subdivision": "MT",
    "status": "AA",
    "function": [
      2
    ],
    "date": 2107,
    "coordinates": {
      "lat": -15.183333333333334,
      "lon": 6.033333333333333
    }
  },
  {
    "country": "BR",
    "location": "ALI",
    "name": "Acrel‚ndia",
    "nameWoDiacritics": "Acrelandia",
    "subdivision": "AC",
    "status": "AA",
    "function": [
      2
    ],
    "date": 2107,
    "coordinates": {
      "lat": -10.066666666666666,
      "lon": 7.166666666666667
    }
  },
  {
    "country": "BR",
    "location": "ACN",
    "name": "Acre˙na",
    "nameWoDiacritics": "Acreuna",
    "subdivision": "GO",
    "status": "AA",
    "function": [
      2
    ],
    "date": 2107,
    "coordinates": {
      "lat": -17.383333333333333,
      "lon": 5.033333333333333
    }
  },
  {
    "country": "BR",
    "location": "ACU",
    "name": "AÁu",
    "nameWoDiacritics": "Acu",
    "subdivision": "RN",
    "status": "AA",
    "function": [
      2,
      3
    ],
    "date": 2107,
    "coordinates": {
      "lat": -5.566666666666666,
      "lon": 4.083333333333333
    }
  },
  {
    "country": "BR",
    "location": "ACX",
    "name": "AÁu Pt / S„o Jo„o da Barra",
    "nameWoDiacritics": "Acu Pt / Sao Joao da Barra",
    "subdivision": "RJ",
    "status": "AA",
    "function": [
      0
    ],
    "date": 2107,
    "coordinates": {
      "lat": -21.816666666666666,
      "lon": 4.166666666666667
    },
    "remarks": "CF BR SDBCf BR SDB"
  },
  {
    "country": "BR",
    "location": "AUC",
    "name": "AÁucena",
    "nameWoDiacritics": "Acucena",
    "subdivision": "MG",
    "status": "AA",
    "function": [
      2
    ],
    "date": 2107,
    "coordinates": {
      "lat": -19.066666666666666,
      "lon": 4.383333333333334
    }
  },
  {
    "country": "BR",
    "location": "AMT",
    "name": "Adamantina",
    "nameWoDiacritics": "Adamantina",
    "subdivision": "SP",
    "status": "AA",
    "function": [
      2,
      3
    ],
    "date": 2107,
    "coordinates": {
      "lat": -21.683333333333334,
      "lon": 5.166666666666667
    }
  },
  {
    "country": "BR",
    "location": "DLN",
    "name": "Adel‚ndia",
    "nameWoDiacritics": "Adelandia",
    "subdivision": "GO",
    "status": "AA",
    "function": [
      2
    ],
    "date": 2107,
    "coordinates": {
      "lat": -16.4,
      "lon": 5
    }
  },
  {
    "country": "BR",
    "location": "ADF",
    "name": "Adolfo",
    "nameWoDiacritics": "Adolfo",
    "subdivision": "SP",
    "status": "AA",
    "function": [
      2
    ],
    "date": 2107,
    "coordinates": {
      "lat": -21.216666666666665,
      "lon": 5.55
    }
  },
  {
    "country": "BR",
    "location": "APZ",
    "name": "AdrianÛpolis",
    "nameWoDiacritics": "Adrianopolis",
    "subdivision": "PR",
    "status": "AA",
    "function": [
      2
    ],
    "date": 2107,
    "coordinates": {
      "lat": -24.65,
      "lon": 5.416666666666667
    }
  },
  {
    "country": "BR",
    "location": "ASN",
    "name": "Adustina",
    "nameWoDiacritics": "Adustina",
    "subdivision": "BA",
    "status": "AA",
    "function": [
      2
    ],
    "date": 2107,
    "coordinates": {
      "lat": -10.516666666666667,
      "lon": 4.333333333333333
    }
  },
  {
    "country": "BR",
    "location": "ADI",
    "name": "Afogados da Ingazeira",
    "nameWoDiacritics": "Afogados da Ingazeira",
    "subdivision": "PE",
    "status": "AA",
    "function": [
      2
    ],
    "date": 2107,
    "coordinates": {
      "lat": -7.733333333333333,
      "lon": 4.216666666666667
    }
  },
  {
    "country": "BR",
    "location": "ABE",
    "name": "Afonso Bezerra",
    "nameWoDiacritics": "Afonso Bezerra",
    "subdivision": "RN",
    "status": "AA",
    "function": [
      2
    ],
    "date": 2107,
    "coordinates": {
      "lat": -5.483333333333333,
      "lon": 4.05
    }
  },
  {
    "country": "BR",
    "location": "AFC",
    "name": "Afonso Cl·udio",
    "nameWoDiacritics": "Afonso Claudio",
    "subdivision": "ES",
    "status": "AA",
    "function": [
      2
    ],
    "date": 2107,
    "coordinates": {
      "lat": -20.066666666666666,
      "lon": 4.166666666666667
    }
  },
  {
    "country": "BR",
    "location": "AFH",
    "name": "Afonso Cunha",
    "nameWoDiacritics": "Afonso Cunha",
    "subdivision": "MA",
    "status": "AA",
    "function": [
      2
    ],
    "date": 2107,
    "coordinates": {
      "lat": -4.133333333333334,
      "lon": 4.516666666666667
    }
  },
  {
    "country": "BR",
    "location": "AAO",
    "name": "Afr‚nio",
    "nameWoDiacritics": "Afranio",
    "subdivision": "PE",
    "status": "AA",
    "function": [
      2
    ],
    "date": 2107,
    "coordinates": {
      "lat": -8.5,
      "lon": 4.166666666666667
    }
  },
  {
    "country": "BR",
    "location": "AFU",
    "name": "Afu·",
    "nameWoDiacritics": "Afua",
    "subdivision": "PA",
    "status": "AA",
    "function": [
      0,
      2
    ],
    "date": 2107,
    "coordinates": {
      "lat": -0.15,
      "lon": 5.033333333333333
    }
  },
  {
    "country": "BR",
    "location": "AEA",
    "name": "Agrestina",
    "nameWoDiacritics": "Agrestina",
    "subdivision": "PE",
    "status": "AA",
    "function": [
      2
    ],
    "date": 2107,
    "coordinates": {
      "lat": -8.45,
      "lon": 3.9166666666666665
    }
  },
  {
    "country": "BR",
    "location": "AGX",
    "name": "Agricol‚ndia",
    "nameWoDiacritics": "Agricolandia",
    "subdivision": "PI",
    "status": "AA",
    "function": [
      2
    ],
    "date": 2107,
    "coordinates": {
      "lat": -5.783333333333333,
      "lon": 4.383333333333334
    }
  },
  {
    "country": "BR",
    "location": "ARO",
    "name": "Agrol‚ndia",
    "nameWoDiacritics": "Agrolandia",
    "subdivision": "SC",
    "status": "AA",
    "function": [
      2
    ],
    "date": 2107,
    "coordinates": {
      "lat": -27.4,
      "lon": 5.566666666666666
    }
  },
  {
    "country": "BR",
    "location": "AMC",
    "name": "AgronÙmica",
    "nameWoDiacritics": "Agronomica",
    "subdivision": "SC",
    "status": "AA",
    "function": [
      2
    ],
    "date": 2107,
    "coordinates": {
      "lat": -27.266666666666666,
      "lon": 5.566666666666666
    }
  },
  {
    "country": "BR",
    "location": "ANE",
    "name": "¡gua Azul do Norte",
    "nameWoDiacritics": "Agua Azul do Norte",
    "subdivision": "PA",
    "status": "AA",
    "function": [
      2
    ],
    "date": 2107,
    "coordinates": {
      "lat": -6.8,
      "lon": 5.033333333333333
    }
  },
  {
    "country": "BR",
    "location": "ABO",
    "name": "¡gua Boa",
    "nameWoDiacritics": "Agua Boa",
    "subdivision": "MG",
    "status": "AA",
    "function": [
      2
    ],
    "date": 2107,
    "coordinates": {
      "lat": -17.983333333333334,
      "lon": 4.366666666666666
    }
  },
  {
    "country": "BR",
    "location": "AGB",
    "name": "¡gua Boa",
    "nameWoDiacritics": "Agua Boa",
    "subdivision": "MT",
    "status": "AA",
    "function": [
      2,
      3
    ],
    "date": 2107,
    "coordinates": {
      "lat": -14.033333333333333,
      "lon": 5.333333333333333
    }
  },
  {
    "country": "BR",
    "location": "ABC",
    "name": "¡gua Branca",
    "nameWoDiacritics": "Agua Branca",
    "subdivision": "AL",
    "status": "AA",
    "function": [
      2
    ],
    "date": 2107,
    "coordinates": {
      "lat": -9.266666666666667,
      "lon": 4.25
    }
  },
  {
    "country": "BR",
    "location": "ABK",
    "name": "¡gua Branca",
    "nameWoDiacritics": "Agua Branca",
    "subdivision": "PI",
    "status": "AA",
    "function": [
      2
    ],
    "date": 2107,
    "coordinates": {
      "lat": -5.883333333333333,
      "lon": 4.383333333333334
    }
  },
  {
    "country": "BR",
    "location": "GBR",
    "name": "¡gua Branca",
    "nameWoDiacritics": "Agua Branca",
    "subdivision": "PB",
    "status": "AA",
    "function": [
      2
    ],
    "date": 2107,
    "coordinates": {
      "lat": -7.5,
      "lon": 4.216666666666667
    }
  },
  {
    "country": "BR",
    "location": "AGC",
    "name": "¡gua Clara",
    "nameWoDiacritics": "Agua Clara",
    "subdivision": "MS",
    "status": "AA",
    "function": [
      2
    ],
    "date": 2107,
    "coordinates": {
      "lat": -20.433333333333334,
      "lon": 5.416666666666667
    }
  },
  {
    "country": "BR",
    "location": "GWC",
    "name": "¡gua Comprida",
    "nameWoDiacritics": "Agua Comprida",
    "subdivision": "MG",
    "status": "AA",
    "function": [
      2
    ],
    "date": 2107,
    "coordinates": {
      "lat": -20.05,
      "lon": 5.333333333333333
    }
  },
  {
    "country": "BR",
    "location": "DOC",
    "name": "¡gua Doce",
    "nameWoDiacritics": "Agua Doce",
    "subdivision": "SC",
    "status": "AA",
    "function": [
      2
    ],
    "date": 2107,
    "coordinates": {
      "lat": -27,
      "lon": 5.216666666666667
    }
  },
  {
    "country": "BR",
    "location": "AGM",
    "name": "¡gua Doce do Maranh„o",
    "nameWoDiacritics": "Agua Doce do Maranhao",
    "subdivision": "MA",
    "status": "AA",
    "function": [
      2
    ],
    "date": 2107,
    "coordinates": {
      "lat": -2.8333333333333335,
      "lon": 4.333333333333333
    }
  },
  {
    "country": "BR",
    "location": "AON",
    "name": "¡gua Doce do Norte",
    "nameWoDiacritics": "Agua Doce do Norte",
    "subdivision": "ES",
    "status": "AA",
    "function": [
      2
    ],
    "date": 2107,
    "coordinates": {
      "lat": -18.533333333333335,
      "lon": 4.083333333333333
    }
  },
  {
    "country": "BR",
    "location": "AFA",
    "name": "¡gua Fria",
    "nameWoDiacritics": "Agua Fria",
    "subdivision": "BA",
    "status": "AA",
    "function": [
      2
    ],
    "date": 2107,
    "coordinates": {
      "lat": -11.866666666666667,
      "lon": 4.4
    }
  },
  {
    "country": "BR",
    "location": "AFG",
    "name": "¡gua Fria de Goi·s",
    "nameWoDiacritics": "Agua Fria de Goias",
    "subdivision": "GO",
    "status": "AA",
    "function": [
      2
    ],
    "date": 2107,
    "coordinates": {
      "lat": -14.983333333333333,
      "lon": 5.233333333333333
    }
  },
  {
    "country": "BR",
    "location": "GWL",
    "name": "¡gua Limpa",
    "nameWoDiacritics": "Agua Limpa",
    "subdivision": "GO",
    "status": "AA",
    "function": [
      2
    ],
    "date": 2107,
    "coordinates": {
      "lat": -18.066666666666666,
      "lon": 5.4
    }
  },
  {
    "country": "BR",
    "location": "AUV",
    "name": "¡gua Nova",
    "nameWoDiacritics": "Agua Nova",
    "subdivision": "RN",
    "status": "AA",
    "function": [
      2
    ],
    "date": 2107,
    "coordinates": {
      "lat": -6.2,
      "lon": 4.35
    }
  },
  {
    "country": "BR",
    "location": "APT",
    "name": "¡gua Preta",
    "nameWoDiacritics": "Agua Preta",
    "subdivision": "PE",
    "status": "AA",
    "function": [
      2
    ],
    "date": 2107,
    "coordinates": {
      "lat": -8.7,
      "lon": 3.8833333333333333
    }
  },
  {
    "country": "BR",
    "location": "GWS",
    "name": "¡gua Santa",
    "nameWoDiacritics": "Agua Santa",
    "subdivision": "RS",
    "status": "AA",
    "function": [
      2
    ],
    "date": 2107,
    "coordinates": {
      "lat": -28.166666666666668,
      "lon": 5.333333333333333
    }
  },
  {
    "country": "BR",
    "location": "AGU",
    "name": "AguaÌ",
    "nameWoDiacritics": "Aguai",
    "subdivision": "SP",
    "status": "AA",
    "function": [
      2
    ],
    "date": 2107,
    "coordinates": {
      "lat": -22.05,
      "lon": 5.083333333333333
    }
  },
  {
    "country": "BR",
    "location": "NIL",
    "name": "Aguanil",
    "nameWoDiacritics": "Aguanil",
    "subdivision": "MG",
    "status": "AA",
    "function": [
      2
    ],
    "date": 2107,
    "coordinates": {
      "lat": -20.933333333333334,
      "lon": 4.866666666666667
    }
  },
  {
    "country": "BR",
    "location": "ABS",
    "name": "¡guas Belas",
    "nameWoDiacritics": "Aguas Belas",
    "subdivision": "PE",
    "status": "AA",
    "function": [
      2
    ],
    "date": 2107,
    "coordinates": {
      "lat": -9.1,
      "lon": 4.166666666666667
    }
  },
  {
    "country": "BR",
    "location": "ASP",
    "name": "¡guas da Prata",
    "nameWoDiacritics": "Aguas da Prata",
    "subdivision": "SP",
    "status": "AA",
    "function": [
      2
    ],
    "date": 2107,
    "coordinates": {
      "lat": -21.933333333333334,
      "lon": 5.066666666666666
    }
  },
  {
    "country": "BR",
    "location": "ACC",
    "name": "¡guas de ChapecÛ",
    "nameWoDiacritics": "Aguas de Chapeco",
    "subdivision": "SC",
    "status": "AA",
    "function": [
      2
    ],
    "date": 2107,
    "coordinates": {
      "lat": -27.066666666666666,
      "lon": 5.416666666666667
    }
  },
  {
    "country": "BR",
    "location": "AGL",
    "name": "¡guas de LindÛia",
    "nameWoDiacritics": "Aguas de Lindoia",
    "subdivision": "SP",
    "status": "AA",
    "function": [
      2
    ],
    "date": 2107,
    "coordinates": {
      "lat": -22.466666666666665,
      "lon": 5.05
    }
  },
  {
    "country": "BR",
    "location": "ASB",
    "name": "¡guas de Santa B·rbara",
    "nameWoDiacritics": "Aguas de Santa Barbara",
    "subdivision": "SP",
    "status": "AA",
    "function": [
      2
    ],
    "date": 2107,
    "coordinates": {
      "lat": -22.866666666666667,
      "lon": 5.516666666666667
    }
  },
  {
    "country": "BR",
    "location": "ASO",
    "name": "¡guas de S„o Pedro",
    "nameWoDiacritics": "Aguas de Sao Pedro",
    "subdivision": "SP",
    "status": "AA",
    "function": [
      2
    ],
    "date": 2107,
    "coordinates": {
      "lat": -22.583333333333332,
      "lon": 5.25
    }
  },
  {
    "country": "BR",
    "location": "AFS",
    "name": "¡guas Formosas",
    "nameWoDiacritics": "Aguas Formosas",
    "subdivision": "MG",
    "status": "AA",
    "function": [
      2
    ],
    "date": 2107,
    "coordinates": {
      "lat": -17.066666666666666,
      "lon": 4.083333333333333
    }
  },
  {
    "country": "BR",
    "location": "AFI",
    "name": "¡guas Frias",
    "nameWoDiacritics": "Aguas Frias",
    "subdivision": "SC",
    "status": "AA",
    "function": [
      2
    ],
    "date": 2107,
    "coordinates": {
      "lat": -26.866666666666667,
      "lon": 5.416666666666667
    }
  },
  {
    "country": "BR",
    "location": "AGA",
    "name": "¡guas Lindas de Goi·s",
    "nameWoDiacritics": "Aguas Lindas de Goias",
    "subdivision": "GO",
    "status": "AA",
    "function": [
      2
    ],
    "date": 2107,
    "coordinates": {
      "lat": -15.733333333333333,
      "lon": 5.35
    }
  },
  {
    "country": "BR",
    "location": "AMR",
    "name": "¡guas Mornas",
    "nameWoDiacritics": "Aguas Mornas",
    "subdivision": "SC",
    "status": "AA",
    "function": [
      2
    ],
    "date": 2107,
    "coordinates": {
      "lat": -27.7,
      "lon": 5.416666666666667
    }
  },
  {
    "country": "BR",
    "location": "AVH",
    "name": "¡guas Vermelhas",
    "nameWoDiacritics": "Aguas Vermelhas",
    "subdivision": "MG",
    "status": "AA",
    "function": [
      2
    ],
    "date": 2107,
    "coordinates": {
      "lat": -15.733333333333333,
      "lon": 4.2
    }
  },
  {
    "country": "BR",
    "location": "AGO",
    "name": "Agudo",
    "nameWoDiacritics": "Agudo",
    "subdivision": "RS",
    "status": "AA",
    "function": [
      2
    ],
    "date": 2107,
    "coordinates": {
      "lat": -29.633333333333333,
      "lon": 5.516666666666667
    }
  },
  {
    "country": "BR",
    "location": "AGD",
    "name": "Agudos",
    "nameWoDiacritics": "Agudos",
    "subdivision": "SP",
    "status": "AA",
    "function": [
      2
    ],
    "date": 2107,
    "coordinates": {
      "lat": -22.466666666666665,
      "lon": 5.416666666666667
    }
  },
  {
    "country": "BR",
    "location": "AUL",
    "name": "Agudos do Sul",
    "nameWoDiacritics": "Agudos do Sul",
    "subdivision": "PR",
    "status": "AA",
    "function": [
      2
    ],
    "date": 2107,
    "coordinates": {
      "lat": -25.983333333333334,
      "lon": 5.533333333333333
    }
  },
  {
    "country": "BR",
    "location": "AWB",
    "name": "¡guia Branca",
    "nameWoDiacritics": "Aguia Branca",
    "subdivision": "ES",
    "status": "AA",
    "function": [
      2
    ],
    "date": 2107,
    "coordinates": {
      "lat": -18.983333333333334,
      "lon": 4.066666666666666
    }
  },
  {
    "country": "BR",
    "location": "AWI",
    "name": "Aguiar",
    "nameWoDiacritics": "Aguiar",
    "subdivision": "PB",
    "status": "AA",
    "function": [
      2
    ],
    "date": 2107,
    "coordinates": {
      "lat": -7.083333333333333,
      "lon": 4.35
    }
  },
  {
    "country": "BR",
    "location": "AIZ",
    "name": "AguiarnÛpolis",
    "nameWoDiacritics": "Aguiarnopolis",
    "subdivision": "TO",
    "status": "AA",
    "function": [
      2
    ],
    "date": 2107,
    "coordinates": {
      "lat": -6.533333333333333,
      "lon": 5.2
    }
  },
  {
    "country": "BR",
    "location": "AMS",
    "name": "AimorÈs",
    "nameWoDiacritics": "Aimores",
    "subdivision": "MG",
    "status": "AA",
    "function": [
      2
    ],
    "date": 2107,
    "coordinates": {
      "lat": -19.483333333333334,
      "lon": 4.166666666666667
    }
  },
  {
    "country": "BR",
    "location": "AQU",
    "name": "Aiquara",
    "nameWoDiacritics": "Aiquara",
    "subdivision": "BA",
    "status": "AA",
    "function": [
      2
    ],
    "date": 2107,
    "coordinates": {
      "lat": -14.116666666666667,
      "lon": 4.583333333333333
    }
  },
  {
    "country": "BR",
    "location": "AIB",
    "name": "Aiuaba",
    "nameWoDiacritics": "Aiuaba",
    "subdivision": "CE",
    "status": "AA",
    "function": [
      2
    ],
    "date": 2107,
    "coordinates": {
      "lat": -6.55,
      "lon": 4
    }
  },
  {
    "country": "BR",
    "location": "UOC",
    "name": "Aiuruoca",
    "nameWoDiacritics": "Aiuruoca",
    "subdivision": "MG",
    "status": "AA",
    "function": [
      2
    ],
    "date": 2107,
    "coordinates": {
      "lat": -21.966666666666665,
      "lon": 4.716666666666667
    }
  },
  {
    "country": "BR",
    "location": "AJC",
    "name": "Ajuricaba",
    "nameWoDiacritics": "Ajuricaba",
    "subdivision": "RS",
    "status": "AA",
    "function": [
      2
    ],
    "date": 2107,
    "coordinates": {
      "lat": -28.233333333333334,
      "lon": 5.566666666666666
    }
  },
  {
    "country": "BR",
    "location": "ALW",
    "name": "Alagoa",
    "nameWoDiacritics": "Alagoa",
    "subdivision": "MG",
    "status": "AA",
    "function": [
      2
    ],
    "date": 2107,
    "coordinates": {
      "lat": -22.166666666666668,
      "lon": 4.716666666666667
    }
  },
  {
    "country": "BR",
    "location": "AGE",
    "name": "Alagoa Grande",
    "nameWoDiacritics": "Alagoa Grande",
    "subdivision": "PB",
    "status": "AA",
    "function": [
      2
    ],
    "date": 2107,
    "coordinates": {
      "lat": -7.033333333333333,
      "lon": 3.8833333333333333
    }
  },
  {
    "country": "BR",
    "location": "ANV",
    "name": "Alagoa Nova",
    "nameWoDiacritics": "Alagoa Nova",
    "subdivision": "PB",
    "status": "AA",
    "function": [
      2
    ],
    "date": 2107,
    "coordinates": {
      "lat": -7.05,
      "lon": 3.9
    }
  },
  {
    "country": "BR",
    "location": "AAH",
    "name": "Alagoinha",
    "nameWoDiacritics": "Alagoinha",
    "subdivision": "PB",
    "status": "AA",
    "function": [
      2
    ],
    "date": 2107,
    "coordinates": {
      "lat": -6.933333333333334,
      "lon": 3.8833333333333333
    }
  },
  {
    "country": "BR",
    "location": "AHA",
    "name": "Alagoinha",
    "nameWoDiacritics": "Alagoinha",
    "subdivision": "PE",
    "status": "AA",
    "function": [
      2
    ],
    "date": 2107,
    "coordinates": {
      "lat": -8.45,
      "lon": 4.066666666666666
    }
  },
  {
    "country": "BR",
    "location": "AGP",
    "name": "Alagoinha do PiauÌ",
    "nameWoDiacritics": "Alagoinha do Piaui",
    "subdivision": "PI",
    "status": "AA",
    "function": [
      2
    ],
    "date": 2107,
    "coordinates": {
      "lat": -7,
      "lon": 4.083333333333333
    }
  },
  {
    "country": "BR",
    "location": "AGS",
    "name": "Alagoinhas",
    "nameWoDiacritics": "Alagoinhas",
    "subdivision": "BA",
    "status": "AA",
    "function": [
      2
    ],
    "date": 2107,
    "coordinates": {
      "lat": -12.133333333333333,
      "lon": 4.366666666666667
    }
  },
  {
    "country": "BR",
    "location": "ALY",
    "name": "Alambari",
    "nameWoDiacritics": "Alambari",
    "subdivision": "SP",
    "status": "AA",
    "function": [
      2
    ],
    "date": 2107,
    "coordinates": {
      "lat": -23.55,
      "lon": 5.25
    }
  },
  {
    "country": "BR",
    "location": "ALB",
    "name": "Albertina",
    "nameWoDiacritics": "Albertina",
    "subdivision": "MG",
    "status": "AA",
    "function": [
      2
    ],
    "date": 2107,
    "coordinates": {
      "lat": -22.183333333333334,
      "lon": 5.05
    }
  },
  {
    "country": "BR",
    "location": "ACT",
    "name": "Alc‚ntara",
    "nameWoDiacritics": "Alcantara",
    "subdivision": "MA",
    "status": "AA",
    "function": [
      0,
      2
    ],
    "date": 2107,
    "coordinates": {
      "lat": -2.4,
      "lon": 4.7
    }
  },
  {
    "country": "BR",
    "location": "ALZ",
    "name": "Alc‚ntaras",
    "nameWoDiacritics": "Alcantaras",
    "subdivision": "CE",
    "status": "AA",
    "function": [
      2
    ],
    "date": 2107,
    "coordinates": {
      "lat": -3.5833333333333335,
      "lon": 4.05
    }
  },
  {
    "country": "BR",
    "location": "AIW",
    "name": "Alcantil",
    "nameWoDiacritics": "Alcantil",
    "subdivision": "PB",
    "status": "AA",
    "function": [
      2
    ],
    "date": 2107,
    "coordinates": {
      "lat": -7.733333333333333,
      "lon": 4
    }
  },
  {
    "country": "BR",
    "location": "AYS",
    "name": "AlcinÛpolis",
    "nameWoDiacritics": "Alcinopolis",
    "subdivision": "MS",
    "status": "AA",
    "function": [
      2
    ],
    "date": 2107,
    "coordinates": {
      "lat": -18.316666666666666,
      "lon": 5.566666666666666
    }
  },
  {
    "country": "BR",
    "location": "ALC",
    "name": "AlcobaÁa",
    "nameWoDiacritics": "Alcobaca",
    "subdivision": "BA",
    "status": "AA",
    "function": [
      2
    ],
    "date": 2107,
    "coordinates": {
      "lat": -17.516666666666666,
      "lon": 4.516666666666667
    }
  },
  {
    "country": "BR",
    "location": "AAT",
    "name": "Aldeias Altas",
    "nameWoDiacritics": "Aldeias Altas",
    "subdivision": "MA",
    "status": "AA",
    "function": [
      2
    ],
    "date": 2107,
    "coordinates": {
      "lat": -4.616666666666667,
      "lon": 4.533333333333333
    }
  },
  {
    "country": "BR",
    "location": "LEC",
    "name": "Alecrim",
    "nameWoDiacritics": "Alecrim",
    "subdivision": "RS",
    "status": "AA",
    "function": [
      2
    ],
    "date": 2107,
    "coordinates": {
      "lat": -27.65,
      "lon": 5.733333333333333
    }
  },
  {
    "country": "BR",
    "location": "ALG",
    "name": "Alegre",
    "nameWoDiacritics": "Alegre",
    "subdivision": "ES",
    "status": "AA",
    "function": [
      2
    ],
    "date": 2107,
    "coordinates": {
      "lat": -20.75,
      "lon": 4.216666666666667
    }
  },
  {
    "country": "BR",
    "location": "ALE",
    "name": "Alegrete",
    "nameWoDiacritics": "Alegrete",
    "subdivision": "RS",
    "status": "AA",
    "function": [
      2
    ],
    "date": 2107,
    "coordinates": {
      "lat": -29.766666666666666,
      "lon": 5.9
    }
  },
  {
    "country": "BR",
    "location": "AEP",
    "name": "Alegrete do PiauÌ",
    "nameWoDiacritics": "Alegrete do Piaui",
    "subdivision": "PI",
    "status": "AA",
    "function": [
      2
    ],
    "date": 2107,
    "coordinates": {
      "lat": -7.233333333333333,
      "lon": 4.083333333333333
    }
  },
  {
    "country": "BR",
    "location": "EGR",
    "name": "Alegria",
    "nameWoDiacritics": "Alegria",
    "subdivision": "RS",
    "status": "AA",
    "function": [
      2
    ],
    "date": 2107,
    "coordinates": {
      "lat": -27.833333333333332,
      "lon": 5.666666666666667
    }
  },
  {
    "country": "BR",
    "location": "APB",
    "name": "AlÈm ParaÌba",
    "nameWoDiacritics": "Alem Paraiba",
    "subdivision": "MG",
    "status": "AA",
    "function": [
      2
    ],
    "date": 2107,
    "coordinates": {
      "lat": -21.866666666666667,
      "lon": 4.4
    }
  },
  {
    "country": "BR",
    "location": "ALT",
    "name": "Alenquer",
    "nameWoDiacritics": "Alenquer",
    "subdivision": "PA",
    "status": "AA",
    "function": [
      0,
      2,
      3
    ],
    "date": 2207,
    "coordinates": {
      "lat": -1.95,
      "lon": 5.733333333333333
    },
    "remarks": "Inland port"
  },
  {
    "country": "BR",
    "location": "AXA",
    "name": "Alexandria",
    "nameWoDiacritics": "Alexandria",
    "subdivision": "RN",
    "status": "AA",
    "function": [
      2
    ],
    "date": 2107,
    "coordinates": {
      "lat": -6.416666666666667,
      "lon": 4.333333333333333
    }
  },
  {
    "country": "BR",
    "location": "AXN",
    "name": "Alex‚nia",
    "nameWoDiacritics": "Alexania",
    "subdivision": "GO",
    "status": "AA",
    "function": [
      2
    ],
    "date": 2107,
    "coordinates": {
      "lat": -16.083333333333332,
      "lon": 5.383333333333333
    }
  },
  {
    "country": "BR",
    "location": "ALF",
    "name": "Alfenas",
    "nameWoDiacritics": "Alfenas",
    "subdivision": "MG",
    "status": "AA",
    "function": [
      2,
      3
    ],
    "date": 2107,
    "coordinates": {
      "lat": -21.416666666666668,
      "lon": 4.916666666666667
    }
  },
  {
    "country": "BR",
    "location": "AFE",
    "name": "Alfredo Chaves",
    "nameWoDiacritics": "Alfredo Chaves",
    "subdivision": "ES",
    "status": "AA",
    "function": [
      2
    ],
    "date": 2107,
    "coordinates": {
      "lat": -20.616666666666667,
      "lon": 4.066666666666666
    }
  },
  {
    "country": "BR",
    "location": "AFN",
    "name": "Alfredo Marcondes",
    "nameWoDiacritics": "Alfredo Marcondes",
    "subdivision": "SP",
    "status": "AA",
    "function": [
      2
    ],
    "date": 2107,
    "coordinates": {
      "lat": -21.95,
      "lon": 5.2
    }
  },
  {
    "country": "BR",
    "location": "AVE",
    "name": "Alfredo Vasconcelos",
    "nameWoDiacritics": "Alfredo Vasconcelos",
    "subdivision": "MG",
    "status": "AA",
    "function": [
      2
    ],
    "date": 2107,
    "coordinates": {
      "lat": -21.133333333333333,
      "lon": 4.566666666666666
    }
  },
  {
    "country": "BR",
    "location": "AWR",
    "name": "Alfredo Wagner",
    "nameWoDiacritics": "Alfredo Wagner",
    "subdivision": "SC",
    "status": "AC",
    "function": [
      2
    ],
    "date": 1501,
    "coordinates": {
      "lat": -27.7,
      "lon": 5.533333333333333
    }
  },
  {
    "country": "BR",
    "location": "AJR",
    "name": "Algod„o de JandaÌra",
    "nameWoDiacritics": "Algodao de Jandaira",
    "subdivision": "PB",
    "status": "AA",
    "function": [
      2
    ],
    "date": 2107,
    "coordinates": {
      "lat": -6.9,
      "lon": 4
    }
  },
  {
    "country": "BR",
    "location": "ALH",
    "name": "Alhandra",
    "nameWoDiacritics": "Alhandra",
    "subdivision": "PB",
    "status": "AA",
    "function": [
      2
    ],
    "date": 2107,
    "coordinates": {
      "lat": -7.416666666666667,
      "lon": 3.75
    }
  },
  {
    "country": "BR",
    "location": "AAC",
    "name": "AlianÁa",
    "nameWoDiacritics": "Alianca",
    "subdivision": "PE",
    "status": "AA",
    "function": [
      2
    ],
    "date": 2107,
    "coordinates": {
      "lat": -7.6,
      "lon": 3.85
    }
  },
  {
    "country": "BR",
    "location": "ATK",
    "name": "AlianÁa do Tocantins",
    "nameWoDiacritics": "Alianca do Tocantins",
    "subdivision": "TO",
    "status": "AA",
    "function": [
      2
    ],
    "date": 2107,
    "coordinates": {
      "lat": -11.3,
      "lon": 5.416666666666667
    }
  },
  {
    "country": "BR",
    "location": "ALD",
    "name": "Almadina",
    "nameWoDiacritics": "Almadina",
    "subdivision": "BA",
    "status": "AA",
    "function": [
      2
    ],
    "date": 2107,
    "coordinates": {
      "lat": -14.7,
      "lon": 4.55
    }
  },
  {
    "country": "BR",
    "location": "AAZ",
    "name": "Almas",
    "nameWoDiacritics": "Almas",
    "subdivision": "TO",
    "status": "AA",
    "function": [
      2
    ],
    "date": 2107,
    "coordinates": {
      "lat": -11.566666666666666,
      "lon": 5.183333333333334
    }
  },
  {
    "country": "BR",
    "location": "AMM",
    "name": "Almeirim",
    "nameWoDiacritics": "Almeirim",
    "subdivision": "PA",
    "status": "AA",
    "function": [
      0,
      2,
      3
    ],
    "date": 2207,
    "coordinates": {
      "lat": -1.5166666666666666,
      "lon": 5.383333333333334
    },
    "remarks": "Inland port"
  },
  {
    "country": "BR",
    "location": "ALA",
    "name": "Almenara",
    "nameWoDiacritics": "Almenara",
    "subdivision": "MG",
    "status": "AA",
    "function": [
      2,
      3
    ],
    "date": 2107,
    "coordinates": {
      "lat": -16.166666666666668,
      "lon": 4.066666666666666
    }
  },
  {
    "country": "BR",
    "location": "AAF",
    "name": "Almino Afonso",
    "nameWoDiacritics": "Almino Afonso",
    "subdivision": "RN",
    "status": "AA",
    "function": [
      2
    ],
    "date": 2107,
    "coordinates": {
      "lat": -6.15,
      "lon": 4.233333333333333
    }
  },
  {
    "country": "BR",
    "location": "ATE",
    "name": "Almirante TamandarÈ",
    "nameWoDiacritics": "Almirante Tamandare",
    "subdivision": "PR",
    "status": "AA",
    "function": [
      1,
      2
    ],
    "date": 2107,
    "coordinates": {
      "lat": -25.3,
      "lon": 5.516666666666667
    }
  },
  {
    "country": "BR",
    "location": "LTM",
    "name": "Almirante TamandarÈ do Sul",
    "nameWoDiacritics": "Almirante Tamandare do Sul",
    "subdivision": "RS",
    "status": "AA",
    "function": [
      2
    ],
    "date": 2107,
    "coordinates": {
      "lat": -28.1,
      "lon": 5.416666666666667
    }
  },
  {
    "country": "BR",
    "location": "ALO",
    "name": "Alo‚ndia",
    "nameWoDiacritics": "Aloandia",
    "subdivision": "GO",
    "status": "AA",
    "function": [
      2
    ],
    "date": 2107,
    "coordinates": {
      "lat": -17.716666666666665,
      "lon": 5.533333333333333
    }
  },
  {
    "country": "BR",
    "location": "AET",
    "name": "Alpercata",
    "nameWoDiacritics": "Alpercata",
    "subdivision": "MG",
    "status": "AA",
    "function": [
      2
    ],
    "date": 2107,
    "coordinates": {
      "lat": -18.983333333333334,
      "lon": 4.25
    }
  },
  {
    "country": "BR",
    "location": "AWP",
    "name": "Alpestre",
    "nameWoDiacritics": "Alpestre",
    "subdivision": "RS",
    "status": "AA",
    "function": [
      2
    ],
    "date": 2107,
    "coordinates": {
      "lat": -27.233333333333334,
      "lon": 5.5
    }
  },
  {
    "country": "BR",
    "location": "ALP",
    "name": "AlpinÛpolis",
    "nameWoDiacritics": "Alpinopolis",
    "subdivision": "MG",
    "status": "AA",
    "function": [
      2
    ],
    "date": 2107,
    "coordinates": {
      "lat": -20.85,
      "lon": 5.033333333333333
    }
  },
  {
    "country": "BR",
    "location": "AFL",
    "name": "Alta Floresta",
    "nameWoDiacritics": "Alta Floresta",
    "subdivision": "MT",
    "status": "AA",
    "function": [
      2,
      3
    ],
    "date": 2107,
    "coordinates": {
      "lat": -9.866666666666667,
      "lon": 6
    }
  },
  {
    "country": "BR",
    "location": "AFO",
    "name": "Alta Floresta D'Oeste",
    "nameWoDiacritics": "Alta Floresta D'Oeste",
    "subdivision": "RO",
    "status": "AA",
    "function": [
      2
    ],
    "date": 2107,
    "coordinates": {
      "lat": -11.933333333333334,
      "lon": 6.25
    }
  },
  {
    "country": "BR",
    "location": "LTR",
    "name": "Altair",
    "nameWoDiacritics": "Altair",
    "subdivision": "SP",
    "status": "AA",
    "function": [
      2
    ],
    "date": 2107,
    "coordinates": {
      "lat": -20.516666666666666,
      "lon": 5.5
    }
  },
  {
    "country": "BR",
    "location": "ATM",
    "name": "Altamira",
    "nameWoDiacritics": "Altamira",
    "subdivision": "PA",
    "status": "AA",
    "function": [
      0,
      2,
      3
    ],
    "date": 2207,
    "coordinates": {
      "lat": -3.2,
      "lon": 5.35
    },
    "remarks": "Inland port"
  },
  {
    "country": "BR",
    "location": "AOM",
    "name": "Altamira do Maranh„o",
    "nameWoDiacritics": "Altamira do Maranhao",
    "subdivision": "MA",
    "status": "AA",
    "function": [
      2
    ],
    "date": 2107,
    "coordinates": {
      "lat": -4.15,
      "lon": 4.866666666666667
    }
  },
  {
    "country": "BR",
    "location": "LTP",
    "name": "Altamira do Paran·",
    "nameWoDiacritics": "Altamira do Parana",
    "subdivision": "PR",
    "status": "AA",
    "function": [
      2
    ],
    "date": 2107,
    "coordinates": {
      "lat": -24.8,
      "lon": 5.4
    }
  },
  {
    "country": "BR",
    "location": "ATX",
    "name": "Altaneira",
    "nameWoDiacritics": "Altaneira",
    "subdivision": "CE",
    "status": "AA",
    "function": [
      2
    ],
    "date": 2107,
    "coordinates": {
      "lat": -6.983333333333333,
      "lon": 4.566666666666666
    }
  },
  {
    "country": "BR",
    "location": "ATS",
    "name": "Alterosa",
    "nameWoDiacritics": "Alterosa",
    "subdivision": "MG",
    "status": "AA",
    "function": [
      2
    ],
    "date": 2107,
    "coordinates": {
      "lat": -21.25,
      "lon": 5
    }
  },
  {
    "country": "BR",
    "location": "AIO",
    "name": "Altinho",
    "nameWoDiacritics": "Altinho",
    "subdivision": "PE",
    "status": "AA",
    "function": [
      2
    ],
    "date": 2107,
    "coordinates": {
      "lat": -8.483333333333333,
      "lon": 4
    }
  },
  {
    "country": "BR",
    "location": "APO",
    "name": "AltinÛpolis",
    "nameWoDiacritics": "Altinopolis",
    "subdivision": "SP",
    "status": "AA",
    "function": [
      2
    ],
    "date": 2107,
    "coordinates": {
      "lat": -21.016666666666666,
      "lon": 5.2
    }
  },
  {
    "country": "BR",
    "location": "AAL",
    "name": "Alto Alegre",
    "nameWoDiacritics": "Alto Alegre",
    "subdivision": "RR",
    "status": "AA",
    "function": [
      2
    ],
    "date": 2107,
    "coordinates": {
      "lat": 2.9833333333333334,
      "lon": 6.183333333333334
    }
  },
  {
    "country": "BR",
    "location": "AWE",
    "name": "Alto Alegre",
    "nameWoDiacritics": "Alto Alegre",
    "subdivision": "SP",
    "status": "AA",
    "function": [
      2
    ],
    "date": 2107,
    "coordinates": {
      "lat": -21.566666666666666,
      "lon": 5
    }
  },
  {
    "country": "BR",
    "location": "LTE",
    "name": "Alto Alegre",
    "nameWoDiacritics": "Alto Alegre",
    "subdivision": "RS",
    "status": "AA",
    "function": [
      2
    ],
    "date": 2107,
    "coordinates": {
      "lat": -28.766666666666666,
      "lon": 5.416666666666667
    }
  },
  {
    "country": "BR",
    "location": "AAM",
    "name": "Alto Alegre do Maranh„o",
    "nameWoDiacritics": "Alto Alegre do Maranhao",
    "subdivision": "MA",
    "status": "AA",
    "function": [
      2
    ],
    "date": 2107,
    "coordinates": {
      "lat": -4.2,
      "lon": 4.7
    }
  },
  {
    "country": "BR",
    "location": "AAP",
    "name": "Alto Alegre do PindarÈ",
    "nameWoDiacritics": "Alto Alegre do Pindare",
    "subdivision": "MA",
    "status": "AA",
    "function": [
      2
    ],
    "date": 2107,
    "coordinates": {
      "lat": -3.65,
      "lon": 4.916666666666667
    }
  },
  {
    "country": "BR",
    "location": "ADC",
    "name": "Alto Alegre dos Parecis",
    "nameWoDiacritics": "Alto Alegre dos Parecis",
    "subdivision": "RO",
    "status": "AA",
    "function": [
      2
    ],
    "date": 2107,
    "coordinates": {
      "lat": -12.116666666666667,
      "lon": 6.25
    }
  },
  {
    "country": "BR",
    "location": "ATG",
    "name": "Alto Araguaia",
    "nameWoDiacritics": "Alto Araguaia",
    "subdivision": "MT",
    "status": "AA",
    "function": [
      1,
      2
    ],
    "date": 2107,
    "coordinates": {
      "lat": -17.3,
      "lon": 5.516666666666667
    }
  },
  {
    "country": "BR",
    "location": "AVT",
    "name": "Alto Bela Vista",
    "nameWoDiacritics": "Alto Bela Vista",
    "subdivision": "SC",
    "status": "AA",
    "function": [
      2
    ],
    "date": 2107,
    "coordinates": {
      "lat": -27.416666666666668,
      "lon": 5.25
    }
  },
  {
    "country": "BR",
    "location": "ABV",
    "name": "Alto Boa Vista",
    "nameWoDiacritics": "Alto Boa Vista",
    "subdivision": "MT",
    "status": "AA",
    "function": [
      2
    ],
    "date": 2107,
    "iata": "SWM",
    "coordinates": {
      "lat": -11.666666666666666,
      "lon": 5.2
    }
  },
  {
    "country": "BR",
    "location": "AKO",
    "name": "Alto CaparaÛ",
    "nameWoDiacritics": "Alto Caparao",
    "subdivision": "MG",
    "status": "AA",
    "function": [
      2
    ],
    "date": 2107,
    "coordinates": {
      "lat": -20.433333333333334,
      "lon": 4.25
    }
  },
  {
    "country": "BR",
    "location": "ALR",
    "name": "Alto do Rodrigues",
    "nameWoDiacritics": "Alto do Rodrigues",
    "subdivision": "RN",
    "status": "AA",
    "function": [
      2
    ],
    "date": 2107,
    "coordinates": {
      "lat": -5.283333333333333,
      "lon": 4.066666666666666
    }
  },
  {
    "country": "BR",
    "location": "AFZ",
    "name": "Alto Feliz",
    "nameWoDiacritics": "Alto Feliz",
    "subdivision": "RS",
    "status": "AA",
    "function": [
      2
    ],
    "date": 2107,
    "coordinates": {
      "lat": -29.383333333333333,
      "lon": 5.183333333333334
    }
  },
  {
    "country": "BR",
    "location": "AGR",
    "name": "Alto GarÁas",
    "nameWoDiacritics": "Alto Garcas",
    "subdivision": "MT",
    "status": "AA",
    "function": [
      2
    ],
    "date": 2107,
    "coordinates": {
      "lat": -16.933333333333334,
      "lon": 5.55
    }
  },
  {
    "country": "BR",
    "location": "AHZ",
    "name": "Alto Horizonte",
    "nameWoDiacritics": "Alto Horizonte",
    "subdivision": "GO",
    "status": "AA",
    "function": [
      2
    ],
    "date": 2107,
    "coordinates": {
      "lat": -14.183333333333334,
      "lon": 5.516666666666667
    }
  },
  {
    "country": "BR",
    "location": "AJT",
    "name": "Alto Jequitib·",
    "nameWoDiacritics": "Alto Jequitiba",
    "subdivision": "MG",
    "status": "AA",
    "function": [
      2
    ],
    "date": 2107,
    "coordinates": {
      "lat": -20.416666666666668,
      "lon": 4.25
    }
  },
  {
    "country": "BR",
    "location": "ALN",
    "name": "Alto Long·",
    "nameWoDiacritics": "Alto Longa",
    "subdivision": "PI",
    "status": "AA",
    "function": [
      2
    ],
    "date": 2107,
    "coordinates": {
      "lat": -5.25,
      "lon": 4.35
    }
  },
  {
    "country": "BR",
    "location": "AOP",
    "name": "Alto Paraguai",
    "nameWoDiacritics": "Alto Paraguai",
    "subdivision": "MT",
    "status": "AA",
    "function": [
      2
    ],
    "date": 2107,
    "coordinates": {
      "lat": -14.5,
      "lon": 6.033333333333333
    }
  },
  {
    "country": "BR",
    "location": "ATP",
    "name": "Alto ParaÌso",
    "nameWoDiacritics": "Alto Paraiso",
    "subdivision": "RO",
    "status": "AA",
    "function": [
      2
    ],
    "date": 2107,
    "coordinates": {
      "lat": -9.716666666666667,
      "lon": 6.516666666666667
    }
  },
  {
    "country": "BR",
    "location": "AWO",
    "name": "Alto ParaÌso",
    "nameWoDiacritics": "Alto Paraiso",
    "subdivision": "PR",
    "status": "AA",
    "function": [
      2
    ],
    "date": 2107,
    "coordinates": {
      "lat": -23.5,
      "lon": 5.566666666666666
    }
  },
  {
    "country": "BR",
    "location": "APG",
    "name": "Alto ParaÌso de Goi·s",
    "nameWoDiacritics": "Alto Paraiso de Goias",
    "subdivision": "GO",
    "status": "AA",
    "function": [
      2,
      3
    ],
    "date": 2107,
    "coordinates": {
      "lat": -14.133333333333333,
      "lon": 5.216666666666667
    }
  },
  {
    "country": "BR",
    "location": "APN",
    "name": "Alto Paran·",
    "nameWoDiacritics": "Alto Parana",
    "subdivision": "PR",
    "status": "AA",
    "function": [
      2
    ],
    "date": 2107,
    "coordinates": {
      "lat": -23.116666666666667,
      "lon": 5.35
    }
  },
  {
    "country": "BR",
    "location": "APY",
    "name": "Alto ParnaÌba",
    "nameWoDiacritics": "Alto Parnaiba",
    "subdivision": "MA",
    "status": "AA",
    "function": [
      2
    ],
    "date": 2107,
    "coordinates": {
      "lat": -9.1,
      "lon": 4.916666666666667
    }
  },
  {
    "country": "BR",
    "location": "AQI",
    "name": "Alto Piquiri",
    "nameWoDiacritics": "Alto Piquiri",
    "subdivision": "PR",
    "status": "AA",
    "function": [
      2
    ],
    "date": 2107,
    "coordinates": {
      "lat": -24.016666666666666,
      "lon": 5.533333333333333
    }
  },
  {
    "country": "BR",
    "location": "ADE",
    "name": "Alto Rio Doce",
    "nameWoDiacritics": "Alto Rio Doce",
    "subdivision": "MG",
    "status": "AA",
    "function": [
      2
    ],
    "date": 2107,
    "coordinates": {
      "lat": -21.016666666666666,
      "lon": 4.533333333333333
    }
  },
  {
    "country": "BR",
    "location": "ATV",
    "name": "Alto Rio Novo",
    "nameWoDiacritics": "Alto Rio Novo",
    "subdivision": "ES",
    "status": "AA",
    "function": [
      2
    ],
    "date": 2107,
    "coordinates": {
      "lat": -19.05,
      "lon": 4.166666666666667
    }
  },
  {
    "country": "BR",
    "location": "AST",
    "name": "Alto Santo",
    "nameWoDiacritics": "Alto Santo",
    "subdivision": "CE",
    "status": "AA",
    "function": [
      2
    ],
    "date": 2107,
    "coordinates": {
      "lat": -5.516666666666667,
      "lon": 4.35
    }
  },
  {
    "country": "BR",
    "location": "ATQ",
    "name": "Alto Taquari",
    "nameWoDiacritics": "Alto Taquari",
    "subdivision": "MT",
    "status": "AA",
    "function": [
      1,
      2
    ],
    "date": 2107,
    "coordinates": {
      "lat": -17.833333333333332,
      "lon": 5.516666666666667
    }
  },
  {
    "country": "BR",
    "location": "ATO",
    "name": "AltÙnia",
    "nameWoDiacritics": "Altonia",
    "subdivision": "PR",
    "status": "AA",
    "function": [
      2
    ],
    "date": 2107,
    "coordinates": {
      "lat": -23.866666666666667,
      "lon": 5.583333333333333
    }
  },
  {
    "country": "BR",
    "location": "ALS",
    "name": "Altos",
    "nameWoDiacritics": "Altos",
    "subdivision": "PI",
    "status": "AC",
    "function": [
      2
    ],
    "date": 1501,
    "coordinates": {
      "lat": -5.033333333333333,
      "lon": 4.366666666666666
    }
  },
  {
    "country": "BR",
    "location": "AMO",
    "name": "AlumÌnio",
    "nameWoDiacritics": "Aluminio",
    "subdivision": "SP",
    "status": "AA",
    "function": [
      2
    ],
    "date": 2107,
    "coordinates": {
      "lat": -23.533333333333335,
      "lon": 5.183333333333334
    }
  },
  {
    "country": "BR",
    "location": "AVS",
    "name": "Alvar„es",
    "nameWoDiacritics": "Alvaraes",
    "subdivision": "AM",
    "status": "AA",
    "function": [
      2
    ],
    "date": 2107,
    "coordinates": {
      "lat": -3.2,
      "lon": 6.733333333333333
    }
  },
  {
    "country": "BR",
    "location": "AVG",
    "name": "Alvarenga",
    "nameWoDiacritics": "Alvarenga",
    "subdivision": "MG",
    "status": "AA",
    "function": [
      2
    ],
    "date": 2107,
    "coordinates": {
      "lat": -19.4,
      "lon": 4.233333333333333
    }
  },
  {
    "country": "BR",
    "location": "AVF",
    "name": "¡lvares Florence",
    "nameWoDiacritics": "Alvares Florence",
    "subdivision": "SP",
    "status": "AA",
    "function": [
      2
    ],
    "date": 2107,
    "coordinates": {
      "lat": -20.316666666666666,
      "lon": 5.583333333333333
    }
  },
  {
    "country": "BR",
    "location": "AMH",
    "name": "¡lvares Machado",
    "nameWoDiacritics": "Alvares Machado",
    "subdivision": "SP",
    "status": "AA",
    "function": [
      2
    ],
    "date": 2107,
    "coordinates": {
      "lat": -22.066666666666666,
      "lon": 5.2
    }
  },
  {
    "country": "BR",
    "location": "ACV",
    "name": "¡lvaro de Carvalho",
    "nameWoDiacritics": "Alvaro de Carvalho",
    "subdivision": "SP",
    "status": "AA",
    "function": [
      2
    ],
    "date": 2107,
    "coordinates": {
      "lat": -22.066666666666666,
      "lon": 5.566666666666666
    }
  },
  {
    "country": "BR",
    "location": "AVD",
    "name": "Alvinl‚ndia",
    "nameWoDiacritics": "Alvinlandia",
    "subdivision": "SP",
    "status": "AA",
    "function": [
      2
    ],
    "date": 2107,
    "coordinates": {
      "lat": -22.433333333333334,
      "lon": 5.566666666666666
    }
  },
  {
    "country": "BR",
    "location": "AVI",
    "name": "AlvinÛpolis",
    "nameWoDiacritics": "Alvinopolis",
    "subdivision": "MG",
    "status": "AA",
    "function": [
      2
    ],
    "date": 2107,
    "coordinates": {
      "lat": -20.1,
      "lon": 4.5
    }
  },
  {
    "country": "BR",
    "location": "ALV",
    "name": "Alvorada",
    "nameWoDiacritics": "Alvorada",
    "subdivision": "TO",
    "status": "AA",
    "function": [
      2
    ],
    "date": 2107,
    "coordinates": {
      "lat": -12.466666666666667,
      "lon": 5.5
    }
  },
  {
    "country": "BR",
    "location": "AVR",
    "name": "Alvorada",
    "nameWoDiacritics": "Alvorada",
    "subdivision": "RS",
    "status": "AA",
    "function": [
      2
    ],
    "date": 2107,
    "coordinates": {
      "lat": -29.983333333333334,
      "lon": 5.166666666666667
    }
  },
  {
    "country": "BR",
    "location": "AVM",
    "name": "Alvorada de Minas",
    "nameWoDiacritics": "Alvorada de Minas",
    "subdivision": "MG",
    "status": "AA",
    "function": [
      2
    ],
    "date": 2107,
    "coordinates": {
      "lat": -18.733333333333334,
      "lon": 4.533333333333333
    }
  },
  {
    "country": "BR",
    "location": "AGG",
    "name": "Alvorada do GurguÈia",
    "nameWoDiacritics": "Alvorada do Gurgueia",
    "subdivision": "PI",
    "status": "AA",
    "function": [
      2
    ],
    "date": 2107,
    "coordinates": {
      "lat": -8.433333333333334,
      "lon": 4.583333333333333
    }
  },
  {
    "country": "BR",
    "location": "AVN",
    "name": "Alvorada do Norte",
    "nameWoDiacritics": "Alvorada do Norte",
    "subdivision": "GO",
    "status": "AA",
    "function": [
      2
    ],
    "date": 2107,
    "coordinates": {
      "lat": -14.466666666666667,
      "lon": 5.05
    }
  },
  {
    "country": "BR",
    "location": "ASL",
    "name": "Alvorada do Sul",
    "nameWoDiacritics": "Alvorada do Sul",
    "subdivision": "PR",
    "status": "AA",
    "function": [
      2
    ],
    "date": 2107,
    "coordinates": {
      "lat": -22.766666666666666,
      "lon": 5.183333333333334
    }
  },
  {
    "country": "BR",
    "location": "AOE",
    "name": "Alvorada D'Oeste",
    "nameWoDiacritics": "Alvorada D'Oeste",
    "subdivision": "RO",
    "status": "AA",
    "function": [
      2
    ],
    "date": 2107,
    "coordinates": {
      "lat": -11.333333333333334,
      "lon": 6.35
    }
  },
  {
    "country": "BR",
    "location": "AJI",
    "name": "Amajari",
    "nameWoDiacritics": "Amajari",
    "subdivision": "RR",
    "status": "AA",
    "function": [
      2
    ],
    "date": 2107,
    "coordinates": {
      "lat": 3.65,
      "lon": 6.2
    }
  },
  {
    "country": "BR",
    "location": "AMB",
    "name": "Amambai",
    "nameWoDiacritics": "Amambai",
    "subdivision": "MS",
    "status": "AA",
    "function": [
      2
    ],
    "date": 2107,
    "coordinates": {
      "lat": -23.1,
      "lon": 5.85
    }
  },
  {
    "country": "BR",
    "location": "AMX",
    "name": "Amap·",
    "nameWoDiacritics": "Amapa",
    "subdivision": "AP",
    "status": "AA",
    "function": [
      2
    ],
    "date": 2107,
    "coordinates": {
      "lat": 2.05,
      "lon": 5.066666666666666
    }
  },
  {
    "country": "BR",
    "location": "AHO",
    "name": "Amap· do Maranh„o",
    "nameWoDiacritics": "Amapa do Maranhao",
    "subdivision": "MA",
    "status": "AA",
    "function": [
      2
    ],
    "date": 2107,
    "coordinates": {
      "lat": -1.6666666666666665,
      "lon": 5
    }
  },
  {
    "country": "BR",
    "location": "AAQ",
    "name": "Amapor„",
    "nameWoDiacritics": "Amapora",
    "subdivision": "PR",
    "status": "AA",
    "function": [
      2
    ],
    "date": 2107,
    "coordinates": {
      "lat": -23.083333333333332,
      "lon": 5.4
    }
  },
  {
    "country": "BR",
    "location": "ARJ",
    "name": "Amaraji",
    "nameWoDiacritics": "Amaraji",
    "subdivision": "PE",
    "status": "AA",
    "function": [
      2
    ],
    "date": 2107,
    "coordinates": {
      "lat": -8.366666666666667,
      "lon": 3.8666666666666667
    }
  },
  {
    "country": "BR",
    "location": "AFR",
    "name": "Amaral Ferrador",
    "nameWoDiacritics": "Amaral Ferrador",
    "subdivision": "RS",
    "status": "AA",
    "function": [
      2
    ],
    "date": 2107,
    "coordinates": {
      "lat": -30.866666666666667,
      "lon": 5.35
    }
  },
  {
    "country": "BR",
    "location": "AML",
    "name": "Amaralina",
    "nameWoDiacritics": "Amaralina",
    "subdivision": "GO",
    "status": "AA",
    "function": [
      2
    ],
    "date": 2107,
    "coordinates": {
      "lat": -13.916666666666666,
      "lon": 5.516666666666667
    }
  },
  {
    "country": "BR",
    "location": "AMN",
    "name": "Amarante",
    "nameWoDiacritics": "Amarante",
    "subdivision": "PI",
    "status": "AA",
    "function": [
      2
    ],
    "date": 2107,
    "coordinates": {
      "lat": -6.233333333333333,
      "lon": 4.416666666666667
    }
  },
  {
    "country": "BR",
    "location": "ADM",
    "name": "Amarante do Maranh„o",
    "nameWoDiacritics": "Amarante do Maranhao",
    "subdivision": "MA",
    "status": "AA",
    "function": [
      2
    ],
    "date": 2107,
    "coordinates": {
      "lat": -5.55,
      "lon": 5.066666666666666
    }
  },
  {
    "country": "BR",
    "location": "ASA",
    "name": "Amargosa",
    "nameWoDiacritics": "Amargosa",
    "subdivision": "BA",
    "status": "AA",
    "function": [
      2
    ],
    "date": 2107,
    "coordinates": {
      "lat": -13.033333333333333,
      "lon": 4.55
    }
  },
  {
    "country": "BR",
    "location": "AMU",
    "name": "Amatur·",
    "nameWoDiacritics": "Amatura",
    "subdivision": "AM",
    "status": "AA",
    "function": [
      2
    ],
    "date": 2107,
    "coordinates": {
      "lat": -3.3666666666666667,
      "lon": 7.35
    }
  },
  {
    "country": "BR",
    "location": "AEG",
    "name": "AmÈlia Rodrigues",
    "nameWoDiacritics": "Amelia Rodrigues",
    "subdivision": "BA",
    "status": "AA",
    "function": [
      2
    ],
    "date": 1907,
    "coordinates": {
      "lat": -12.4,
      "lon": 4.4
    }
  },
  {
    "country": "BR",
    "location": "ADD",
    "name": "AmÈrica Dourada",
    "nameWoDiacritics": "America Dourada",
    "subdivision": "BA",
    "status": "AA",
    "function": [
      2
    ],
    "date": 2107,
    "coordinates": {
      "lat": -11.433333333333334,
      "lon": 4.2
    }
  },
  {
    "country": "BR",
    "location": "AME",
    "name": "Americana",
    "nameWoDiacritics": "Americana",
    "subdivision": "SP",
    "status": "AA",
    "function": [
      2,
      3
    ],
    "date": 2107,
    "coordinates": {
      "lat": -22.733333333333334,
      "lon": 5.183333333333334
    }
  },
  {
    "country": "BR",
    "location": "ADB",
    "name": "Americano do Brasil",
    "nameWoDiacritics": "Americano do Brasil",
    "subdivision": "GO",
    "status": "AC",
    "function": [
      2
    ],
    "date": 1501,
    "coordinates": {
      "lat": -16.25,
      "lon": 5.583333333333333
    }
  },
  {
    "country": "BR",
    "location": "ABI",
    "name": "AmÈrico Brasiliense",
    "nameWoDiacritics": "Americo Brasiliense",
    "subdivision": "SP",
    "status": "AA",
    "function": [
      2
    ],
    "date": 2107,
    "coordinates": {
      "lat": -21.716666666666665,
      "lon": 5.333333333333333
    }
  },
  {
    "country": "BR",
    "location": "ACP",
    "name": "AmÈrico de Campos",
    "nameWoDiacritics": "Americo de Campos",
    "subdivision": "SP",
    "status": "AA",
    "function": [
      2
    ],
    "date": 2107,
    "coordinates": {
      "lat": -20.283333333333335,
      "lon": 5.566666666666666
    }
  },
  {
    "country": "BR",
    "location": "ADS",
    "name": "Ametista do Sul",
    "nameWoDiacritics": "Ametista do Sul",
    "subdivision": "RS",
    "status": "AC",
    "function": [
      2
    ],
    "date": 1501,
    "coordinates": {
      "lat": -27.35,
      "lon": 5.516666666666667
    }
  },
  {
    "country": "BR",
    "location": "ADA",
    "name": "Amontada",
    "nameWoDiacritics": "Amontada",
    "subdivision": "CE",
    "status": "AA",
    "function": [
      2
    ],
    "date": 2107,
    "coordinates": {
      "lat": -3.35,
      "lon": 4.566666666666666
    }
  },
  {
    "country": "BR",
    "location": "AMQ",
    "name": "AmorinÛpolis",
    "nameWoDiacritics": "Amorinopolis",
    "subdivision": "GO",
    "status": "AA",
    "function": [
      2
    ],
    "date": 2107,
    "coordinates": {
      "lat": -16.616666666666667,
      "lon": 5.166666666666667
    }
  },
  {
    "country": "BR",
    "location": "AMP",
    "name": "Amparo",
    "nameWoDiacritics": "Amparo",
    "subdivision": "SP",
    "status": "AA",
    "function": [
      2
    ],
    "date": 2107,
    "coordinates": {
      "lat": -22.683333333333334,
      "lon": 5.066666666666666
    }
  },
  {
    "country": "BR",
    "location": "AMW",
    "name": "Amparo",
    "nameWoDiacritics": "Amparo",
    "subdivision": "PB",
    "status": "AA",
    "function": [
      2
    ],
    "date": 2107,
    "coordinates": {
      "lat": -7.566666666666666,
      "lon": 4.166666666666667
    }
  },
  {
    "country": "BR",
    "location": "ASF",
    "name": "Amparo de S„o Francisco",
    "nameWoDiacritics": "Amparo de Sao Francisco",
    "subdivision": "SE",
    "status": "AA",
    "function": [
      2
    ],
    "date": 2107,
    "coordinates": {
      "lat": -10.133333333333333,
      "lon": 4.083333333333333
    }
  },
  {
    "country": "BR",
    "location": "AMD",
    "name": "Amparo do Serra",
    "nameWoDiacritics": "Amparo do Serra",
    "subdivision": "MG",
    "status": "AA",
    "function": [
      2
    ],
    "date": 2107,
    "coordinates": {
      "lat": -20.5,
      "lon": 4.4
    }
  },
  {
    "country": "BR",
    "location": "APE",
    "name": "AmpÈre",
    "nameWoDiacritics": "Ampere",
    "subdivision": "PR",
    "status": "AA",
    "function": [
      2
    ],
    "date": 2107,
    "coordinates": {
      "lat": -25.916666666666668,
      "lon": 5.533333333333333
    }
  },
  {
    "country": "BR",
    "location": "AAD",
    "name": "Anadia",
    "nameWoDiacritics": "Anadia",
    "subdivision": "AL",
    "status": "AA",
    "function": [
      2
    ],
    "date": 2107,
    "coordinates": {
      "lat": -9.683333333333334,
      "lon": 4.016666666666667
    }
  },
  {
    "country": "BR",
    "location": "AAG",
    "name": "AnagÈ",
    "nameWoDiacritics": "Anage",
    "subdivision": "BA",
    "status": "AA",
    "function": [
      2
    ],
    "date": 2107,
    "coordinates": {
      "lat": -14.6,
      "lon": 4.166666666666667
    }
  },
  {
    "country": "BR",
    "location": "AHY",
    "name": "Anahy",
    "nameWoDiacritics": "Anahy",
    "subdivision": "PR",
    "status": "AA",
    "function": [
      2
    ],
    "date": 2107,
    "coordinates": {
      "lat": -24.633333333333333,
      "lon": 5.5
    }
  },
  {
    "country": "BR",
    "location": "AJS",
    "name": "Anaj·s",
    "nameWoDiacritics": "Anajas",
    "subdivision": "PA",
    "status": "AA",
    "function": [
      2
    ],
    "date": 2107,
    "coordinates": {
      "lat": -0.9833333333333333,
      "lon": 5.583333333333333
    }
  },
  {
    "country": "BR",
    "location": "AJA",
    "name": "Anajatuba",
    "nameWoDiacritics": "Anajatuba",
    "subdivision": "MA",
    "status": "AA",
    "function": [
      2
    ],
    "date": 2107,
    "coordinates": {
      "lat": -3.25,
      "lon": 4.716666666666667
    }
  },
  {
    "country": "BR",
    "location": "ANI",
    "name": "Anal‚ndia",
    "nameWoDiacritics": "Analandia",
    "subdivision": "SP",
    "status": "AA",
    "function": [
      2
    ],
    "date": 2107,
    "coordinates": {
      "lat": -22.116666666666667,
      "lon": 5.216666666666667
    }
  },
  {
    "country": "BR",
    "location": "ANM",
    "name": "Anam„",
    "nameWoDiacritics": "Anama",
    "subdivision": "AM",
    "status": "AA",
    "function": [
      2
    ],
    "date": 2107,
    "coordinates": {
      "lat": -3.5666666666666664,
      "lon": 6.2
    }
  },
  {
    "country": "BR",
    "location": "ANN",
    "name": "Anan·s",
    "nameWoDiacritics": "Ananas",
    "subdivision": "TO",
    "status": "AA",
    "function": [
      2
    ],
    "date": 2107,
    "coordinates": {
      "lat": -6.35,
      "lon": 5.333333333333333
    }
  },
  {
    "country": "BR",
    "location": "ANA",
    "name": "Ananindeua",
    "nameWoDiacritics": "Ananindeua",
    "subdivision": "PA",
    "status": "AA",
    "function": [
      0,
      2
    ],
    "date": 2207,
    "coordinates": {
      "lat": -1.3666666666666667,
      "lon": 5.366666666666667
    },
    "remarks": "Inland port"
  },
  {
    "country": "BR",
    "location": "APS",
    "name": "An·polis",
    "nameWoDiacritics": "Anapolis",
    "subdivision": "GO",
    "status": "AA",
    "function": [
      1,
      2,
      3,
      5
    ],
    "date": 2107,
    "coordinates": {
      "lat": -16.316666666666666,
      "lon": 5.416666666666667
    }
  },
  {
    "country": "BR",
    "location": "ANU",
    "name": "Anapu",
    "nameWoDiacritics": "Anapu",
    "subdivision": "PA",
    "status": "AA",
    "function": [
      2
    ],
    "date": 2107,
    "coordinates": {
      "lat": -3.466666666666667,
      "lon": 5.183333333333334
    }
  },
  {
    "country": "BR",
    "location": "ANP",
    "name": "Anapurus",
    "nameWoDiacritics": "Anapurus",
    "subdivision": "MA",
    "status": "AA",
    "function": [
      2
    ],
    "date": 2107,
    "coordinates": {
      "lat": -3.6666666666666665,
      "lon": 4.5
    }
  },
  {
    "country": "BR",
    "location": "ATC",
    "name": "Anast·cio",
    "nameWoDiacritics": "Anastacio",
    "subdivision": "MS",
    "status": "AA",
    "function": [
      2
    ],
    "date": 2107,
    "coordinates": {
      "lat": -20.466666666666665,
      "lon": 5.9
    }
  },
  {
    "country": "BR",
    "location": "AUD",
    "name": "Anauril‚ndia",
    "nameWoDiacritics": "Anaurilandia",
    "subdivision": "MS",
    "status": "AA",
    "function": [
      2
    ],
    "date": 2107,
    "coordinates": {
      "lat": -22.166666666666668,
      "lon": 5.4
    }
  },
  {
    "country": "BR",
    "location": "ACH",
    "name": "Anchieta",
    "nameWoDiacritics": "Anchieta",
    "subdivision": "SC",
    "status": "AA",
    "function": [
      2
    ],
    "date": 2107,
    "coordinates": {
      "lat": -26.533333333333335,
      "lon": 5.516666666666667
    },
    "remarks": "Cf BR POU"
  },
  {
    "country": "BR",
    "location": "AHI",
    "name": "Anchieta",
    "nameWoDiacritics": "Anchieta",
    "subdivision": "ES",
    "status": "AA",
    "function": [
      2
    ],
    "date": 2107,
    "coordinates": {
      "lat": -20.8,
      "lon": 4.05
    }
  },
  {
    "country": "BR",
    "location": "ARI",
    "name": "AndaraÌ",
    "nameWoDiacritics": "Andarai",
    "subdivision": "BA",
    "status": "AA",
    "function": [
      2
    ],
    "date": 2107,
    "coordinates": {
      "lat": -12.8,
      "lon": 4.183333333333334
    }
  },
  {
    "country": "BR",
    "location": "AIA",
    "name": "Andir·",
    "nameWoDiacritics": "Andira",
    "subdivision": "PR",
    "status": "AA",
    "function": [
      2,
      3
    ],
    "date": 2107,
    "coordinates": {
      "lat": -23.05,
      "lon": 5.016666666666667
    }
  },
  {
    "country": "BR",
    "location": "ADH",
    "name": "Andorinha",
    "nameWoDiacritics": "Andorinha",
    "subdivision": "BA",
    "status": "AA",
    "function": [
      2
    ],
    "date": 2107,
    "coordinates": {
      "lat": -10.333333333333334,
      "lon": 4.566666666666666
    }
  },
  {
    "country": "BR",
    "location": "ARD",
    "name": "Andradas",
    "nameWoDiacritics": "Andradas",
    "subdivision": "MG",
    "status": "AA",
    "function": [
      2
    ],
    "date": 2107,
    "coordinates": {
      "lat": -22.066666666666666,
      "lon": 5.05
    }
  },
  {
    "country": "BR",
    "location": "AAN",
    "name": "Andradina",
    "nameWoDiacritics": "Andradina",
    "subdivision": "SP",
    "status": "AA",
    "function": [
      2,
      3
    ],
    "date": 2107,
    "coordinates": {
      "lat": -20.9,
      "lon": 5.2
    }
  },
  {
    "country": "BR",
    "location": "AEH",
    "name": "AndrÈ da Rocha",
    "nameWoDiacritics": "Andre da Rocha",
    "subdivision": "RS",
    "status": "AA",
    "function": [
      2
    ],
    "date": 2107,
    "coordinates": {
      "lat": -28.616666666666667,
      "lon": 5.216666666666667
    }
  },
  {
    "country": "BR",
    "location": "AND",
    "name": "Andrel‚ndia",
    "nameWoDiacritics": "Andrelandia",
    "subdivision": "MG",
    "status": "AA",
    "function": [
      2
    ],
    "date": 2107,
    "coordinates": {
      "lat": -21.733333333333334,
      "lon": 4.683333333333334
    }
  },
  {
    "country": "BR",
    "location": "AGT",
    "name": "Angatuba",
    "nameWoDiacritics": "Angatuba",
    "subdivision": "SP",
    "status": "AA",
    "function": [
      2
    ],
    "date": 2107,
    "coordinates": {
      "lat": -23.483333333333334,
      "lon": 5.366666666666667
    }
  },
  {
    "country": "BR",
    "location": "ANL",
    "name": "Angel‚ndia",
    "nameWoDiacritics": "Angelandia",
    "subdivision": "MG",
    "status": "AC",
    "function": [
      2
    ],
    "date": 1501,
    "coordinates": {
      "lat": -17.716666666666665,
      "lon": 4.35
    }
  },
  {
    "country": "BR",
    "location": "AIC",
    "name": "AngÈlica",
    "nameWoDiacritics": "Angelica",
    "subdivision": "MS",
    "status": "AA",
    "function": [
      2
    ],
    "date": 2107,
    "coordinates": {
      "lat": -22.15,
      "lon": 5.566666666666666
    }
  },
  {
    "country": "BR",
    "location": "AEM",
    "name": "Angelim",
    "nameWoDiacritics": "Angelim",
    "subdivision": "PE",
    "status": "AA",
    "function": [
      2
    ],
    "date": 2107,
    "coordinates": {
      "lat": -8.883333333333333,
      "lon": 4.016666666666667
    }
  },
  {
    "country": "BR",
    "location": "NGE",
    "name": "Angelina",
    "nameWoDiacritics": "Angelina",
    "subdivision": "SC",
    "status": "AA",
    "function": [
      2
    ],
    "date": 2107,
    "coordinates": {
      "lat": -27.566666666666666,
      "lon": 5.416666666666667
    }
  },
  {
    "country": "BR",
    "location": "AIL",
    "name": "Angical",
    "nameWoDiacritics": "Angical",
    "subdivision": "BA",
    "status": "AA",
    "function": [
      2
    ],
    "date": 2107,
    "coordinates": {
      "lat": -12,
      "lon": 4.733333333333333
    }
  },
  {
    "country": "BR",
    "location": "ALU",
    "name": "Angical do PiauÌ",
    "nameWoDiacritics": "Angical do Piaui",
    "subdivision": "PI",
    "status": "AA",
    "function": [
      2
    ],
    "date": 2107,
    "coordinates": {
      "lat": -6.083333333333333,
      "lon": 4.4
    }
  },
  {
    "country": "BR",
    "location": "AGK",
    "name": "Angico",
    "nameWoDiacritics": "Angico",
    "subdivision": "TO",
    "status": "AA",
    "function": [
      2
    ],
    "date": 2107,
    "coordinates": {
      "lat": -6.383333333333334,
      "lon": 5.25
    }
  },
  {
    "country": "BR",
    "location": "ANZ",
    "name": "Angicos",
    "nameWoDiacritics": "Angicos",
    "subdivision": "RN",
    "status": "AA",
    "function": [
      2
    ],
    "date": 2107,
    "coordinates": {
      "lat": -5.65,
      "lon": 4.05
    }
  },
  {
    "country": "BR",
    "location": "ADR",
    "name": "Angra dos Reis",
    "nameWoDiacritics": "Angra dos Reis",
    "subdivision": "RJ",
    "status": "AA",
    "function": [
      0,
      2,
      3,
      5
    ],
    "date": 2107,
    "coordinates": {
      "lat": -23,
      "lon": 4.683333333333334
    }
  },
  {
    "country": "BR",
    "location": "AWA",
    "name": "Anguera",
    "nameWoDiacritics": "Anguera",
    "subdivision": "BA",
    "status": "AA",
    "function": [
      2
    ],
    "date": 2107,
    "coordinates": {
      "lat": -12.133333333333333,
      "lon": 4.516666666666667
    }
  },
  {
    "country": "BR",
    "location": "ULO",
    "name": "¬ngulo",
    "nameWoDiacritics": "Angulo",
    "subdivision": "PR",
    "status": "AA",
    "function": [
      2
    ],
    "date": 2107,
    "coordinates": {
      "lat": -23.183333333333334,
      "lon": 5.25
    }
  },
  {
    "country": "BR",
    "location": "AHR",
    "name": "Anhanguera",
    "nameWoDiacritics": "Anhanguera",
    "subdivision": "GO",
    "status": "AA",
    "function": [
      2
    ],
    "date": 2107,
    "coordinates": {
      "lat": -18.333333333333332,
      "lon": 5.35
    }
  },
  {
    "country": "BR",
    "location": "ANH",
    "name": "Anhembi",
    "nameWoDiacritics": "Anhembi",
    "subdivision": "SP",
    "status": "AA",
    "function": [
      0,
      2
    ],
    "date": 2207,
    "coordinates": {
      "lat": -22.783333333333335,
      "lon": 5.333333333333333
    },
    "remarks": "Inland port"
  },
  {
    "country": "BR",
    "location": "AHS",
    "name": "Anhumas",
    "nameWoDiacritics": "Anhumas",
    "subdivision": "SP",
    "status": "AA",
    "function": [
      2
    ],
    "date": 2107,
    "coordinates": {
      "lat": -22.283333333333335,
      "lon": 5.2
    }
  },
  {
    "country": "BR",
    "location": "ANC",
    "name": "Anicuns",
    "nameWoDiacritics": "Anicuns",
    "subdivision": "GO",
    "status": "AA",
    "function": [
      2
    ],
    "date": 2107,
    "coordinates": {
      "lat": -16.45,
      "lon": 5.583333333333333
    }
  },
  {
    "country": "BR",
    "location": "ASU",
    "name": "AnÌsio de Abreu",
    "nameWoDiacritics": "Anisio de Abreu",
    "subdivision": "PI",
    "status": "AA",
    "function": [
      2
    ],
    "date": 2107,
    "coordinates": {
      "lat": -9.166666666666666,
      "lon": 4.5
    }
  },
  {
    "country": "BR",
    "location": "AIG",
    "name": "Anita Garibaldi",
    "nameWoDiacritics": "Anita Garibaldi",
    "subdivision": "SC",
    "status": "AA",
    "function": [
      2
    ],
    "date": 2107,
    "coordinates": {
      "lat": -27.683333333333334,
      "lon": 5.166666666666667
    }
  },
  {
    "country": "BR",
    "location": "ANY",
    "name": "Anit·polis",
    "nameWoDiacritics": "Anitapolis",
    "subdivision": "SC",
    "status": "AA",
    "function": [
      2
    ],
    "date": 2107,
    "coordinates": {
      "lat": -27.9,
      "lon": 5.5
    }
  },
  {
    "country": "BR",
    "location": "ANR",
    "name": "Anori",
    "nameWoDiacritics": "Anori",
    "subdivision": "AM",
    "status": "AA",
    "function": [
      2
    ],
    "date": 2107,
    "coordinates": {
      "lat": -3.7333333333333334,
      "lon": 6.216666666666667
    }
  },
  {
    "country": "BR",
    "location": "GOR",
    "name": "Anta Gorda",
    "nameWoDiacritics": "Anta Gorda",
    "subdivision": "RS",
    "status": "AA",
    "function": [
      2
    ],
    "date": 2107,
    "coordinates": {
      "lat": -28.966666666666665,
      "lon": 5.333333333333333
    }
  },
  {
    "country": "BR",
    "location": "ATZ",
    "name": "Antas",
    "nameWoDiacritics": "Antas",
    "subdivision": "BA",
    "status": "AA",
    "function": [
      2
    ],
    "date": 2107,
    "coordinates": {
      "lat": -10.4,
      "lon": 4.35
    }
  },
  {
    "country": "BR",
    "location": "ANT",
    "name": "Antonina",
    "nameWoDiacritics": "Antonina",
    "subdivision": "PR",
    "status": "AA",
    "function": [
      0,
      2
    ],
    "date": 2107,
    "coordinates": {
      "lat": -25.416666666666668,
      "lon": 5.4
    }
  },
  {
    "country": "BR",
    "location": "AIT",
    "name": "Antonina do Norte",
    "nameWoDiacritics": "Antonina do Norte",
    "subdivision": "CE",
    "status": "AA",
    "function": [
      2
    ],
    "date": 2107,
    "coordinates": {
      "lat": -6.766666666666667,
      "lon": 4.583333333333333
    }
  },
  {
    "country": "BR",
    "location": "EID",
    "name": "AntÙnio Almeida",
    "nameWoDiacritics": "Antonio Almeida",
    "subdivision": "PI",
    "status": "AA",
    "function": [
      2
    ],
    "date": 2107,
    "coordinates": {
      "lat": -7.216666666666667,
      "lon": 4.683333333333334
    }
  },
  {
    "country": "BR",
    "location": "AOC",
    "name": "AntÙnio Cardoso",
    "nameWoDiacritics": "Antonio Cardoso",
    "subdivision": "BA",
    "status": "AA",
    "function": [
      2
    ],
    "date": 2107,
    "coordinates": {
      "lat": -12.433333333333334,
      "lon": 4.5
    }
  },
  {
    "country": "BR",
    "location": "ACS",
    "name": "AntÙnio Carlos",
    "nameWoDiacritics": "Antonio Carlos",
    "subdivision": "SC",
    "status": "AA",
    "function": [
      2
    ],
    "date": 2107,
    "coordinates": {
      "lat": -27.5,
      "lon": 5.4
    }
  },
  {
    "country": "BR",
    "location": "AOO",
    "name": "AntÙnio Carlos",
    "nameWoDiacritics": "Antonio Carlos",
    "subdivision": "MG",
    "status": "AA",
    "function": [
      2
    ],
    "date": 2107,
    "coordinates": {
      "lat": -21.316666666666666,
      "lon": 4.566666666666666
    }
  },
  {
    "country": "BR",
    "location": "AID",
    "name": "AntÙnio Dias",
    "nameWoDiacritics": "Antonio Dias",
    "subdivision": "MG",
    "status": "AA",
    "function": [
      2
    ],
    "date": 2107,
    "coordinates": {
      "lat": -19.65,
      "lon": 4.416666666666667
    }
  },
  {
    "country": "BR",
    "location": "AGV",
    "name": "AntÙnio GonÁalves",
    "nameWoDiacritics": "Antonio Goncalves",
    "subdivision": "BA",
    "status": "AA",
    "function": [
      2
    ],
    "date": 2107,
    "coordinates": {
      "lat": -10.566666666666666,
      "lon": 4.016666666666667
    }
  },
  {
    "country": "BR",
    "location": "AJO",
    "name": "AntÙnio Jo„o",
    "nameWoDiacritics": "Antonio Joao",
    "subdivision": "MS",
    "status": "AA",
    "function": [
      2
    ],
    "date": 2107,
    "coordinates": {
      "lat": -22.183333333333334,
      "lon": 5.916666666666667
    }
  },
  {
    "country": "BR",
    "location": "TON",
    "name": "AntÙnio Martins",
    "nameWoDiacritics": "Antonio Martins",
    "subdivision": "RN",
    "status": "AA",
    "function": [
      2
    ],
    "date": 2107,
    "coordinates": {
      "lat": -6.2,
      "lon": 4.25
    }
  },
  {
    "country": "BR",
    "location": "AOT",
    "name": "AntÙnio Olinto",
    "nameWoDiacritics": "Antonio Olinto",
    "subdivision": "PR",
    "status": "AA",
    "function": [
      2
    ],
    "date": 2107,
    "coordinates": {
      "lat": -25.983333333333334,
      "lon": 5.016666666666667
    }
  },
  {
    "country": "BR",
    "location": "APR",
    "name": "AntÙnio Prado",
    "nameWoDiacritics": "Antonio Prado",
    "subdivision": "RS",
    "status": "AA",
    "function": [
      2
    ],
    "date": 2101,
    "coordinates": {
      "lat": -28.85,
      "lon": 5.183333333333334
    }
  },
  {
    "country": "BR",
    "location": "APM",
    "name": "AntÙnio Prado de Minas",
    "nameWoDiacritics": "Antonio Prado de Minas",
    "subdivision": "MG",
    "status": "AA",
    "function": [
      2
    ],
    "date": 2107,
    "coordinates": {
      "lat": -21.016666666666666,
      "lon": 4.333333333333333
    }
  },
  {
    "country": "BR",
    "location": "AEC",
    "name": "Aparecida",
    "nameWoDiacritics": "Aparecida",
    "subdivision": "PB",
    "status": "AA",
    "function": [
      2
    ],
    "date": 2107,
    "coordinates": {
      "lat": -6.783333333333333,
      "lon": 4.333333333333333
    }
  },
  {
    "country": "BR",
    "location": "API",
    "name": "Aparecida",
    "nameWoDiacritics": "Aparecida",
    "subdivision": "SP",
    "status": "AA",
    "function": [
      2
    ],
    "date": 2107,
    "coordinates": {
      "lat": -22.833333333333332,
      "lon": 4.85
    }
  },
  {
    "country": "BR",
    "location": "AGI",
    "name": "Aparecida de Goi‚nia",
    "nameWoDiacritics": "Aparecida de Goiania",
    "subdivision": "GO",
    "status": "AA",
    "function": [
      2
    ],
    "date": 2107,
    "coordinates": {
      "lat": -16.816666666666666,
      "lon": 5.516666666666667
    }
  },
  {
    "country": "BR",
    "location": "AYE",
    "name": "Aparecida do Rio Doce",
    "nameWoDiacritics": "Aparecida do Rio Doce",
    "subdivision": "GO",
    "status": "AA",
    "function": [
      2
    ],
    "date": 2107,
    "coordinates": {
      "lat": -18.283333333333335,
      "lon": 5.166666666666667
    }
  },
  {
    "country": "BR",
    "location": "DRN",
    "name": "Aparecida do Rio Negro",
    "nameWoDiacritics": "Aparecida do Rio Negro",
    "subdivision": "TO",
    "status": "AA",
    "function": [
      2
    ],
    "date": 2107,
    "coordinates": {
      "lat": -9.95,
      "lon": 5.25
    }
  },
  {
    "country": "BR",
    "location": "ATD",
    "name": "Aparecida do Taboado",
    "nameWoDiacritics": "Aparecida do Taboado",
    "subdivision": "MS",
    "status": "AA",
    "function": [
      1,
      2
    ],
    "date": 2107,
    "coordinates": {
      "lat": -20.083333333333332,
      "lon": 5.166666666666667
    }
  },
  {
    "country": "BR",
    "location": "ADW",
    "name": "Aparecida d'Oeste",
    "nameWoDiacritics": "Aparecida d'Oeste",
    "subdivision": "SP",
    "status": "AA",
    "function": [
      2
    ],
    "date": 2107,
    "coordinates": {
      "lat": -20.45,
      "lon": 5.083333333333333
    }
  },
  {
    "country": "BR",
    "location": "AEE",
    "name": "AperibÈ",
    "nameWoDiacritics": "Aperibe",
    "subdivision": "RJ",
    "status": "AA",
    "function": [
      2
    ],
    "date": 2107,
    "coordinates": {
      "lat": -21.616666666666667,
      "lon": 4.333333333333333
    }
  },
  {
    "country": "BR",
    "location": "APK",
    "name": "Apiac·",
    "nameWoDiacritics": "Apiaca",
    "subdivision": "ES",
    "status": "AA",
    "function": [
      2
    ],
    "date": 2107,
    "coordinates": {
      "lat": -21.15,
      "lon": 4.216666666666667
    }
  },
  {
    "country": "BR",
    "location": "APC",
    "name": "Apiac·s",
    "nameWoDiacritics": "Apiacas",
    "subdivision": "MT",
    "status": "AA",
    "function": [
      2
    ],
    "date": 2107,
    "coordinates": {
      "lat": -9.55,
      "lon": 6.2
    }
  },
  {
    "country": "BR",
    "location": "APA",
    "name": "ApiaÌ",
    "nameWoDiacritics": "Apiai",
    "subdivision": "SP",
    "status": "AA",
    "function": [
      1,
      2
    ],
    "date": 2107,
    "coordinates": {
      "lat": -24.5,
      "lon": 5.416666666666667
    }
  },
  {
    "country": "BR",
    "location": "AUU",
    "name": "Apicum-AÁu",
    "nameWoDiacritics": "Apicum-Acu",
    "subdivision": "MA",
    "status": "AA",
    "function": [
      2
    ],
    "date": 2107,
    "coordinates": {
      "lat": -1.5166666666666666,
      "lon": 4.833333333333333
    }
  },
  {
    "country": "BR",
    "location": "AUA",
    "name": "Api˙na",
    "nameWoDiacritics": "Apiuna",
    "subdivision": "SC",
    "status": "AA",
    "function": [
      2
    ],
    "date": 2107,
    "coordinates": {
      "lat": -27.033333333333335,
      "lon": 5.533333333333333
    }
  },
  {
    "country": "BR",
    "location": "APD",
    "name": "Apodi",
    "nameWoDiacritics": "Apodi",
    "subdivision": "RN",
    "status": "AA",
    "function": [
      2
    ],
    "date": 2107,
    "coordinates": {
      "lat": -5.65,
      "lon": 4.233333333333333
    }
  },
  {
    "country": "BR",
    "location": "ORA",
    "name": "Apor·",
    "nameWoDiacritics": "Apora",
    "subdivision": "BA",
    "status": "AA",
    "function": [
      2
    ],
    "date": 2107,
    "coordinates": {
      "lat": -11.65,
      "lon": 4.333333333333333
    }
  },
  {
    "country": "BR",
    "location": "AEX",
    "name": "AporÈ",
    "nameWoDiacritics": "Apore",
    "subdivision": "GO",
    "status": "AA",
    "function": [
      2
    ],
    "date": 2107,
    "coordinates": {
      "lat": -18.95,
      "lon": 5.25
    }
  },
  {
    "country": "BR",
    "location": "AUM",
    "name": "Apuarema",
    "nameWoDiacritics": "Apuarema",
    "subdivision": "BA",
    "status": "AA",
    "function": [
      2
    ],
    "date": 2107,
    "coordinates": {
      "lat": -13.85,
      "lon": 4.566666666666666
    }
  },
  {
    "country": "BR",
    "location": "APU",
    "name": "Apucarana",
    "nameWoDiacritics": "Apucarana",
    "subdivision": "PR",
    "status": "AA",
    "function": [
      2,
      3
    ],
    "date": 2107,
    "coordinates": {
      "lat": -23.55,
      "lon": 5.2
    }
  },
  {
    "country": "BR",
    "location": "AUI",
    "name": "ApuÌ",
    "nameWoDiacritics": "Apui",
    "subdivision": "AM",
    "status": "AA",
    "function": [
      2
    ],
    "date": 2107,
    "coordinates": {
      "lat": -7.183333333333334,
      "lon": 6.583333333333333
    }
  },
  {
    "country": "BR",
    "location": "AUE",
    "name": "ApuiarÈs",
    "nameWoDiacritics": "Apuiares",
    "subdivision": "CE",
    "status": "AA",
    "function": [
      2
    ],
    "date": 2107,
    "coordinates": {
      "lat": -3.9333333333333336,
      "lon": 4.533333333333333
    }
  },
  {
    "country": "BR",
    "location": "AQB",
    "name": "Aquidab„",
    "nameWoDiacritics": "Aquidaba",
    "subdivision": "SE",
    "status": "AA",
    "function": [
      2
    ],
    "date": 2107,
    "coordinates": {
      "lat": -10.283333333333333,
      "lon": 4.166666666666667
    }
  },
  {
    "country": "BR",
    "location": "AQD",
    "name": "Aquidauana",
    "nameWoDiacritics": "Aquidauana",
    "subdivision": "MS",
    "status": "AA",
    "function": [
      2
    ],
    "date": 2107,
    "coordinates": {
      "lat": -20.466666666666665,
      "lon": 5.9
    }
  },
  {
    "country": "BR",
    "location": "AQR",
    "name": "Aquiraz",
    "nameWoDiacritics": "Aquiraz",
    "subdivision": "CE",
    "status": "AA",
    "function": [
      2
    ],
    "date": 2107,
    "coordinates": {
      "lat": -3.9,
      "lon": 4.366666666666667
    }
  },
  {
    "country": "BR",
    "location": "AUT",
    "name": "Arabut„",
    "nameWoDiacritics": "Arabuta",
    "subdivision": "SC",
    "status": "AA",
    "function": [
      2
    ],
    "date": 2107,
    "coordinates": {
      "lat": -27.15,
      "lon": 5.333333333333333
    }
  },
  {
    "country": "BR",
    "location": "ACG",
    "name": "AraÁagi",
    "nameWoDiacritics": "Aracagi",
    "subdivision": "PB",
    "status": "AA",
    "function": [
      2
    ],
    "date": 2107,
    "coordinates": {
      "lat": -6.85,
      "lon": 3.8666666666666667
    }
  },
  {
    "country": "BR",
    "location": "ARX",
    "name": "AraÁaÌ",
    "nameWoDiacritics": "Aracai",
    "subdivision": "MG",
    "status": "AA",
    "function": [
      2
    ],
    "date": 2107,
    "coordinates": {
      "lat": -19.2,
      "lon": 4.683333333333334
    }
  },
  {
    "country": "BR",
    "location": "AJU",
    "name": "Aracaju",
    "nameWoDiacritics": "Aracaju",
    "subdivision": "SE",
    "status": "AA",
    "function": [
      0,
      2,
      3
    ],
    "date": 2107,
    "coordinates": {
      "lat": -10.9,
      "lon": 4.166666666666667
    }
  },
  {
    "country": "BR",
    "location": "ARM",
    "name": "AraÁariguama",
    "nameWoDiacritics": "Aracariguama",
    "subdivision": "SP",
    "status": "AA",
    "function": [
      2
    ],
    "date": 2107,
    "coordinates": {
      "lat": -23.416666666666668,
      "lon": 5.166666666666667
    }
  },
  {
    "country": "BR",
    "location": "ARK",
    "name": "AraÁ·s",
    "nameWoDiacritics": "Aracas",
    "subdivision": "BA",
    "status": "AA",
    "function": [
      2
    ],
    "date": 2107,
    "coordinates": {
      "lat": -12.2,
      "lon": 4.35
    }
  },
  {
    "country": "BR",
    "location": "ART",
    "name": "Aracati",
    "nameWoDiacritics": "Aracati",
    "subdivision": "CE",
    "status": "AA",
    "function": [
      2,
      3
    ],
    "date": 2107,
    "coordinates": {
      "lat": -4.566666666666666,
      "lon": 4.233333333333333
    }
  },
  {
    "country": "BR",
    "location": "ATU",
    "name": "Aracatu",
    "nameWoDiacritics": "Aracatu",
    "subdivision": "BA",
    "status": "AA",
    "function": [
      2
    ],
    "date": 2107,
    "coordinates": {
      "lat": -14.416666666666666,
      "lon": 4.2
    }
  },
  {
    "country": "BR",
    "location": "ARU",
    "name": "AraÁatuba",
    "nameWoDiacritics": "Aracatuba",
    "subdivision": "SP",
    "status": "AA",
    "function": [
      0,
      2,
      3
    ],
    "date": 2207,
    "coordinates": {
      "lat": -21.2,
      "lon": 5.033333333333333
    },
    "remarks": "Inland port"
  },
  {
    "country": "BR",
    "location": "ACI",
    "name": "Araci",
    "nameWoDiacritics": "Araci",
    "subdivision": "BA",
    "status": "AA",
    "function": [
      2
    ],
    "date": 2107,
    "coordinates": {
      "lat": -11.333333333333334,
      "lon": 4.416666666666667
    }
  },
  {
    "country": "BR",
    "location": "AYT",
    "name": "Aracitaba",
    "nameWoDiacritics": "Aracitaba",
    "subdivision": "MG",
    "status": "AA",
    "function": [
      2
    ],
    "date": 2107,
    "coordinates": {
      "lat": -21.333333333333332,
      "lon": 4.533333333333333
    }
  },
  {
    "country": "BR",
    "location": "AAB",
    "name": "Aracoiaba",
    "nameWoDiacritics": "Aracoiaba",
    "subdivision": "CE",
    "status": "AA",
    "function": [
      2
    ],
    "date": 2107,
    "coordinates": {
      "lat": -4.366666666666666,
      "lon": 4.4
    }
  },
  {
    "country": "BR",
    "location": "AOB",
    "name": "AraÁoiaba",
    "nameWoDiacritics": "Aracoiaba",
    "subdivision": "PE",
    "status": "AA",
    "function": [
      2
    ],
    "date": 2107,
    "coordinates": {
      "lat": -7.783333333333333,
      "lon": 3.8333333333333335
    }
  },
  {
    "country": "BR",
    "location": "ASR",
    "name": "AraÁoiaba da Serra",
    "nameWoDiacritics": "Aracoiaba da Serra",
    "subdivision": "SP",
    "status": "AA",
    "function": [
      2
    ],
    "date": 2107,
    "coordinates": {
      "lat": -23.5,
      "lon": 5.216666666666667
    }
  },
  {
    "country": "BR",
    "location": "ACZ",
    "name": "Aracruz",
    "nameWoDiacritics": "Aracruz",
    "subdivision": "ES",
    "status": "AA",
    "function": [
      2
    ],
    "date": 2107,
    "coordinates": {
      "lat": -19.816666666666666,
      "lon": 4.016666666666667
    },
    "remarks": "Cf BR RCH"
  },
  {
    "country": "BR",
    "location": "AUX",
    "name": "AraÁu",
    "nameWoDiacritics": "Aracu",
    "subdivision": "GO",
    "status": "AA",
    "function": [
      2
    ],
    "date": 2107,
    "coordinates": {
      "lat": -16.35,
      "lon": 5.566666666666666
    }
  },
  {
    "country": "BR",
    "location": "AAA",
    "name": "AraÁuaÌ",
    "nameWoDiacritics": "Aracuai",
    "subdivision": "MG",
    "status": "AA",
    "function": [
      2,
      3
    ],
    "date": 2107,
    "coordinates": {
      "lat": -16.85,
      "lon": 4.333333333333333
    }
  },
  {
    "country": "BR",
    "location": "ARS",
    "name": "AragarÁas",
    "nameWoDiacritics": "Aragarcas",
    "subdivision": "GO",
    "status": "AA",
    "function": [
      2
    ],
    "date": 2107,
    "coordinates": {
      "lat": -15.883333333333333,
      "lon": 5.35
    }
  },
  {
    "country": "BR",
    "location": "AGY",
    "name": "Aragoi‚nia",
    "nameWoDiacritics": "Aragoiania",
    "subdivision": "GO",
    "status": "AA",
    "function": [
      2
    ],
    "date": 2107,
    "coordinates": {
      "lat": -16.9,
      "lon": 5.533333333333333
    }
  },
  {
    "country": "BR",
    "location": "RGM",
    "name": "Aragominas",
    "nameWoDiacritics": "Aragominas",
    "subdivision": "TO",
    "status": "AA",
    "function": [
      2
    ],
    "date": 2107,
    "coordinates": {
      "lat": -7.15,
      "lon": 5.383333333333333
    }
  },
  {
    "country": "BR",
    "location": "RGC",
    "name": "Araguacema",
    "nameWoDiacritics": "Araguacema",
    "subdivision": "TO",
    "status": "AA",
    "function": [
      0,
      2
    ],
    "date": 2207,
    "coordinates": {
      "lat": -8.8,
      "lon": 5.55
    },
    "remarks": "Inland port"
  },
  {
    "country": "BR",
    "location": "ACW",
    "name": "AraguaÁu",
    "nameWoDiacritics": "Araguacu",
    "subdivision": "TO",
    "status": "AA",
    "function": [
      2
    ],
    "date": 2107,
    "coordinates": {
      "lat": -12.916666666666666,
      "lon": 5.566666666666666
    }
  },
  {
    "country": "BR",
    "location": "RGW",
    "name": "Araguaiana",
    "nameWoDiacritics": "Araguaiana",
    "subdivision": "MT",
    "status": "AA",
    "function": [
      2
    ],
    "date": 2107,
    "coordinates": {
      "lat": -15.716666666666667,
      "lon": 5.25
    }
  },
  {
    "country": "BR",
    "location": "AIN",
    "name": "AraguaÌna",
    "nameWoDiacritics": "Araguaina",
    "subdivision": "TO",
    "status": "AA",
    "function": [
      2,
      3
    ],
    "date": 2107,
    "coordinates": {
      "lat": -7.183333333333334,
      "lon": 5.35
    }
  },
  {
    "country": "BR",
    "location": "AGH",
    "name": "Araguainha",
    "nameWoDiacritics": "Araguainha",
    "subdivision": "MT",
    "status": "AA",
    "function": [
      2
    ],
    "date": 2107,
    "coordinates": {
      "lat": -16.85,
      "lon": 5.5
    }
  },
  {
    "country": "BR",
    "location": "AGW",
    "name": "Araguan„",
    "nameWoDiacritics": "Araguana",
    "subdivision": "MA",
    "status": "AA",
    "function": [
      2
    ],
    "date": 2107,
    "coordinates": {
      "lat": -2.9333333333333336,
      "lon": 4.9
    }
  },
  {
    "country": "BR",
    "location": "AWN",
    "name": "Araguan„",
    "nameWoDiacritics": "Araguana",
    "subdivision": "TO",
    "status": "AA",
    "function": [
      2
    ],
    "date": 2107,
    "coordinates": {
      "lat": -6.566666666666666,
      "lon": 5.383333333333333
    }
  },
  {
    "country": "BR",
    "location": "AGZ",
    "name": "Araguapaz",
    "nameWoDiacritics": "Araguapaz",
    "subdivision": "GO",
    "status": "AA",
    "function": [
      2
    ],
    "date": 2107,
    "coordinates": {
      "lat": -15.083333333333334,
      "lon": 5.05
    }
  },
  {
    "country": "BR",
    "location": "ARG",
    "name": "Araguari",
    "nameWoDiacritics": "Araguari",
    "subdivision": "MG",
    "status": "AA",
    "function": [
      1,
      2
    ],
    "date": 2107,
    "coordinates": {
      "lat": -18.633333333333333,
      "lon": 5.35
    }
  },
  {
    "country": "BR",
    "location": "ANS",
    "name": "Araguatins",
    "nameWoDiacritics": "Araguatins",
    "subdivision": "TO",
    "status": "AA",
    "function": [
      0,
      2,
      3
    ],
    "date": 2207,
    "coordinates": {
      "lat": -5.65,
      "lon": 5.333333333333333
    },
    "remarks": "Inland port"
  },
  {
    "country": "BR",
    "location": "AIS",
    "name": "Araioses",
    "nameWoDiacritics": "Araioses",
    "subdivision": "MA",
    "status": "AA",
    "function": [
      2
    ],
    "date": 2107,
    "coordinates": {
      "lat": -2.8833333333333333,
      "lon": 4.25
    }
  },
  {
    "country": "BR",
    "location": "AER",
    "name": "Aral Moreira",
    "nameWoDiacritics": "Aral Moreira",
    "subdivision": "MS",
    "status": "AA",
    "function": [
      2
    ],
    "date": 2107,
    "coordinates": {
      "lat": -22.933333333333334,
      "lon": 5.883333333333333
    }
  },
  {
    "country": "BR",
    "location": "RRY",
    "name": "Aramari",
    "nameWoDiacritics": "Aramari",
    "subdivision": "BA",
    "status": "AA",
    "function": [
      2
    ],
    "date": 2107,
    "coordinates": {
      "lat": -12.083333333333334,
      "lon": 4.383333333333333
    }
  },
  {
    "country": "BR",
    "location": "RMB",
    "name": "ArambarÈ",
    "nameWoDiacritics": "Arambare",
    "subdivision": "RS",
    "status": "AA",
    "function": [
      2
    ],
    "date": 2107,
    "coordinates": {
      "lat": -30.9,
      "lon": 5.216666666666667
    }
  },
  {
    "country": "BR",
    "location": "AAE",
    "name": "Arame",
    "nameWoDiacritics": "Arame",
    "subdivision": "MA",
    "status": "AA",
    "function": [
      2
    ],
    "date": 2107,
    "coordinates": {
      "lat": -4.883333333333333,
      "lon": 5
    }
  },
  {
    "country": "BR",
    "location": "AMY",
    "name": "Aramina",
    "nameWoDiacritics": "Aramina",
    "subdivision": "SP",
    "status": "AA",
    "function": [
      2
    ],
    "date": 2107,
    "coordinates": {
      "lat": -20.083333333333332,
      "lon": 5.233333333333333
    }
  },
  {
    "country": "BR",
    "location": "NDU",
    "name": "Arandu",
    "nameWoDiacritics": "Arandu",
    "subdivision": "SP",
    "status": "AA",
    "function": [
      2
    ],
    "date": 2107,
    "coordinates": {
      "lat": -23.133333333333333,
      "lon": 5.5
    }
  },
  {
    "country": "BR",
    "location": "AYN",
    "name": "Arantina",
    "nameWoDiacritics": "Arantina",
    "subdivision": "MG",
    "status": "AA",
    "function": [
      2
    ],
    "date": 2107,
    "coordinates": {
      "lat": -21.9,
      "lon": 4.683333333333334
    }
  },
  {
    "country": "BR",
    "location": "RPY",
    "name": "ArapeÌ",
    "nameWoDiacritics": "Arapei",
    "subdivision": "SP",
    "status": "AA",
    "function": [
      2
    ],
    "date": 2107,
    "coordinates": {
      "lat": -22.666666666666668,
      "lon": 4.7
    }
  },
  {
    "country": "BR",
    "location": "ARC",
    "name": "Arapiraca",
    "nameWoDiacritics": "Arapiraca",
    "subdivision": "AL",
    "status": "AA",
    "function": [
      2,
      3
    ],
    "date": 2107,
    "coordinates": {
      "lat": -9.75,
      "lon": 4.05
    }
  },
  {
    "country": "BR",
    "location": "APQ",
    "name": "Arapoema",
    "nameWoDiacritics": "Arapoema",
    "subdivision": "TO",
    "status": "AA",
    "function": [
      2
    ],
    "date": 2107,
    "coordinates": {
      "lat": -7.65,
      "lon": 5.5
    }
  },
  {
    "country": "BR",
    "location": "AOG",
    "name": "Araponga",
    "nameWoDiacritics": "Araponga",
    "subdivision": "MG",
    "status": "AA",
    "function": [
      2
    ],
    "date": 2107,
    "coordinates": {
      "lat": -20.65,
      "lon": 4.383333333333334
    }
  },