[
  {
    "change": "",
    "country": "BW",
    "location": "",
    "name": ".BOTSWANA",
    "nameWoDiacritics": "",
    "subdivision": "",
    "status": null,
    "function": [],
    "date": "",
    "iata": "",
    "coordinates": null,
    "remarks": ""
  },
  {
    "change": "",
    "country": "BW",
    "location": "DUK",
    "name": "Dukwi",
    "nameWoDiacritics": "Dukwi",
    "subdivision": "CE",
    "status": 7,
    "function": [
      0,
      5
    ],
    "date": "1201",
    "iata": "",
    "coordinates": {
      "lat": -20.583333333333332,
      "lon": 26.533333333333335
    },
    "remarks": ""
  },
  {
    "change": "",
    "country": "BW",
    "location": "FRW",
    "name": "Francistown",
    "nameWoDiacritics": "Francistown",
    "subdivision": "NE",
    "status": 3,
    "function": [
      1,
      2,
      3,
      5
    ],
    "date": "0407",
    "iata": "",
    "coordinates": {
      "lat": -21.166666666666668,
      "lon": 27.516666666666666
    },
    "remarks": ""
  },
  {
    "change": "",
    "country": "BW",
    "location": "GAB",
    "name": "Gaberones Camp",
    "nameWoDiacritics": "Gaberones Camp",
    "subdivision": "",
    "status": 7,
    "function": [
      5
    ],
    "date": "1007",
    "iata": "",
    "coordinates": {
      "lat": -24.666666666666668,
      "lon": 25.916666666666668
    },
    "remarks": ""
  },
  {
    "change": "",
    "country": "BW",
    "location": "GBE",
    "name": "Gaborone",
    "nameWoDiacritics": "Gaborone",
    "subdivision": "",
    "status": 3,
    "function": [
      2,
      3,
      4,
      5
    ],
    "date": "0907",
    "iata": "",
    "coordinates": {
      "lat": -24.666666666666668,
      "lon": 25.916666666666668
    },
    "remarks": ""
  },
  {
    "change": "",
    "country": "BW",
    "location": "GNZ",
    "name": "Ghanzi",
    "nameWoDiacritics": "Ghanzi",
    "subdivision": "",
    "status": 7,
    "function": [
      2,
      3
    ],
    "date": "9901",
    "iata": "",
    "coordinates": {
      "lat": -21.692921400000003,
      "lon": 21.657717694643345
    },
    "remarks": ""
  },
  {
    "change": "",
    "country": "BW",
    "location": "HUK",
    "name": "Hukuntsi",
    "nameWoDiacritics": "Hukuntsi",
    "subdivision": "",
    "status": 3,
    "function": [
      3
    ],
    "date": "9912",
    "iata": "",
    "coordinates": {
      "lat": -23.9866621,
      "lon": 21.759475601772028
    },
    "remarks": ""
  },
  {
    "change": "",
    "country": "BW",
    "location": "JWA",
    "name": "Jwaneng",
    "nameWoDiacritics": "Jwaneng",
    "subdivision": "",
    "status": 3,
    "function": [
      3
    ],
    "date": "9912",
    "iata": "",
    "coordinates": {
      "lat": -24.601186,
      "lon": 24.691606512948887
    },
    "remarks": ""
  },
  {
    "change": "",
    "country": "BW",
    "location": "BBK",
    "name": "Kasane",
    "nameWoDiacritics": "Kasane",
    "subdivision": "",
    "status": 3,
    "function": [
      3
    ],
    "date": "9912",
    "iata": "",
    "coordinates": {
      "lat": -17.83045705,
      "lon": 25.164367059707985
    },
    "remarks": ""
  },
  {
    "change": "",
    "country": "BW",
    "location": "KHW",
    "name": "Khwai River Lodge",
    "nameWoDiacritics": "Khwai River Lodge",
    "subdivision": "",
    "status": 3,
    "function": [
      3
    ],
    "date": "9601",
    "iata": "",
    "coordinates": {
      "lat": -19.14890205,
      "lon": 23.78563626014109
    },
    "remarks": ""
  },
  {
    "change": "",
    "country": "BW",
    "location": "LET",
    "name": "Letlhakane",
    "nameWoDiacritics": "Letlhakane",
    "subdivision": "",
    "status": 7,
    "function": [
      2
    ],
    "date": "0601",
    "iata": "",
    "coordinates": {
      "lat": -21.416666666666668,
      "lon": 25.583333333333332
    },
    "remarks": ""
  },
  {
    "change": "",
    "country": "BW",
    "location": "LOQ",
    "name": "Lobatse",
    "nameWoDiacritics": "Lobatse",
    "subdivision": "",
    "status": 3,
    "function": [
      3
    ],
    "date": "9912",
    "iata": "",
    "coordinates": null,
    "remarks": ""
  },
  {
    "change": "",
    "country": "BW",
    "location": "MAH",
    "name": "Mahalapye",
    "nameWoDiacritics": "Mahalapye",
    "subdivision": "",
    "status": 7,
    "function": [
      0,
      1,
      2
    ],
    "date": "0601",
    "iata": "",
    "coordinates": {
      "lat": -23.1,
      "lon": 26.833333333333332
    },
    "remarks": ""
  },
  {
    "change": "",
    "country": "BW",
    "location": "MUB",
    "name": "Maun",
    "nameWoDiacritics": "Maun",
    "subdivision": "",
    "status": 3,
    "function": [
      3
    ],
    "date": "9601",
    "iata": "",
    "coordinates": {
      "lat": -19.97141275,
      "lon": 23.43219644534387
    },
    "remarks": ""
  },
  {
    "change": "",
    "country": "BW",
    "location": "MGS",
    "name": "Mogoditshane",
    "nameWoDiacritics": "Mogoditshane",
    "subdivision": "KW",
    "status": 7,
    "function": [
      2
    ],
    "date": "1301",
    "iata": "",
    "coordinates": {
      "lat": -24.616666666666667,
      "lon": 25.85
    },
    "remarks": ""
  },
  {
    "change": "",
    "country": "BW",
    "location": "ORP",
    "name": "Orapa",
    "nameWoDiacritics": "Orapa",
    "subdivision": "",
    "status": 3,
    "function": [
      3
    ],
    "date": "9601",
    "iata": "",
    "coordinates": null,
    "remarks": ""
  },
  {
    "change": "",
    "country": "BW",
    "location": "PAL",
    "name": "Palapye",
    "nameWoDiacritics": "Palapye",
    "subdivision": "",
    "status": 7,
    "function": [
      1,
      2
    ],
    "date": "0601",
    "iata": "",
    "coordinates": {
      "lat": -22.566666666666666,
      "lon": 27.133333333333333
    },
    "remarks": ""
  },
  {
    "change": "",
    "country": "BW",
    "location": "RSA",
    "name": "Ramotswa",
    "nameWoDiacritics": "Ramotswa",
    "subdivision": "",
    "status": 7,
    "function": [
      1,
      2
    ],
    "date": "0401",
    "iata": "",
    "coordinates": {
      "lat": -24.866666666666667,
      "lon": 25.816666666666666
    },
    "remarks": ""
  },
  {
    "change": "",
    "country": "BW",
    "location": "SVT",
    "name": "Savuti",
    "nameWoDiacritics": "Savuti",
    "subdivision": "",
    "status": 3,
    "function": [
      3
    ],
    "date": "9912",
    "iata": "",
    "coordinates": null,
    "remarks": ""
  },
  {
    "change": "",
    "country": "BW",
    "location": "PKW",
    "name": "Selebi-Phikwe",
    "nameWoDiacritics": "Selebi-Phikwe",
    "subdivision": "",
    "status": 3,
    "function": [
      3
    ],
    "date": "9912",
    "iata": "",
    "coordinates": null,
    "remarks": ""
  },
  {
    "change": "",
    "country": "BW",
    "location": "SER",
    "name": "Serowe",
    "nameWoDiacritics": "Serowe",
    "subdivision": "",
    "status": 7,
    "function": [
      2
    ],
    "date": "0601",
    "iata": "",
    "coordinates": {
      "lat": -22.383333333333333,
      "lon": 26.7
    },
    "remarks": ""
  },
  {
    "change": "",
    "country": "BW",
    "location": "SWX",
    "name": "Shakawe",
    "nameWoDiacritics": "Shakawe",
    "subdivision": "",
    "status": 3,
    "function": [
      3
    ],
    "date": "9912",
    "iata": "",
    "coordinates": {
      "lat": -18.3732775,
      "lon": 21.83613043859394
    },
    "remarks": ""
  },
  {
    "change": "",
    "country": "BW",
    "location": "SXN",
    "name": "Suapan",
    "nameWoDiacritics": "Suapan",
    "subdivision": "",
    "status": 3,
    "function": [
      3
    ],
    "date": "9912",
    "iata": "",
    "coordinates": null,
    "remarks": ""
  },
  {
    "change": "",
    "country": "BW",
    "location": "SUN",
    "name": "Sunnyside",
    "nameWoDiacritics": "Sunnyside",
    "subdivision": "",
    "status": 7,
    "function": [
      0
    ],
    "date": "9805",
    "iata": "",
    "coordinates": null,
    "remarks": ""
  },
  {
    "change": "",
    "country": "BW",
    "location": "TBY",
    "name": "Tsabong",
    "nameWoDiacritics": "Tsabong",
    "subdivision": "",
    "status": 3,
    "function": [
      3
    ],
    "date": "9912",
    "iata": "",
    "coordinates": {
      "lat": -26.0345973,
      "lon": 22.40331001441928
    },
    "remarks": ""
  },
  {
    "change": "",
    "country": "BW",
    "location": "TLD",
    "name": "Tuli Lodge",
    "nameWoDiacritics": "Tuli Lodge",
    "subdivision": "",
    "status": 3,
    "function": [
      3
    ],
    "date": "9912",
    "iata": "",
    "coordinates": {
      "lat": -19.14890205,
      "lon": 23.78563626014109
    },
    "remarks": ""
  }
]