[
  {
    "country": "CI",
    "name": ".C‘TE D'IVOIRE",
    "status": null,
    "function": [],
    "coordinates": {
      "lat": 0,
      "lon": 0
    }
  },
  {
    "country": "CI",
    "location": "OGO",
    "name": "Abengourou",
    "nameWoDiacritics": "Abengourou",
    "status": 3,
    "function": [
      3
    ],
    "date": 9601,
    "coordinates": {
      "lat": 0,
      "lon": 0
    }
  },
  {
    "country": "CI",
    "location": "ABJ",
    "name": "Abidjan",
    "nameWoDiacritics": "Abidjan",
    "subdivision": "AB",
    "status": 3,
    "function": [
      0,
      3,
      4
    ],
    "date": 1701,
    "coordinates": {
      "lat": 5.333333333333333,
      "lon": -4.016666666666667
    }
  },
  {
    "country": "CI",
    "location": "ABO",
    "name": "Aboisso",
    "nameWoDiacritics": "Aboisso",
    "status": 9,
    "function": [
      3
    ],
    "date": 901,
    "coordinates": {
      "lat": 5.466666666666667,
      "lon": -3.2
    }
  },
  {
    "country": "CI",
    "location": "ADZ",
    "name": "AdzopÈ",
    "nameWoDiacritics": "Adzope",
    "status": 7,
    "function": [
      2
    ],
    "date": 401,
    "coordinates": {
      "lat": 6.1,
      "lon": -3.85
    }
  },
  {
    "country": "CI",
    "location": "AGB",
    "name": "Agboville",
    "nameWoDiacritics": "Agboville",
    "status": 7,
    "function": [
      1,
      2
    ],
    "date": 401,
    "coordinates": {
      "lat": 5.933333333333334,
      "lon": -4.216666666666667
    }
  },
  {
    "country": "CI",
    "location": "AFI",
    "name": "Amalfi",
    "nameWoDiacritics": "Amalfi",
    "status": 9,
    "function": [
      3
    ],
    "date": 901,
    "coordinates": {
      "lat": 0,
      "lon": 0
    }
  },
  {
    "country": "CI",
    "location": "ASS",
    "name": "Assinie-Mafia",
    "nameWoDiacritics": "Assinie-Mafia",
    "status": 7,
    "function": [
      0,
      2
    ],
    "date": 701,
    "coordinates": {
      "lat": 5.116666666666666,
      "lon": -3.283333333333333
    }
  },
  {
    "country": "CI",
    "location": "BAO",
    "name": "Baobab Terminal",
    "nameWoDiacritics": "Baobab Terminal",
    "status": 7,
    "function": [
      0,
      2
    ],
    "date": 901,
    "coordinates": {
      "lat": 4.95,
      "lon": -4.55
    }
  },
  {
    "country": "CI",
    "location": "BGV",
    "name": "Bingerville",
    "nameWoDiacritics": "Bingerville",
    "subdivision": 1,
    "status": 7,
    "function": [
      2
    ],
    "date": 1307,
    "coordinates": {
      "lat": 5.35,
      "lon": -3.9
    }
  },
  {
    "country": "CI",
    "location": "BDK",
    "name": "Bondoukou",
    "nameWoDiacritics": "Bondoukou",
    "status": 3,
    "function": [
      3
    ],
    "date": 9601,
    "coordinates": {
      "lat": 0,
      "lon": 0
    }
  },
  {
    "country": "CI",
    "location": "BGG",
    "name": "Bongouanou",
    "nameWoDiacritics": "Bongouanou",
    "status": 9,
    "function": [
      3
    ],
    "date": 901,
    "coordinates": {
      "lat": 6.65,
      "lon": -4.2
    }
  },
  {
    "country": "CI",
    "location": "BON",
    "name": "Bonoua",
    "nameWoDiacritics": "Bonoua",
    "status": 7,
    "function": [
      2
    ],
    "date": 401,
    "coordinates": {
      "lat": 5.266666666666667,
      "lon": -3.6
    }
  },
  {
    "country": "CI",
    "location": "BRZ",
    "name": "Borotou",
    "nameWoDiacritics": "Borotou",
    "status": 9,
    "function": [
      3
    ],
    "date": 901,
    "coordinates": {
      "lat": 8.733333333333333,
      "lon": -7.483333333333333
    }
  },
  {
    "country": "CI",
    "location": "BYK",
    "name": "BouakÈ",
    "nameWoDiacritics": "Bouake",
    "status": 3,
    "function": [
      3
    ],
    "date": 212,
    "coordinates": {
      "lat": 0,
      "lon": 0
    }
  },
  {
    "country": "CI",
    "location": "BQO",
    "name": "Bouna",
    "nameWoDiacritics": "Bouna",
    "status": 9,
    "function": [
      3
    ],
    "date": 901,
    "coordinates": {
      "lat": 9.266666666666667,
      "lon": -3
    }
  },
  {
    "country": "CI",
    "location": "BXI",
    "name": "Boundiali",
    "nameWoDiacritics": "Boundiali",
    "status": 9,
    "function": [
      3
    ],
    "date": 901,
    "coordinates": {
      "lat": 9.516666666666667,
      "lon": -6.483333333333333
    }
  },
  {
    "country": "CI",
    "location": "BUU",
    "name": "Buyo",
    "nameWoDiacritics": "Buyo",
    "status": 9,
    "function": [
      3
    ],
    "date": 901,
    "coordinates": {
      "lat": 6.266666666666667,
      "lon": -7.05
    }
  },
  {
    "country": "CI",
    "location": "COD",
    "name": "Cocody",
    "nameWoDiacritics": "Cocody",
    "status": 7,
    "function": [
      5
    ],
    "date": 1201,
    "coordinates": {
      "lat": 5.35,
      "lon": -4
    }
  },
  {
    "country": "CI",
    "location": "DAB",
    "name": "Dabou",
    "nameWoDiacritics": "Dabou",
    "status": 7,
    "function": [
      0,
      2
    ],
    "date": 407,
    "coordinates": {
      "lat": 5.316666666666666,
      "lon": -4.366666666666666
    }
  },
  {
    "country": "CI",
    "location": "DJO",
    "name": "Daloa",
    "nameWoDiacritics": "Daloa",
    "status": 3,
    "function": [
      3
    ],
    "date": 9601,
    "coordinates": {
      "lat": 0,
      "lon": 0
    }
  },
  {
    "country": "CI",
    "location": "DNC",
    "name": "Danane",
    "nameWoDiacritics": "Danane",
    "status": 9,
    "function": [
      3
    ],
    "date": 901,
    "coordinates": {
      "lat": 7.25,
      "lon": -8.15
    }
  },
  {
    "country": "CI",
    "location": "DIM",
    "name": "Dimbokro",
    "nameWoDiacritics": "Dimbokro",
    "status": 7,
    "function": [
      3
    ],
    "date": 907,
    "coordinates": {
      "lat": 6.65,
      "lon": -4.666666666666667
    }
  },
  {
    "country": "CI",
    "location": "DIV",
    "name": "Divo",
    "nameWoDiacritics": "Divo",
    "status": 7,
    "function": [
      3
    ],
    "date": 907,
    "coordinates": {
      "lat": 5.833333333333333,
      "lon": -5.35
    }
  },
  {
    "country": "CI",
    "location": "DJB",
    "name": "Djibi",
    "nameWoDiacritics": "Djibi",
    "subdivision": 1,
    "status": 7,
    "function": [
      2
    ],
    "date": 1601,
    "coordinates": {
      "lat": 5.45,
      "lon": -3.9833333333333334
    }
  },
  {
    "country": "CI",
    "location": "ESP",
    "name": "Espoir",
    "nameWoDiacritics": "Espoir",
    "status": 9,
    "function": [
      0
    ],
    "date": 907,
    "coordinates": {
      "lat": 5.066666666666666,
      "lon": -4.383333333333334
    }
  },
  {
    "country": "CI",
    "location": "FEK",
    "name": "FerkessÈdougou",
    "nameWoDiacritics": "Ferkessedougou",
    "status": 3,
    "function": [
      3,
      4
    ],
    "date": 212,
    "coordinates": {
      "lat": 9.6,
      "lon": -5.2
    }
  },
  {
    "country": "CI",
    "location": "FRE",
    "name": "Fresco",
    "nameWoDiacritics": "Fresco",
    "status": 7,
    "function": [
      0,
      2
    ],
    "date": 701,
    "coordinates": {
      "lat": 5.083333333333333,
      "lon": -5.566666666666666
    }
  },
  {
    "country": "CI",
    "location": "GGN",
    "name": "Gagnoa",
    "nameWoDiacritics": "Gagnoa",
    "status": 3,
    "function": [
      2,
      3
    ],
    "date": 401,
    "coordinates": {
      "lat": 6.133333333333334,
      "lon": -5.933333333333334
    }
  },
  {
    "country": "CI",
    "location": "GBA",
    "name": "Gbabam",
    "nameWoDiacritics": "Gbabam",
    "status": 7,
    "function": [
      0
    ],
    "date": 212,
    "coordinates": {
      "lat": 5.466666666666667,
      "lon": -5.583333333333333
    }
  },
  {
    "country": "CI",
    "location": "GLU",
    "name": "Grand Lahou",
    "nameWoDiacritics": "Grand Lahou",
    "status": 7,
    "function": [
      0,
      2
    ],
    "date": 701,
    "coordinates": {
      "lat": 5.133333333333334,
      "lon": -5.016666666666667
    }
  },
  {
    "country": "CI",
    "location": "BBV",
    "name": "Grand-BÈrÈby",
    "nameWoDiacritics": "Grand-Bereby",
    "subdivision": 9,
    "status": 7,
    "function": [
      3
    ],
    "date": 1501,
    "coordinates": {
      "lat": 4.666666666666667,
      "lon": -7.066666666666666
    }
  },
  {
    "country": "CI",
    "location": "GUI",
    "name": "GuiembÈ",
    "nameWoDiacritics": "Guiembe",
    "subdivision": "SV",
    "status": 7,
    "function": [
      1,
      2
    ],
    "date": 1601,
    "coordinates": {
      "lat": 9.233333333333333,
      "lon": -5.716666666666667
    }
  },
  {
    "country": "CI",
    "location": "GGO",
    "name": "Guiglo",
    "nameWoDiacritics": "Guiglo",
    "status": 3,
    "function": [
      2,
      3
    ],
    "date": 401,
    "coordinates": {
      "lat": 6.533333333333333,
      "lon": -7.483333333333333
    }
  },
  {
    "country": "CI",
    "location": "JAC",
    "name": "Jacqueville",
    "nameWoDiacritics": "Jacqueville",
    "status": 7,
    "function": [
      0
    ],
    "date": 212,
    "coordinates": {
      "lat": 5.2,
      "lon": -4.416666666666667
    }
  },
  {
    "country": "CI",
    "location": "KTC",
    "name": "Katiola",
    "nameWoDiacritics": "Katiola",
    "status": 7,
    "function": [
      3
    ],
    "date": 907,
    "coordinates": {
      "lat": 9.65,
      "lon": -7.616666666666667
    }
  },
  {
    "country": "CI",
    "location": "HGO",
    "name": "Korhogo",
    "nameWoDiacritics": "Korhogo",
    "status": 3,
    "function": [
      3
    ],
    "date": 9601,
    "coordinates": {
      "lat": 0,
      "lon": 0
    }
  },
  {
    "country": "CI",
    "location": "KOS",
    "name": "Kosagi",
    "nameWoDiacritics": "Kosagi",
    "status": 7,
    "function": [
      0
    ],
    "date": 212,
    "coordinates": {
      "lat": 8.216666666666667,
      "lon": -8.1
    }
  },
  {
    "country": "CI",
    "location": "KOU",
    "name": "Koumassi",
    "nameWoDiacritics": "Koumassi",
    "subdivision": 1,
    "status": 7,
    "function": [
      2
    ],
    "date": 1301,
    "coordinates": {
      "lat": 5.283333333333333,
      "lon": -3.966666666666667
    }
  },
  {
    "country": "CI",
    "location": "LKT",
    "name": "Lakota",
    "nameWoDiacritics": "Lakota",
    "status": 7,
    "function": [
      3
    ],
    "date": 907,
    "coordinates": {
      "lat": 5.85,
      "lon": -5.683333333333334
    }
  },
  {
    "country": "CI",
    "location": "MJC",
    "name": "Man",
    "nameWoDiacritics": "Man",
    "status": 3,
    "function": [
      3
    ],
    "date": 9601,
    "coordinates": {
      "lat": 0,
      "lon": 0
    }
  },
  {
    "country": "CI",
    "location": "MOK",
    "name": "Mankono",
    "nameWoDiacritics": "Mankono",
    "status": 9,
    "function": [
      3
    ],
    "date": 901,
    "coordinates": {
      "lat": 8.016666666666667,
      "lon": -6.15
    }
  },
  {
    "country": "CI",
    "location": "XMB",
    "name": "M'Bahiakro",
    "nameWoDiacritics": "M'Bahiakro",
    "status": 7,
    "function": [
      3
    ],
    "date": 907,
    "coordinates": {
      "lat": 7.45,
      "lon": -4.333333333333333
    }
  },
  {
    "country": "CI",
    "location": "NKL",
    "name": "Nakala",
    "nameWoDiacritics": "Nakala",
    "status": 7,
    "function": [
      2
    ],
    "date": 601,
    "coordinates": {
      "lat": 8.466666666666667,
      "lon": -4.266666666666667
    }
  },
  {
    "country": "CI",
    "location": "KEO",
    "name": "OdiennÈ",
    "nameWoDiacritics": "Odienne",
    "status": 3,
    "function": [
      3
    ],
    "date": 212,
    "coordinates": {
      "lat": 9.5,
      "lon": -7.566666666666666
    }
  },
  {
    "country": "CI",
    "location": "OFI",
    "name": "Ouango Fitni",
    "nameWoDiacritics": "Ouango Fitni",
    "status": 9,
    "function": [
      3
    ],
    "date": 901,
    "coordinates": {
      "lat": 9.6,
      "lon": -4.016666666666667
    }
  },
  {
    "country": "CI",
    "location": "PBT",
    "name": "Port-BouÎt",
    "nameWoDiacritics": "Port-Bouet",
    "status": 7,
    "function": [
      0
    ],
    "date": 212,
    "coordinates": {
      "lat": 5.25,
      "lon": -3.966666666666667
    }
  },
  {
    "country": "CI",
    "location": "SPY",
    "name": "San-PÈdro",
    "nameWoDiacritics": "San-Pedro",
    "subdivision": 9,
    "status": 3,
    "function": [
      0,
      2,
      3
    ],
    "date": 1401,
    "coordinates": {
      "lat": 4.733333333333333,
      "lon": -6.616666666666667
    }
  },
  {
    "country": "CI",
    "location": "ZSS",
    "name": "Sassandra",
    "nameWoDiacritics": "Sassandra",
    "status": 3,
    "function": [
      0,
      3
    ],
    "date": 9601,
    "coordinates": {
      "lat": 0,
      "lon": 0
    }
  },
  {
    "country": "CI",
    "location": "SEQ",
    "name": "Seguela",
    "nameWoDiacritics": "Seguela",
    "status": 9,
    "function": [
      3
    ],
    "date": 901,
    "coordinates": {
      "lat": 0,
      "lon": 0
    }
  },
  {
    "country": "CI",
    "location": "SGL",
    "name": "SÈguÈla",
    "nameWoDiacritics": "Seguela",
    "status": 7,
    "function": [
      2
    ],
    "date": 601,
    "coordinates": {
      "lat": 7.95,
      "lon": -6.666666666666667
    }
  },
  {
    "country": "CI",
    "location": "SFR",
    "name": "Sinfra",
    "nameWoDiacritics": "Sinfra",
    "status": 7,
    "function": [
      2
    ],
    "date": 1101,
    "coordinates": {
      "lat": 6.616666666666667,
      "lon": -5.916666666666667
    }
  },
  {
    "country": "CI",
    "location": "TBX",
    "name": "Taabo",
    "nameWoDiacritics": "Taabo",
    "status": 7,
    "function": [
      3
    ],
    "date": 907,
    "coordinates": {
      "lat": 6.216666666666667,
      "lon": -5.116666666666666
    }
  },
  {
    "country": "CI",
    "location": "TXU",
    "name": "Tabou",
    "nameWoDiacritics": "Tabou",
    "status": 3,
    "function": [
      3
    ],
    "date": 9601,
    "coordinates": {
      "lat": 0,
      "lon": 0
    }
  },
  {
    "country": "CI",
    "location": "TIA",
    "name": "TiassalÈ",
    "nameWoDiacritics": "Tiassale",
    "status": 7,
    "function": [
      2
    ],
    "date": 401,
    "coordinates": {
      "lat": 5.883333333333333,
      "lon": -4.816666666666666
    }
  },
  {
    "country": "CI",
    "location": "TGX",
    "name": "Tingrela",
    "nameWoDiacritics": "Tingrela",
    "status": 7,
    "function": [
      3
    ],
    "date": 907,
    "coordinates": {
      "lat": 10.483333333333333,
      "lon": -6.4
    }
  },
  {
    "country": "CI",
    "location": "TOZ",
    "name": "Touba",
    "nameWoDiacritics": "Touba",
    "status": 9,
    "function": [
      3
    ],
    "date": 901,
    "coordinates": {
      "lat": 8.266666666666667,
      "lon": -7.666666666666667
    }
  },
  {
    "country": "CI",
    "location": "VRD",
    "name": "Vridi",
    "nameWoDiacritics": "Vridi",
    "subdivision": 10,
    "status": 7,
    "function": [
      5
    ],
    "date": 1201,
    "coordinates": {
      "lat": 5.25,
      "lon": -3.9833333333333334
    }
  },
  {
    "country": "CI",
    "location": "ASK",
    "name": "Yamoussoukro",
    "nameWoDiacritics": "Yamoussoukro",
    "status": 3,
    "function": [
      3
    ],
    "date": 9601,
    "coordinates": {
      "lat": 0,
      "lon": 0
    }
  },
  {
    "country": "CI",
    "location": "YGN",
    "name": "Yopougon",
    "nameWoDiacritics": "Yopougon",
    "subdivision": 1,
    "status": 7,
    "function": [
      2
    ],
    "date": 1301,
    "coordinates": {
      "lat": 5.333333333333333,
      "lon": -4.066666666666666
    }
  },
  {
    "country": "CI",
    "location": "YOA",
    "name": "Yopougon-Attie",
    "nameWoDiacritics": "Yopougon-Attie",
    "subdivision": 16,
    "status": 7,
    "function": [
      2
    ],
    "date": 1207,
    "coordinates": {
      "lat": 5.35,
      "lon": -4.066666666666666
    }
  },
  {
    "country": "CI",
    "location": "ZUE",
    "name": "Zuenoula",
    "nameWoDiacritics": "Zuenoula",
    "status": 7,
    "function": [
      3
    ],
    "date": 907,
    "coordinates": {
      "lat": 7.416666666666667,
      "lon": -6.033333333333333
    }
  }
]