[
  {
    "country": "CI",
    "name": ".C‘TE D'IVOIRE",
    "function": [],
    "coordinates": {
      "lat": 0,
      "lon": 0
    }
  },
  {
    "country": "CI",
    "location": "OGO",
    "name": "Abengourou",
    "nameWoDiacritics": "Abengourou",
    "status": "AI",
    "function": [
      3
    ],
    "date": 9601,
    "coordinates": {
      "lat": 0,
      "lon": 0
    }
  },
  {
    "country": "CI",
    "location": "ABJ",
    "name": "Abidjan",
    "nameWoDiacritics": "Abidjan",
    "subdivision": "AB",
    "status": "AI",
    "function": [
      0,
      3,
      4
    ],
    "date": 1701,
    "coordinates": {
      "lat": 5.333333333333333,
      "lon": 0.6666666666666666
    }
  },
  {
    "country": "CI",
    "location": "ABO",
    "name": "Aboisso",
    "nameWoDiacritics": "Aboisso",
    "status": "RQ",
    "function": [
      3
    ],
    "date": 901,
    "coordinates": {
      "lat": 5.466666666666667,
      "lon": 0.5166666666666667
    }
  },
  {
    "country": "CI",
    "location": "ADZ",
    "name": "AdzopÈ",
    "nameWoDiacritics": "Adzope",
    "status": "RL",
    "function": [
      2
    ],
    "date": 401,
    "coordinates": {
      "lat": 6.1,
      "lon": 0.5833333333333334
    }
  },
  {
    "country": "CI",
    "location": "AGB",
    "name": "Agboville",
    "nameWoDiacritics": "Agboville",
    "status": "RL",
    "function": [
      1,
      2
    ],
    "date": 401,
    "coordinates": {
      "lat": 5.933333333333334,
      "lon": 0.6833333333333333
    }
  },
  {
    "country": "CI",
    "location": "AFI",
    "name": "Amalfi",
    "nameWoDiacritics": "Amalfi",
    "status": "RQ",
    "function": [
      3
    ],
    "date": 901,
    "coordinates": {
      "lat": 0,
      "lon": 0
    }
  },
  {
    "country": "CI",
    "location": "ASS",
    "name": "Assinie-Mafia",
    "nameWoDiacritics": "Assinie-Mafia",
    "status": "RL",
    "function": [
      0,
      2
    ],
    "date": 701,
    "coordinates": {
      "lat": 5.116666666666666,
      "lon": 0.5166666666666667
    }
  },
  {
    "country": "CI",
    "location": "BAO",
    "name": "Baobab Terminal",
    "nameWoDiacritics": "Baobab Terminal",
    "status": "RL",
    "function": [
      0,
      2
    ],
    "date": 901,
    "coordinates": {
      "lat": 4.95,
      "lon": 0.7166666666666667
    }
  },
  {
    "country": "CI",
    "location": "BGV",
    "name": "Bingerville",
    "nameWoDiacritics": "Bingerville",
    "subdivision": 1,
    "status": "RL",
    "function": [
      2
    ],
    "date": 1307,
    "coordinates": {
      "lat": 5.35,
      "lon": 0.5833333333333334
    }
  },
  {
    "country": "CI",
    "location": "BDK",
    "name": "Bondoukou",
    "nameWoDiacritics": "Bondoukou",
    "status": "AI",
    "function": [
      3
    ],
    "date": 9601,
    "coordinates": {
      "lat": 0,
      "lon": 0
    }
  },
  {
    "country": "CI",
    "location": "BGG",
    "name": "Bongouanou",
    "nameWoDiacritics": "Bongouanou",
    "status": "RQ",
    "function": [
      3
    ],
    "date": 901,
    "coordinates": {
      "lat": 6.65,
      "lon": 0.6833333333333333
    }
  },
  {
    "country": "CI",
    "location": "BON",
    "name": "Bonoua",
    "nameWoDiacritics": "Bonoua",
    "status": "RL",
    "function": [
      2
    ],
    "date": 401,
    "coordinates": {
      "lat": 5.266666666666667,
      "lon": 0.55
    }
  },
  {
    "country": "CI",
    "location": "BRZ",
    "name": "Borotou",
    "nameWoDiacritics": "Borotou",
    "status": "RQ",
    "function": [
      3
    ],
    "date": 901,
    "coordinates": {
      "lat": 8.733333333333333,
      "lon": 1.2
    }
  },
  {
    "country": "CI",
    "location": "BYK",
    "name": "BouakÈ",
    "nameWoDiacritics": "Bouake",
    "status": "AI",
    "function": [
      3
    ],
    "date": 212,
    "coordinates": {
      "lat": 0,
      "lon": 0
    }
  },
  {
    "country": "CI",
    "location": "BQO",
    "name": "Bouna",
    "nameWoDiacritics": "Bouna",
    "status": "RQ",
    "function": [
      3
    ],
    "date": 901,
    "coordinates": {
      "lat": 9.266666666666667,
      "lon": 0.5
    }
  },
  {
    "country": "CI",
    "location": "BXI",
    "name": "Boundiali",
    "nameWoDiacritics": "Boundiali",
    "status": "RQ",
    "function": [
      3
    ],
    "date": 901,
    "coordinates": {
      "lat": 9.516666666666667,
      "lon": 1.0333333333333334
    }
  },
  {
    "country": "CI",
    "location": "BUU",
    "name": "Buyo",
    "nameWoDiacritics": "Buyo",
    "status": "RQ",
    "function": [
      3
    ],
    "date": 901,
    "coordinates": {
      "lat": 6.266666666666667,
      "lon": 1.1666666666666667
    }
  },
  {
    "country": "CI",
    "location": "COD",
    "name": "Cocody",
    "nameWoDiacritics": "Cocody",
    "status": "RL",
    "function": [
      5
    ],
    "date": 1201,
    "coordinates": {
      "lat": 5.35,
      "lon": 0.6666666666666666
    }
  },
  {
    "country": "CI",
    "location": "DAB",
    "name": "Dabou",
    "nameWoDiacritics": "Dabou",
    "status": "RL",
    "function": [
      0,
      2
    ],
    "date": 407,
    "coordinates": {
      "lat": 5.316666666666666,
      "lon": 0.7
    }
  },
  {
    "country": "CI",
    "location": "DJO",
    "name": "Daloa",
    "nameWoDiacritics": "Daloa",
    "status": "AI",
    "function": [
      3
    ],
    "date": 9601,
    "coordinates": {
      "lat": 0,
      "lon": 0
    }
  },
  {
    "country": "CI",
    "location": "DNC",
    "name": "Danane",
    "nameWoDiacritics": "Danane",
    "status": "RQ",
    "function": [
      3
    ],
    "date": 901,
    "coordinates": {
      "lat": 7.25,
      "lon": 1.3333333333333333
    }
  },
  {
    "country": "CI",
    "location": "DIM",
    "name": "Dimbokro",
    "nameWoDiacritics": "Dimbokro",
    "status": "RL",
    "function": [
      3
    ],
    "date": 907,
    "coordinates": {
      "lat": 6.65,
      "lon": 0.7333333333333333
    }
  },
  {
    "country": "CI",
    "location": "DIV",
    "name": "Divo",
    "nameWoDiacritics": "Divo",
    "status": "RL",
    "function": [
      3
    ],
    "date": 907,
    "coordinates": {
      "lat": 5.833333333333333,
      "lon": 0.8666666666666667
    }
  },
  {
    "country": "CI",
    "location": "DJB",
    "name": "Djibi",
    "nameWoDiacritics": "Djibi",
    "subdivision": 1,
    "status": "RL",
    "function": [
      2
    ],
    "date": 1601,
    "coordinates": {
      "lat": 5.45,
      "lon": 0.5833333333333334
    }
  },
  {
    "country": "CI",
    "location": "ESP",
    "name": "Espoir",
    "nameWoDiacritics": "Espoir",
    "status": "RQ",
    "function": [
      0
    ],
    "date": 907,
    "coordinates": {
      "lat": 5.066666666666666,
      "lon": 0.7
    }
  },
  {
    "country": "CI",
    "location": "FEK",
    "name": "FerkessÈdougou",
    "nameWoDiacritics": "Ferkessedougou",
    "status": "AI",
    "function": [
      3,
      4
    ],
    "date": 212,
    "coordinates": {
      "lat": 9.6,
      "lon": 0.85
    }
  },
  {
    "country": "CI",
    "location": "FRE",
    "name": "Fresco",
    "nameWoDiacritics": "Fresco",
    "status": "RL",
    "function": [
      0,
      2
    ],
    "date": 701,
    "coordinates": {
      "lat": 5.083333333333333,
      "lon": 0.8833333333333333
    }
  },
  {
    "country": "CI",
    "location": "GGN",
    "name": "Gagnoa",
    "nameWoDiacritics": "Gagnoa",
    "status": "AI",
    "function": [
      2,
      3
    ],
    "date": 401,
    "coordinates": {
      "lat": 6.133333333333334,
      "lon": 0.9166666666666666
    }
  },
  {
    "country": "CI",
    "location": "GBA",
    "name": "Gbabam",
    "nameWoDiacritics": "Gbabam",
    "status": "RL",
    "function": [
      0
    ],
    "date": 212,
    "coordinates": {
      "lat": 5.466666666666667,
      "lon": 0.8833333333333333
    }
  },
  {
    "country": "CI",
    "location": "GLU",
    "name": "Grand Lahou",
    "nameWoDiacritics": "Grand Lahou",
    "status": "RL",
    "function": [
      0,
      2
    ],
    "date": 701,
    "coordinates": {
      "lat": 5.133333333333334,
      "lon": 0.8333333333333334
    }
  },
  {
    "country": "CI",
    "location": "BBV",
    "name": "Grand-BÈrÈby",
    "nameWoDiacritics": "Grand-Bereby",
    "subdivision": 9,
    "status": "RL",
    "function": [
      3
    ],
    "date": 1501,
    "coordinates": {
      "lat": 4.666666666666667,
      "lon": 1.1666666666666667
    }
  },
  {
    "country": "CI",
    "location": "GUI",
    "name": "GuiembÈ",
    "nameWoDiacritics": "Guiembe",
    "subdivision": "SV",
    "status": "RL",
    "function": [
      1,
      2
    ],
    "date": 1601,
    "coordinates": {
      "lat": 9.233333333333333,
      "lon": 0.9
    }
  },
  {
    "country": "CI",
    "location": "GGO",
    "name": "Guiglo",
    "nameWoDiacritics": "Guiglo",
    "status": "AI",
    "function": [
      2,
      3
    ],
    "date": 401,
    "coordinates": {
      "lat": 6.533333333333333,
      "lon": 1.2
    }
  },
  {
    "country": "CI",
    "location": "JAC",
    "name": "Jacqueville",
    "nameWoDiacritics": "Jacqueville",
    "status": "RL",
    "function": [
      0
    ],
    "date": 212,
    "coordinates": {
      "lat": 5.2,
      "lon": 0.7
    }
  },
  {
    "country": "CI",
    "location": "KTC",
    "name": "Katiola",
    "nameWoDiacritics": "Katiola",
    "status": "RL",
    "function": [
      3
    ],
    "date": 907,
    "coordinates": {
      "lat": 9.65,
      "lon": 1.2166666666666666
    }
  },
  {
    "country": "CI",
    "location": "HGO",
    "name": "Korhogo",
    "nameWoDiacritics": "Korhogo",
    "status": "AI",
    "function": [
      3
    ],
    "date": 9601,
    "coordinates": {
      "lat": 0,
      "lon": 0
    }
  },
  {
    "country": "CI",
    "location": "KOS",
    "name": "Kosagi",
    "nameWoDiacritics": "Kosagi",
    "status": "RL",
    "function": [
      0
    ],
    "date": 212,
    "coordinates": {
      "lat": 8.216666666666667,
      "lon": 1.3333333333333333
    }
  },
  {
    "country": "CI",
    "location": "KOU",
    "name": "Koumassi",
    "nameWoDiacritics": "Koumassi",
    "subdivision": 1,
    "status": "RL",
    "function": [
      2
    ],
    "date": 1301,
    "coordinates": {
      "lat": 5.283333333333333,
      "lon": 0.5833333333333334
    }
  },
  {
    "country": "CI",
    "location": "LKT",
    "name": "Lakota",
    "nameWoDiacritics": "Lakota",
    "status": "RL",
    "function": [
      3
    ],
    "date": 907,
    "coordinates": {
      "lat": 5.85,
      "lon": 0.9
    }
  },
  {
    "country": "CI",
    "location": "MJC",
    "name": "Man",
    "nameWoDiacritics": "Man",
    "status": "AI",
    "function": [
      3
    ],
    "date": 9601,
    "coordinates": {
      "lat": 0,
      "lon": 0
    }
  },
  {
    "country": "CI",
    "location": "MOK",
    "name": "Mankono",
    "nameWoDiacritics": "Mankono",
    "status": "RQ",
    "function": [
      3
    ],
    "date": 901,
    "coordinates": {
      "lat": 8.016666666666667,
      "lon": 1
    }
  },
  {
    "country": "CI",
    "location": "XMB",
    "name": "M'Bahiakro",
    "nameWoDiacritics": "M'Bahiakro",
    "status": "RL",
    "function": [
      3
    ],
    "date": 907,
    "coordinates": {
      "lat": 7.45,
      "lon": 0.7
    }
  },
  {
    "country": "CI",
    "location": "NKL",
    "name": "Nakala",
    "nameWoDiacritics": "Nakala",
    "status": "RL",
    "function": [
      2
    ],
    "date": 601,
    "coordinates": {
      "lat": 8.466666666666667,
      "lon": 0.6833333333333333
    }
  },
  {
    "country": "CI",
    "location": "KEO",
    "name": "OdiennÈ",
    "nameWoDiacritics": "Odienne",
    "status": "AI",
    "function": [
      3
    ],
    "date": 212,
    "coordinates": {
      "lat": 9.5,
      "lon": 1.2166666666666666
    }
  },
  {
    "country": "CI",
    "location": "OFI",
    "name": "Ouango Fitni",
    "nameWoDiacritics": "Ouango Fitni",
    "status": "RQ",
    "function": [
      3
    ],
    "date": 901,
    "coordinates": {
      "lat": 9.6,
      "lon": 0.6666666666666666
    }
  },
  {
    "country": "CI",
    "location": "PBT",
    "name": "Port-BouÎt",
    "nameWoDiacritics": "Port-Bouet",
    "status": "RL",
    "function": [
      0
    ],
    "date": 212,
    "coordinates": {
      "lat": 5.25,
      "lon": 0.5833333333333334
    }
  },
  {
    "country": "CI",
    "location": "SPY",
    "name": "San-PÈdro",
    "nameWoDiacritics": "San-Pedro",
    "subdivision": 9,
    "status": "AI",
    "function": [
      0,
      2,
      3
    ],
    "date": 1401,
    "coordinates": {
      "lat": 4.733333333333333,
      "lon": 1.05
    }
  },
  {
    "country": "CI",
    "location": "ZSS",
    "name": "Sassandra",
    "nameWoDiacritics": "Sassandra",
    "status": "AI",
    "function": [
      0,
      3
    ],
    "date": 9601,
    "coordinates": {
      "lat": 0,
      "lon": 0
    }
  },
  {
    "country": "CI",
    "location": "SEQ",
    "name": "Seguela",
    "nameWoDiacritics": "Seguela",
    "status": "RQ",
    "function": [
      3
    ],
    "date": 901,
    "coordinates": {
      "lat": 0,
      "lon": 0
    }
  },
  {
    "country": "CI",
    "location": "SGL",
    "name": "SÈguÈla",
    "nameWoDiacritics": "Seguela",
    "status": "RL",
    "function": [
      2
    ],
    "date": 601,
    "coordinates": {
      "lat": 7.95,
      "lon": 1.0666666666666667
    }
  },
  {
    "country": "CI",
    "location": "SFR",
    "name": "Sinfra",
    "nameWoDiacritics": "Sinfra",
    "status": "RL",
    "function": [
      2
    ],
    "date": 1101,
    "coordinates": {
      "lat": 6.616666666666667,
      "lon": 0.9166666666666666
    }
  },
  {
    "country": "CI",
    "location": "TBX",
    "name": "Taabo",
    "nameWoDiacritics": "Taabo",
    "status": "RL",
    "function": [
      3
    ],
    "date": 907,
    "coordinates": {
      "lat": 6.216666666666667,
      "lon": 0.8333333333333334
    }
  },
  {
    "country": "CI",
    "location": "TXU",
    "name": "Tabou",
    "nameWoDiacritics": "Tabou",
    "status": "AI",
    "function": [
      3
    ],
    "date": 9601,
    "coordinates": {
      "lat": 0,
      "lon": 0
    }
  },
  {
    "country": "CI",
    "location": "TIA",
    "name": "TiassalÈ",
    "nameWoDiacritics": "Tiassale",
    "status": "RL",
    "function": [
      2
    ],
    "date": 401,
    "coordinates": {
      "lat": 5.883333333333333,
      "lon": 0.7333333333333333
    }
  },
  {
    "country": "CI",
    "location": "TGX",
    "name": "Tingrela",
    "nameWoDiacritics": "Tingrela",
    "status": "RL",
    "function": [
      3
    ],
    "date": 907,
    "coordinates": {
      "lat": 10.483333333333333,
      "lon": 1.0333333333333334
    }
  },
  {
    "country": "CI",
    "location": "TOZ",
    "name": "Touba",
    "nameWoDiacritics": "Touba",
    "status": "RQ",
    "function": [
      3
    ],
    "date": 901,
    "coordinates": {
      "lat": 8.266666666666667,
      "lon": 1.2333333333333334
    }
  },
  {
    "country": "CI",
    "location": "VRD",
    "name": "Vridi",
    "nameWoDiacritics": "Vridi",
    "subdivision": 10,
    "status": "RL",
    "function": [
      5
    ],
    "date": 1201,
    "coordinates": {
      "lat": 5.25,
      "lon": 0.5833333333333334
    }
  },
  {
    "country": "CI",
    "location": "ASK",
    "name": "Yamoussoukro",
    "nameWoDiacritics": "Yamoussoukro",
    "status": "AI",
    "function": [
      3
    ],
    "date": 9601,
    "coordinates": {
      "lat": 0,
      "lon": 0
    }
  },
  {
    "country": "CI",
    "location": "YGN",
    "name": "Yopougon",
    "nameWoDiacritics": "Yopougon",
    "subdivision": 1,
    "status": "RL",
    "function": [
      2
    ],
    "date": 1301,
    "coordinates": {
      "lat": 5.333333333333333,
      "lon": 0.6666666666666666
    }
  },
  {
    "country": "CI",
    "location": "YOA",
    "name": "Yopougon-Attie",
    "nameWoDiacritics": "Yopougon-Attie",
    "subdivision": 16,
    "status": "RL",
    "function": [
      2
    ],
    "date": 1207,
    "coordinates": {
      "lat": 5.35,
      "lon": 0.6666666666666666
    }
  },
  {
    "country": "CI",
    "location": "ZUE",
    "name": "Zuenoula",
    "nameWoDiacritics": "Zuenoula",
    "status": "RL",
    "function": [
      3
    ],
    "date": 907,
    "coordinates": {
      "lat": 7.416666666666667,
      "lon": 1
    }
  }
]