[
  {
    "country": "CO",
    "name": ".COLOMBIA",
    "status": null,
    "function": [],
    "coordinates": {
      "lat": 0,
      "lon": 0
    }
  },
  {
    "country": "CO",
    "location": "AAS",
    "name": "AcacÌas",
    "nameWoDiacritics": "Acacias",
    "subdivision": "MET",
    "status": 7,
    "function": [
      5
    ],
    "date": 1201,
    "coordinates": {
      "lat": 3.9833333333333334,
      "lon": -73.75
    }
  },
  {
    "country": "CO",
    "location": "ACD",
    "name": "Acandi",
    "nameWoDiacritics": "Acandi",
    "subdivision": "ANT",
    "status": 9,
    "function": [
      3
    ],
    "date": 901,
    "coordinates": {
      "lat": 8.533333333333333,
      "lon": -77.23333333333333
    }
  },
  {
    "country": "CO",
    "location": "ARF",
    "name": "Acaricuara",
    "nameWoDiacritics": "Acaricuara",
    "subdivision": "VAU",
    "status": 7,
    "function": [
      3
    ],
    "date": 907,
    "coordinates": {
      "lat": 0.7,
      "lon": -70.23333333333333
    }
  },
  {
    "country": "CO",
    "location": "AGD",
    "name": "Agrado",
    "nameWoDiacritics": "Agrado",
    "status": 9,
    "function": [
      2
    ],
    "date": 607,
    "coordinates": {
      "lat": 2.25,
      "lon": -75.93333333333334
    }
  },
  {
    "country": "CO",
    "location": "AGC",
    "name": "Aguachica",
    "nameWoDiacritics": "Aguachica",
    "subdivision": "CES",
    "status": 7,
    "function": [
      2
    ],
    "date": 1601,
    "coordinates": {
      "lat": 8.3,
      "lon": -73.61666666666666
    }
  },
  {
    "country": "CO",
    "location": "ACL",
    "name": "Aguaclara",
    "nameWoDiacritics": "Aguaclara",
    "subdivision": "NAR",
    "status": 9,
    "function": [
      3
    ],
    "date": 901,
    "coordinates": {
      "lat": 1.7166666666666668,
      "lon": -78.78333333333333
    }
  },
  {
    "country": "CO",
    "location": "AGU",
    "name": "Aguadas",
    "nameWoDiacritics": "Aguadas",
    "subdivision": "CAL",
    "status": 7,
    "function": [
      2
    ],
    "date": 1407,
    "coordinates": {
      "lat": 5.6,
      "lon": -75.45
    }
  },
  {
    "country": "CO",
    "location": "ABL",
    "name": "Aguasblancas",
    "nameWoDiacritics": "Aguasblancas",
    "subdivision": "CES",
    "status": 7,
    "function": [
      2
    ],
    "date": 1601,
    "coordinates": {
      "lat": 10.216666666666667,
      "lon": -73.48333333333333
    }
  },
  {
    "country": "CO",
    "location": "AFI",
    "name": "Amalfi",
    "nameWoDiacritics": "Amalfi",
    "subdivision": "ANT",
    "status": 7,
    "function": [
      3
    ],
    "date": 907,
    "coordinates": {
      "lat": 6.916666666666667,
      "lon": -75.06666666666666
    }
  },
  {
    "country": "CO",
    "location": "AND",
    "name": "Andalucia",
    "nameWoDiacritics": "Andalucia",
    "status": 9,
    "function": [
      2
    ],
    "date": 607,
    "coordinates": {
      "lat": 5.216666666666667,
      "lon": -74.11666666666666
    }
  },
  {
    "country": "CO",
    "location": "ADN",
    "name": "Andes",
    "nameWoDiacritics": "Andes",
    "subdivision": "ANT",
    "status": 9,
    "function": [
      3
    ],
    "date": 901,
    "coordinates": {
      "lat": 5.65,
      "lon": -75.86666666666666
    }
  },
  {
    "country": "CO",
    "location": "AQA",
    "name": "Antioquia",
    "nameWoDiacritics": "Antioquia",
    "subdivision": "ANT",
    "status": 9,
    "function": [
      5
    ],
    "date": 1001,
    "coordinates": {
      "lat": 6.55,
      "lon": -75.81666666666666
    }
  },
  {
    "country": "CO",
    "location": "APO",
    "name": "Apartado",
    "nameWoDiacritics": "Apartado",
    "status": 3,
    "function": [
      3
    ],
    "date": 9601,
    "coordinates": {
      "lat": 0,
      "lon": 0
    }
  },
  {
    "country": "CO",
    "location": "LAP",
    "name": "ApartadÛ",
    "nameWoDiacritics": "Apartado",
    "subdivision": "ANT",
    "status": 7,
    "function": [
      2
    ],
    "date": 1707,
    "coordinates": {
      "lat": 7.883333333333333,
      "lon": -76.63333333333334
    }
  },
  {
    "country": "CO",
    "location": "API",
    "name": "Apiay",
    "nameWoDiacritics": "Apiay",
    "subdivision": "MET",
    "status": 7,
    "function": [
      3
    ],
    "date": 907,
    "coordinates": {
      "lat": 4.083333333333333,
      "lon": -73.56666666666666
    }
  },
  {
    "country": "CO",
    "location": "ARA",
    "name": "Aracataca",
    "nameWoDiacritics": "Aracataca",
    "subdivision": "MAG",
    "status": 7,
    "function": [
      2
    ],
    "date": 1601,
    "coordinates": {
      "lat": 10.583333333333334,
      "lon": -74.18333333333334
    }
  },
  {
    "country": "CO",
    "location": "ACR",
    "name": "Araracuara",
    "nameWoDiacritics": "Araracuara",
    "subdivision": "MET",
    "status": 9,
    "function": [
      3
    ],
    "date": 901,
    "coordinates": {
      "lat": 4.166666666666667,
      "lon": -72.96666666666667
    }
  },
  {
    "country": "CO",
    "location": "AUC",
    "name": "Arauca",
    "nameWoDiacritics": "Arauca",
    "status": 3,
    "function": [
      3
    ],
    "date": 9601,
    "coordinates": {
      "lat": 0,
      "lon": 0
    }
  },
  {
    "country": "CO",
    "location": "ARQ",
    "name": "Arauquita",
    "nameWoDiacritics": "Arauquita",
    "subdivision": "ARA",
    "status": 9,
    "function": [
      3
    ],
    "date": 901,
    "coordinates": {
      "lat": 7.016666666666667,
      "lon": -71.43333333333334
    }
  },
  {
    "country": "CO",
    "location": "ARO",
    "name": "Arboletas",
    "nameWoDiacritics": "Arboletas",
    "subdivision": "ANT",
    "status": 9,
    "function": [
      3
    ],
    "date": 901,
    "coordinates": {
      "lat": 8.833333333333334,
      "lon": -76.41666666666667
    }
  },
  {
    "country": "CO",
    "location": "ARE",
    "name": "Arenal",
    "nameWoDiacritics": "Arenal",
    "subdivision": "BOL",
    "status": 7,
    "function": [
      2
    ],
    "date": 1601,
    "coordinates": {
      "lat": 8.466666666666667,
      "lon": -73.95
    }
  },
  {
    "country": "CO",
    "location": "ACM",
    "name": "Arica",
    "nameWoDiacritics": "Arica",
    "status": 7,
    "function": [
      0,
      2
    ],
    "date": 601,
    "coordinates": {
      "lat": -2.1166666666666667,
      "lon": -71.73333333333333
    }
  },
  {
    "country": "CO",
    "location": "ARI",
    "name": "Ariguani",
    "nameWoDiacritics": "Ariguani",
    "subdivision": "CES",
    "status": 7,
    "function": [
      2
    ],
    "date": 1601,
    "coordinates": {
      "lat": 10.25,
      "lon": -74
    }
  },
  {
    "country": "CO",
    "location": "ARJ",
    "name": "Arjona",
    "nameWoDiacritics": "Arjona",
    "subdivision": "CES",
    "status": 7,
    "function": [
      2
    ],
    "date": 1601,
    "coordinates": {
      "lat": 9.533333333333333,
      "lon": -73.9
    }
  },
  {
    "country": "CO",
    "location": "AXM",
    "name": "Armenia",
    "nameWoDiacritics": "Armenia",
    "status": 3,
    "function": [
      3
    ],
    "date": 9601,
    "coordinates": {
      "lat": 0,
      "lon": 0
    }
  },
  {
    "country": "CO",
    "location": "AGY",
    "name": "Armero Guayabal",
    "nameWoDiacritics": "Armero Guayabal",
    "subdivision": "TOL",
    "status": 4,
    "function": [
      2
    ],
    "date": 2007,
    "coordinates": {
      "lat": 5.033333333333333,
      "lon": -74.88333333333334
    }
  },
  {
    "country": "CO",
    "location": "ASR",
    "name": "Astrea",
    "nameWoDiacritics": "Astrea",
    "status": 9,
    "function": [
      2
    ],
    "date": 607,
    "coordinates": {
      "lat": 9.5,
      "lon": -73.96666666666667
    }
  },
  {
    "country": "CO",
    "location": "AYC",
    "name": "Ayacucho",
    "nameWoDiacritics": "Ayacucho",
    "status": 9,
    "function": [
      3
    ],
    "date": 901,
    "coordinates": {
      "lat": 0,
      "lon": 0
    }
  },
  {
    "country": "CO",
    "location": "AYA",
    "name": "Ayapel",
    "nameWoDiacritics": "Ayapel",
    "status": 9,
    "function": [
      2
    ],
    "date": 607,
    "coordinates": {
      "lat": 8.316666666666666,
      "lon": -75.13333333333334
    }
  },
  {
    "country": "CO",
    "location": "BHF",
    "name": "BahÌa Cupica",
    "nameWoDiacritics": "Bahia Cupica",
    "subdivision": "CHO",
    "status": 7,
    "function": [
      3
    ],
    "date": 907,
    "coordinates": {
      "lat": 6.55,
      "lon": -77.33333333333333
    }
  },
  {
    "country": "CO",
    "location": "BSC",
    "name": "Bahia Solano",
    "nameWoDiacritics": "Bahia Solano",
    "subdivision": "CHO",
    "status": 9,
    "function": [
      3
    ],
    "date": 901,
    "coordinates": {
      "lat": 6.233333333333333,
      "lon": -77.41666666666667
    }
  },
  {
    "country": "CO",
    "location": "BAL",
    "name": "Balboa",
    "nameWoDiacritics": "Balboa",
    "subdivision": "CAU",
    "status": 7,
    "function": [
      0
    ],
    "date": 901,
    "coordinates": {
      "lat": 2.033333333333333,
      "lon": -77.21666666666667
    }
  },
  {
    "country": "CO",
    "location": "BAR",
    "name": "Baranoa",
    "nameWoDiacritics": "Baranoa",
    "subdivision": "ATL",
    "status": 7,
    "function": [
      2
    ],
    "date": 1601,
    "coordinates": {
      "lat": 10.783333333333333,
      "lon": -74.91666666666667
    }
  },
  {
    "country": "CO",
    "location": "BAA",
    "name": "Barbosa",
    "nameWoDiacritics": "Barbosa",
    "subdivision": "ANT",
    "status": 7,
    "function": [
      2
    ],
    "date": 1501,
    "coordinates": {
      "lat": 6.433333333333334,
      "lon": -75.31666666666666
    }
  },
  {
    "country": "CO",
    "location": "BAC",
    "name": "Barranca de Upia",
    "nameWoDiacritics": "Barranca de Upia",
    "subdivision": "CAS",
    "status": 9,
    "function": [
      3
    ],
    "date": 901,
    "coordinates": {
      "lat": 4.583333333333333,
      "lon": -72.96666666666667
    }
  },
  {
    "country": "CO",
    "location": "EJA",
    "name": "Barrancabermeja",
    "nameWoDiacritics": "Barrancabermeja",
    "status": 3,
    "function": [
      0,
      3
    ],
    "date": 9601,
    "coordinates": {
      "lat": 0,
      "lon": 0
    }
  },
  {
    "country": "CO",
    "location": "BRR",
    "name": "Barrancas",
    "nameWoDiacritics": "Barrancas",
    "subdivision": "LAG",
    "status": 7,
    "function": [
      2
    ],
    "date": 1601,
    "coordinates": {
      "lat": 10.95,
      "lon": -72.78333333333333
    }
  },
  {
    "country": "CO",
    "location": "NBB",
    "name": "Barrancominas",
    "nameWoDiacritics": "Barrancominas",
    "subdivision": "GUA",
    "status": 7,
    "function": [
      3
    ],
    "date": 907,
    "coordinates": {
      "lat": 3.3333333333333335,
      "lon": -70.33333333333333
    }
  },
  {
    "country": "CO",
    "location": "BAQ",
    "name": "Barranquilla",
    "nameWoDiacritics": "Barranquilla",
    "status": 3,
    "function": [
      0,
      3,
      4
    ],
    "date": 9601,
    "coordinates": {
      "lat": 0,
      "lon": 0
    }
  },
  {
    "country": "CO",
    "location": "BAY",
    "name": "Bayunca",
    "nameWoDiacritics": "Bayunca",
    "subdivision": "BOL",
    "status": 7,
    "function": [
      2
    ],
    "date": 1601,
    "coordinates": {
      "lat": 10.533333333333333,
      "lon": -75.4
    }
  },
  {
    "country": "CO",
    "location": "BEC",
    "name": "Becerril",
    "nameWoDiacritics": "Becerril",
    "subdivision": "CES",
    "status": 7,
    "function": [
      2
    ],
    "date": 1601,
    "coordinates": {
      "lat": 9.7,
      "lon": -73.28333333333333
    }
  },
  {
    "country": "CO",
    "location": "BLO",
    "name": "Bello",
    "nameWoDiacritics": "Bello",
    "subdivision": "ANT",
    "status": 7,
    "function": [
      2
    ],
    "date": 1501,
    "coordinates": {
      "lat": 6.333333333333333,
      "lon": -75.55
    }
  },
  {
    "country": "CO",
    "location": "BER",
    "name": "Berrugas",
    "nameWoDiacritics": "Berrugas",
    "subdivision": "SUC",
    "status": 7,
    "function": [
      2
    ],
    "date": 1601,
    "coordinates": {
      "lat": 9.7,
      "lon": -75.61666666666666
    }
  },
  {
    "country": "CO",
    "location": "BET",
    "name": "Betania",
    "nameWoDiacritics": "Betania",
    "status": 9,
    "function": [
      2
    ],
    "date": 607,
    "coordinates": {
      "lat": 5.75,
      "lon": -75.98333333333333
    }
  },
  {
    "country": "CO",
    "location": "BCC",
    "name": "Boca Chica",
    "nameWoDiacritics": "Boca Chica",
    "subdivision": "CAS",
    "status": 9,
    "function": [
      5
    ],
    "date": 901,
    "coordinates": {
      "lat": 0,
      "lon": 0
    }
  },
  {
    "country": "CO",
    "location": "BOG",
    "name": "Bogot·",
    "nameWoDiacritics": "Bogota",
    "subdivision": "CUN",
    "status": 3,
    "function": [
      1,
      2,
      3,
      4
    ],
    "date": 307,
    "coordinates": {
      "lat": 4.6,
      "lon": -74.08333333333333
    }
  },
  {
    "country": "CO",
    "location": "BOS",
    "name": "Bosconia",
    "nameWoDiacritics": "Bosconia",
    "subdivision": "CES",
    "status": 7,
    "function": [
      2
    ],
    "date": 1601,
    "coordinates": {
      "lat": 9.966666666666667,
      "lon": -73.88333333333334
    }
  },
  {
    "country": "CO",
    "location": "BGA",
    "name": "Bucaramanga",
    "nameWoDiacritics": "Bucaramanga",
    "status": 3,
    "function": [
      3
    ],
    "date": 9601,
    "coordinates": {
      "lat": 0,
      "lon": 0
    }
  },
  {
    "country": "CO",
    "location": "BUE",
    "name": "Buena Vista",
    "nameWoDiacritics": "Buena Vista",
    "subdivision": "COR",
    "status": 7,
    "function": [
      2
    ],
    "date": 1601,
    "coordinates": {
      "lat": 8.216666666666667,
      "lon": -75.48333333333333
    }
  },
  {
    "country": "CO",
    "location": "BUN",
    "name": "Buenaventura",
    "nameWoDiacritics": "Buenaventura",
    "status": 3,
    "function": [
      0,
      3
    ],
    "date": 9601,
    "coordinates": {
      "lat": 0,
      "lon": 0
    }
  },
  {
    "country": "CO",
    "location": "BUG",
    "name": "Buga",
    "nameWoDiacritics": "Buga",
    "status": 9,
    "function": [
      2
    ],
    "date": 607,
    "coordinates": {
      "lat": 2.183333333333333,
      "lon": -77.88333333333334
    }
  },
  {
    "country": "CO",
    "location": "CAP",
    "name": "Cachipay",
    "nameWoDiacritics": "Cachipay",
    "status": 9,
    "function": [
      2
    ],
    "date": 607,
    "coordinates": {
      "lat": 5,
      "lon": -72.53333333333333
    }
  },
  {
    "country": "CO",
    "location": "CJB",
    "name": "CajibÌo",
    "nameWoDiacritics": "Cajibio",
    "subdivision": "CAU",
    "status": 4,
    "function": [
      2
    ],
    "date": 2207,
    "coordinates": {
      "lat": 2.6333333333333333,
      "lon": -76.63333333333334
    }
  },
  {
    "country": "CO",
    "location": "CAJ",
    "name": "Cajica",
    "nameWoDiacritics": "Cajica",
    "subdivision": "CUN",
    "status": 9,
    "function": [
      5
    ],
    "date": 1007,
    "coordinates": {
      "lat": 4.916666666666667,
      "lon": -74.03333333333333
    }
  },
  {
    "country": "CO",
    "location": "CAL",
    "name": "Calamar",
    "nameWoDiacritics": "Calamar",
    "subdivision": "BOL",
    "status": 7,
    "function": [
      2
    ],
    "date": 1601,
    "coordinates": {
      "lat": 9,
      "lon": -74.36666666666666
    }
  },
  {
    "country": "CO",
    "location": "CLO",
    "name": "Cali",
    "nameWoDiacritics": "Cali",
    "status": 3,
    "function": [
      3
    ],
    "date": 9601,
    "coordinates": {
      "lat": 0,
      "lon": 0
    }
  },
  {
    "country": "CO",
    "location": "N6A",
    "name": "California",
    "nameWoDiacritics": "California",
    "subdivision": "SAN",
    "status": 7,
    "function": [
      2
    ],
    "date": 1607,
    "coordinates": {
      "lat": 7.35,
      "lon": -72.96666666666667
    }
  },
  {
    "country": "CO",
    "location": "XCO",
    "name": "Caloto",
    "nameWoDiacritics": "Caloto",
    "subdivision": "CAU",
    "status": 7,
    "function": [
      5
    ],
    "date": 1201,
    "coordinates": {
      "lat": 3.033333333333333,
      "lon": -76.4
    }
  },
  {
    "country": "CO",
    "location": "CAM",
    "name": "Camarones",
    "nameWoDiacritics": "Camarones",
    "subdivision": "LAG",
    "status": 7,
    "function": [
      2
    ],
    "date": 1601,
    "coordinates": {
      "lat": 11.416666666666666,
      "lon": -73.05
    }
  },
  {
    "country": "CO",
    "location": "CLC",
    "name": "Campo de La Cruz",
    "nameWoDiacritics": "Campo de La Cruz",
    "subdivision": "ATL",
    "status": 7,
    "function": [
      2
    ],
    "date": 1601,
    "coordinates": {
      "lat": 10.383333333333333,
      "lon": -74.88333333333334
    }
  },
  {
    "country": "CO",
    "location": "CAN",
    "name": "Candelaria",
    "nameWoDiacritics": "Candelaria",
    "subdivision": "VAC",
    "status": 7,
    "function": [
      5
    ],
    "date": 1801,
    "coordinates": {
      "lat": 3.4,
      "lon": -76.33333333333333
    }
  },
  {
    "country": "CO",
    "location": "CJD",
    "name": "Candilejas",
    "nameWoDiacritics": "Candilejas",
    "subdivision": "CAQ",
    "status": 7,
    "function": [
      3
    ],
    "date": 907,
    "coordinates": {
      "lat": 2.066666666666667,
      "lon": -74.58333333333333
    }
  },
  {
    "country": "CO",
    "location": "CPB",
    "name": "Capurgana",
    "nameWoDiacritics": "Capurgana",
    "subdivision": "CHO",
    "status": 7,
    "function": [
      3
    ],
    "date": 907,
    "coordinates": {
      "lat": 8.633333333333333,
      "lon": -77.33333333333333
    }
  },
  {
    "country": "CO",
    "location": "CQT",
    "name": "Caquetania",
    "nameWoDiacritics": "Caquetania",
    "status": 7,
    "function": [
      3
    ],
    "date": 907,
    "coordinates": {
      "lat": 2.033333333333333,
      "lon": -74.21666666666667
    }
  },
  {
    "country": "CO",
    "location": "CQZ",
    "name": "Caqueza",
    "nameWoDiacritics": "Caqueza",
    "subdivision": "CUN",
    "status": 4,
    "function": [
      2
    ],
    "date": 2207,
    "coordinates": {
      "lat": 4.4,
      "lon": -73.95
    }
  },
  {
    "country": "CO",
    "location": "CCO",
    "name": "Carimagua",
    "nameWoDiacritics": "Carimagua",
    "subdivision": "CAS",
    "status": 7,
    "function": [
      3
    ],
    "date": 907,
    "coordinates": {
      "lat": 4.566666666666666,
      "lon": -71.33333333333333
    }
  },
  {
    "country": "CO",
    "location": "CTG",
    "name": "Cartagena",
    "nameWoDiacritics": "Cartagena",
    "status": 3,
    "function": [
      0,
      3
    ],
    "date": 9601,
    "coordinates": {
      "lat": 0,
      "lon": 0
    }
  },
  {
    "country": "CO",
    "location": "CRC",
    "name": "Cartago",
    "nameWoDiacritics": "Cartago",
    "status": 3,
    "function": [
      0,
      3
    ],
    "date": 9601,
    "coordinates": {
      "lat": 0,
      "lon": 0
    }
  },
  {
    "country": "CO",
    "location": "CUO",
    "name": "Caruru",
    "nameWoDiacritics": "Caruru",
    "subdivision": "VAU",
    "status": 9,
    "function": [
      3
    ],
    "date": 901,
    "coordinates": {
      "lat": 1.0333333333333334,
      "lon": -71.23333333333333
    }
  },
  {
    "country": "CO",
    "location": "CAS",
    "name": "Casacar·",
    "nameWoDiacritics": "Casacara",
    "subdivision": "CES",
    "status": 7,
    "function": [
      2
    ],
    "date": 1601,
    "coordinates": {
      "lat": 9.816666666666666,
      "lon": -73.25
    }
  },
  {
    "country": "CO",
    "location": "CSR",
    "name": "Casuarito",
    "nameWoDiacritics": "Casuarito",
    "subdivision": "VID",
    "status": 7,
    "function": [
      3
    ],
    "date": 907,
    "coordinates": {
      "lat": 5.833333333333333,
      "lon": -68.13333333333334
    }
  },
  {
    "country": "CO",
    "location": "CAU",
    "name": "Cauca",
    "nameWoDiacritics": "Cauca",
    "subdivision": "CAU",
    "status": 7,
    "function": [
      2,
      5
    ],
    "date": 901,
    "coordinates": {
      "lat": 2.5666666666666664,
      "lon": -76.76666666666667
    }
  },
  {
    "country": "CO",
    "location": "CAQ",
    "name": "Caucasia",
    "nameWoDiacritics": "Caucasia",
    "subdivision": "ANT",
    "status": 7,
    "function": [
      3
    ],
    "date": 907,
    "coordinates": {
      "lat": 7.983333333333333,
      "lon": -75.2
    }
  },
  {
    "country": "CO",
    "location": "CCA",
    "name": "Centro Alegre",
    "nameWoDiacritics": "Centro Alegre",
    "subdivision": "COR",
    "status": 7,
    "function": [
      2
    ],
    "date": 1601,
    "coordinates": {
      "lat": 8.166666666666666,
      "lon": -75.63333333333334
    }
  },
  {
    "country": "CO",
    "location": "CER",
    "name": "CeretÈ",
    "nameWoDiacritics": "Cerete",
    "subdivision": "COR",
    "status": 7,
    "function": [
      2
    ],
    "date": 1601,
    "coordinates": {
      "lat": 8.883333333333333,
      "lon": -75.78333333333333
    }
  },
  {
    "country": "CO",
    "location": "CPL",
    "name": "Chaparral",
    "nameWoDiacritics": "Chaparral",
    "subdivision": "TOL",
    "status": 9,
    "function": [
      3
    ],
    "date": 901,
    "coordinates": {
      "lat": 3.7,
      "lon": -75.75
    }
  },
  {
    "country": "CO",
    "location": "CHI",
    "name": "Chia",
    "nameWoDiacritics": "Chia",
    "subdivision": "CUN",
    "status": 7,
    "function": [
      5
    ],
    "date": 1107,
    "coordinates": {
      "lat": 4.866666666666667,
      "lon": -74.06666666666666
    }
  },
  {
    "country": "CO",
    "location": "IGO",
    "name": "ChigorodÛ",
    "nameWoDiacritics": "Chigorodo",
    "subdivision": "ANT",
    "status": 3,
    "function": [
      3
    ],
    "date": 212,
    "coordinates": {
      "lat": 7.683333333333334,
      "lon": -76.68333333333334
    }
  },
  {
    "country": "CO",
    "location": "CHG",
    "name": "Chimichagua",
    "nameWoDiacritics": "Chimichagua",
    "subdivision": "CES",
    "status": 7,
    "function": [
      2
    ],
    "date": 1601,
    "coordinates": {
      "lat": 9.25,
      "lon": -73.81666666666666
    }
  },
  {
    "country": "CO",
    "location": "NNA",
    "name": "Chinchina",
    "nameWoDiacritics": "Chinchina",
    "subdivision": "CAL",
    "status": 9,
    "function": [
      5
    ],
    "date": 1001,
    "coordinates": {
      "lat": 4.966666666666667,
      "lon": -75.6
    }
  },
  {
    "country": "CO",
    "location": "CHU",
    "name": "Chin˙",
    "nameWoDiacritics": "Chinu",
    "subdivision": "COR",
    "status": 7,
    "function": [
      2
    ],
    "date": 1401,
    "coordinates": {
      "lat": 9.1,
      "lon": -75.38333333333334
    }
  },
  {
    "country": "CO",
    "location": "CHQ",
    "name": "Chiquinquir·",
    "nameWoDiacritics": "Chiquinquira",
    "subdivision": "BOY",
    "status": 7,
    "function": [
      2
    ],
    "date": 1601,
    "coordinates": {
      "lat": 5.616666666666667,
      "lon": -73.81666666666666
    }
  },
  {
    "country": "CO",
    "location": "CHN",
    "name": "Chiriguan·",
    "nameWoDiacritics": "Chiriguana",
    "subdivision": "CES",
    "status": 7,
    "function": [
      2
    ],
    "date": 1601,
    "coordinates": {
      "lat": 9.366666666666667,
      "lon": -73.58333333333333
    }
  },
  {
    "country": "CO",
    "location": "IVO",
    "name": "Chivolo",
    "nameWoDiacritics": "Chivolo",
    "subdivision": "MAG",
    "status": 9,
    "function": [
      3
    ],
    "date": 901,
    "coordinates": {
      "lat": 10.016666666666667,
      "lon": -74.63333333333334
    }
  },
  {
    "country": "CO",
    "location": "CIE",
    "name": "Cienaga",
    "nameWoDiacritics": "Cienaga",
    "status": 9,
    "function": [
      0
    ],
    "date": 9601,
    "coordinates": {
      "lat": 0,
      "lon": 0
    }
  },
  {
    "country": "CO",
    "location": "CDO",
    "name": "CiÈnaga de Oro",
    "nameWoDiacritics": "Cienaga de Oro",
    "subdivision": "COR",
    "status": 7,
    "function": [
      2
    ],
    "date": 1601,
    "coordinates": {
      "lat": 8.866666666666667,
      "lon": -75.61666666666666
    }
  },
  {
    "country": "CO",
    "location": "CIM",
    "name": "Cimitarra",
    "nameWoDiacritics": "Cimitarra",
    "status": 9,
    "function": [
      3
    ],
    "date": 901,
    "coordinates": {
      "lat": 0,
      "lon": 0
    }
  },
  {
    "country": "CO",
    "location": "DZI",
    "name": "Codazzi",
    "nameWoDiacritics": "Codazzi",
    "subdivision": "VID",
    "status": 9,
    "function": [
      3
    ],
    "date": 901,
    "coordinates": {
      "lat": 9.6,
      "lon": -73.45
    }
  },
  {
    "country": "CO",
    "location": "CGA",
    "name": "Cogua",
    "nameWoDiacritics": "Cogua",
    "subdivision": "COR",
    "status": 7,
    "function": [
      2
    ],
    "date": 1601,
    "coordinates": {
      "lat": 5.066666666666666,
      "lon": -73.98333333333333
    }
  },
  {
    "country": "CO",
    "location": "COL",
    "name": "Colomboy",
    "nameWoDiacritics": "Colomboy",
    "subdivision": "COR",
    "status": 7,
    "function": [
      2
    ],
    "date": 1601,
    "coordinates": {
      "lat": 8.75,
      "lon": -75.5
    }
  },
  {
    "country": "CO",
    "location": "COG",
    "name": "Condoto",
    "nameWoDiacritics": "Condoto",
    "subdivision": "CHO",
    "status": 9,
    "function": [
      3
    ],
    "date": 901,
    "coordinates": {
      "lat": 5.083333333333333,
      "lon": -76.61666666666666
    }
  },
  {
    "country": "CO",
    "location": "CNR",
    "name": "Contecar",
    "nameWoDiacritics": "Contecar",
    "subdivision": "BOL",
    "status": 9,
    "function": [
      0,
      2,
      5
    ],
    "date": 1607,
    "coordinates": {
      "lat": 10.383333333333333,
      "lon": -75.51666666666667
    }
  },
  {
    "country": "CO",
    "location": "CZU",
    "name": "Corozal",
    "nameWoDiacritics": "Corozal",
    "status": 9,
    "function": [
      3
    ],
    "date": 901,
    "coordinates": {
      "lat": 0,
      "lon": 0
    }
  },
  {
    "country": "CO",
    "location": "COT",
    "name": "Cota",
    "nameWoDiacritics": "Cota",
    "subdivision": "CUN",
    "status": 9,
    "function": [
      5
    ],
    "date": 1007,
    "coordinates": {
      "lat": 4.816666666666666,
      "lon": -74.1
    }
  },
  {
    "country": "CO",
    "location": "COR",
    "name": "Cotorra",
    "nameWoDiacritics": "Cotorra",
    "subdivision": "COR",
    "status": 7,
    "function": [
      2
    ],
    "date": 1601,
    "coordinates": {
      "lat": 9.05,
      "lon": -75.8
    }
  },
  {
    "country": "CO",
    "location": "CVE",
    "name": "CoveÒas",
    "nameWoDiacritics": "Covenas",
    "subdivision": "SUC",
    "status": 3,
    "function": [
      3
    ],
    "date": 1307,
    "coordinates": {
      "lat": 9.416666666666666,
      "lon": -75.7
    }
  },
  {
    "country": "CO",
    "location": "COV",
    "name": "Covenas Offshore Terminal",
    "nameWoDiacritics": "Covenas Offshore Terminal",
    "subdivision": "SUC",
    "status": 7,
    "function": [
      0
    ],
    "date": 1207,
    "coordinates": {
      "lat": 9.5,
      "lon": -75.73333333333333
    }
  },
  {
    "country": "CO",
    "location": "RAV",
    "name": "Cravo Norte",
    "nameWoDiacritics": "Cravo Norte",
    "subdivision": "ARA",
    "status": 9,
    "function": [
      3
    ],
    "date": 901,
    "coordinates": {
      "lat": 6.3,
      "lon": -70.2
    }
  },
  {
    "country": "CO",
    "location": "CUC",
    "name": "Cucuta",
    "nameWoDiacritics": "Cucuta",
    "status": 3,
    "function": [
      3
    ],
    "date": 9601,
    "coordinates": {
      "lat": 0,
      "lon": 0
    }
  },
  {
    "country": "CO",
    "location": "CUI",
    "name": "Currillo",
    "nameWoDiacritics": "Currillo",
    "subdivision": "CAQ",
    "status": 9,
    "function": [
      3
    ],
    "date": 901,
    "coordinates": {
      "lat": 1.0333333333333334,
      "lon": -75.88333333333334
    }
  },
  {
    "country": "CO",
    "location": "CUR",
    "name": "CurumanÌ",
    "nameWoDiacritics": "Curumani",
    "subdivision": "CES",
    "status": 7,
    "function": [
      2
    ],
    "date": 1601,
    "coordinates": {
      "lat": 9.2,
      "lon": -73.53333333333333
    }
  },
  {
    "country": "CO",
    "location": "DAB",
    "name": "Dabeiba",
    "nameWoDiacritics": "Dabeiba",
    "status": 9,
    "function": [
      2
    ],
    "date": 607,
    "coordinates": {
      "lat": 7,
      "lon": -76.26666666666667
    }
  },
  {
    "country": "CO",
    "location": "DQS",
    "name": "Dos Quebradas",
    "nameWoDiacritics": "Dos Quebradas",
    "subdivision": "RIS",
    "status": 7,
    "function": [
      2
    ],
    "date": 1501,
    "coordinates": {
      "lat": 4.833333333333333,
      "lon": -75.66666666666667
    }
  },
  {
    "country": "CO",
    "location": "DUE",
    "name": "Duitama",
    "nameWoDiacritics": "Duitama",
    "subdivision": "BOY",
    "status": 7,
    "function": [
      2
    ],
    "date": 1501,
    "coordinates": {
      "lat": 5.816666666666666,
      "lon": -73.01666666666667
    }
  },
  {
    "country": "CO",
    "location": "DUR",
    "name": "Durania",
    "nameWoDiacritics": "Durania",
    "status": 9,
    "function": [
      2
    ],
    "date": 607,
    "coordinates": {
      "lat": 10.033333333333333,
      "lon": -73.88333333333334
    }
  },
  {
    "country": "CO",
    "location": "EBJ",
    "name": "Ebejico",
    "nameWoDiacritics": "Ebejico",
    "subdivision": "ANT",
    "status": 4,
    "function": [
      2
    ],
    "date": 2207,
    "coordinates": {
      "lat": 6.333333333333333,
      "lon": -75.76666666666667
    }
  },
  {
    "country": "CO",
    "location": "EBG",
    "name": "El Bagre",
    "nameWoDiacritics": "El Bagre",
    "status": 3,
    "function": [
      3
    ],
    "date": 9601,
    "coordinates": {
      "lat": 0,
      "lon": 0
    }
  },
  {
    "country": "CO",
    "location": "ELB",
    "name": "El Banco",
    "nameWoDiacritics": "El Banco",
    "subdivision": "MAG",
    "status": 9,
    "function": [
      3
    ],
    "date": 901,
    "coordinates": {
      "lat": 9.033333333333333,
      "lon": -73.96666666666667
    }
  },
  {
    "country": "CO",
    "location": "EBQ",
    "name": "El Bosque",
    "nameWoDiacritics": "El Bosque",
    "status": 7,
    "function": [
      0
    ],
    "date": 1,
    "coordinates": {
      "lat": 0,
      "lon": 0
    }
  },
  {
    "country": "CO",
    "location": "ECB",
    "name": "El Carmen de BolÌvar",
    "nameWoDiacritics": "El Carmen de Bolivar",
    "subdivision": "BOL",
    "status": 7,
    "function": [
      1,
      2
    ],
    "date": 1407,
    "coordinates": {
      "lat": 9.716666666666667,
      "lon": -75.11666666666666
    }
  },
  {
    "country": "CO",
    "location": "ECR",
    "name": "El Charco",
    "nameWoDiacritics": "El Charco",
    "subdivision": "NAR",
    "status": 9,
    "function": [
      3
    ],
    "date": 901,
    "coordinates": {
      "lat": 2.466666666666667,
      "lon": -78.01666666666667
    }
  },
  {
    "country": "CO",
    "location": "ECO",
    "name": "El Encanto",
    "nameWoDiacritics": "El Encanto",
    "subdivision": "AMA",
    "status": 7,
    "function": [
      3
    ],
    "date": 907,
    "coordinates": {
      "lat": -1.6166666666666667,
      "lon": -73.23333333333333
    }
  },
  {
    "country": "CO",
    "location": "EES",
    "name": "El Espino",
    "nameWoDiacritics": "El Espino",
    "status": 9,
    "function": [
      2
    ],
    "date": 607,
    "coordinates": {
      "lat": 6.466666666666667,
      "lon": -72.5
    }
  },
  {
    "country": "CO",
    "location": "ELP",
    "name": "El Paso",
    "nameWoDiacritics": "El Paso",
    "subdivision": "CES",
    "status": 7,
    "function": [
      2
    ],
    "date": 1601,
    "coordinates": {
      "lat": 9.65,
      "lon": -73.75
    }
  },
  {
    "country": "CO",
    "location": "EPI",
    "name": "El PenÛn",
    "nameWoDiacritics": "El Penon",
    "subdivision": "MAG",
    "status": 7,
    "function": [
      2
    ],
    "date": 1601,
    "coordinates": {
      "lat": 10.4,
      "lon": -74.81666666666666
    }
  },
  {
    "country": "CO",
    "location": "PBD",
    "name": "El Poblado",
    "nameWoDiacritics": "El Poblado",
    "subdivision": "ANT",
    "status": 7,
    "function": [
      5
    ],
    "date": 1201,
    "coordinates": {
      "lat": 6.216666666666667,
      "lon": -75.56666666666666
    }
  },
  {
    "country": "CO",
    "location": "ELJ",
    "name": "El RecrÈo",
    "nameWoDiacritics": "El Recreo",
    "subdivision": "HUI",
    "status": 7,
    "function": [
      3
    ],
    "date": 907,
    "coordinates": {
      "lat": 2.3333333333333335,
      "lon": -75.93333333333334
    }
  },
  {
    "country": "CO",
    "location": "ESN",
    "name": "El Santuario",
    "nameWoDiacritics": "El Santuario",
    "subdivision": "ANT",
    "status": 7,
    "function": [
      2
    ],
    "date": 1407,
    "coordinates": {
      "lat": 6.133333333333334,
      "lon": -75.25
    }
  },
  {
    "country": "CO",
    "location": "EYP",
    "name": "El Yopal",
    "nameWoDiacritics": "El Yopal",
    "subdivision": "CAS",
    "status": 9,
    "function": [
      3
    ],
    "date": 901,
    "coordinates": {
      "lat": 5.333333333333333,
      "lon": -72.36666666666666
    }
  },
  {
    "country": "CO",
    "location": "ENV",
    "name": "Envigado",
    "nameWoDiacritics": "Envigado",
    "subdivision": "ANT",
    "status": 9,
    "function": [
      0,
      2
    ],
    "date": 901,
    "coordinates": {
      "lat": 0,
      "lon": 0
    }
  },
  {
    "country": "CO",
    "location": "TOL",
    "name": "Espinal",
    "nameWoDiacritics": "Espinal",
    "subdivision": "TOL",
    "status": 7,
    "function": [
      5
    ],
    "date": 1807,
    "coordinates": {
      "lat": 4.15,
      "lon": -74.88333333333334
    }
  },
  {
    "country": "CO",
    "location": "9FC",
    "name": "Facatativa",
    "nameWoDiacritics": "Facatativa",
    "subdivision": "CUN",
    "status": 7,
    "function": [
      2
    ],
    "date": 1301,
    "coordinates": {
      "lat": 4.816666666666666,
      "lon": -74.36666666666666
    }
  },
  {
    "country": "CO",
    "location": "FLA",
    "name": "Florencia",
    "nameWoDiacritics": "Florencia",
    "status": 3,
    "function": [
      2,
      3
    ],
    "date": 101,
    "coordinates": {
      "lat": 0,
      "lon": 0
    }
  },
  {
    "country": "CO",
    "location": "FLC",
    "name": "Floridablanca",
    "nameWoDiacritics": "Floridablanca",
    "subdivision": "SAN",
    "status": 7,
    "function": [
      2
    ],
    "date": 1501,
    "coordinates": {
      "lat": 7.05,
      "lon": -73.08333333333333
    }
  },
  {
    "country": "CO",
    "location": "FON",
    "name": "Fonseca",
    "nameWoDiacritics": "Fonseca",
    "subdivision": "LAG",
    "status": 7,
    "function": [
      2
    ],
    "date": 1601,
    "coordinates": {
      "lat": 10.883333333333333,
      "lon": -72.85
    }
  },
  {
    "country": "CO",
    "location": "FUN",
    "name": "Fundacion",
    "nameWoDiacritics": "Fundacion",
    "status": 9,
    "function": [
      2
    ],
    "date": 607,
    "coordinates": {
      "lat": 4.016666666666667,
      "lon": -74.45
    }
  },
  {
    "country": "CO",
    "location": "FZA",
    "name": "Funza",
    "nameWoDiacritics": "Funza",
    "subdivision": "CUN",
    "status": 7,
    "function": [
      2
    ],
    "date": 1401,
    "coordinates": {
      "lat": 4.716666666666667,
      "lon": -74.21666666666667
    }
  },
  {
    "country": "CO",
    "location": "FUS",
    "name": "Fusagasuga",
    "nameWoDiacritics": "Fusagasuga",
    "subdivision": "CUN",
    "status": 4,
    "function": [
      2
    ],
    "date": 2207,
    "coordinates": {
      "lat": 4.35,
      "lon": -74.36666666666666
    }
  },
  {
    "country": "CO",
    "location": "GAC",
    "name": "Gacheta",
    "nameWoDiacritics": "Gacheta",
    "subdivision": "CUN",
    "status": 4,
    "function": [
      2
    ],
    "date": 2207,
    "coordinates": {
      "lat": 4.816666666666666,
      "lon": -73.63333333333334
    }
  },
  {
    "country": "CO",
    "location": "GLP",
    "name": "Galapa",
    "nameWoDiacritics": "Galapa",
    "subdivision": "ATL",
    "status": 7,
    "function": [
      1,
      2
    ],
    "date": 1307,
    "coordinates": {
      "lat": 10.9,
      "lon": -74.88333333333334
    }
  },
  {
    "country": "CO",
    "location": "GRL",
    "name": "Galeras",
    "nameWoDiacritics": "Galeras",
    "subdivision": "SUC",
    "status": 7,
    "function": [
      2
    ],
    "date": 1601,
    "coordinates": {
      "lat": 9.15,
      "lon": -75.05
    }
  },
  {
    "country": "CO",
    "location": "GAL",
    "name": "Galicia",
    "nameWoDiacritics": "Galicia",
    "subdivision": "VAC",
    "status": 7,
    "function": [
      5
    ],
    "date": 1107,
    "coordinates": {
      "lat": 4.166666666666667,
      "lon": -76.05
    }
  },
  {
    "country": "CO",
    "location": "GAM",
    "name": "Gamarra",
    "nameWoDiacritics": "Gamarra",
    "status": 9,
    "function": [
      2
    ],
    "date": 607,
    "coordinates": {
      "lat": 8.333333333333334,
      "lon": -73.73333333333333
    }
  },
  {
    "country": "CO",
    "location": "GRA",
    "name": "Gamarra",
    "nameWoDiacritics": "Gamarra",
    "subdivision": "CES",
    "status": 9,
    "function": [
      3
    ],
    "date": 901,
    "coordinates": {
      "lat": 8.333333333333334,
      "lon": -73.68333333333334
    }
  },
  {
    "country": "CO",
    "location": "GAR",
    "name": "Garagoa",
    "nameWoDiacritics": "Garagoa",
    "status": 9,
    "function": [
      2
    ],
    "date": 607,
    "coordinates": {
      "lat": 5.083333333333333,
      "lon": -73.36666666666666
    }
  },
  {
    "country": "CO",
    "location": "GAZ",
    "name": "Garzon",
    "nameWoDiacritics": "Garzon",
    "status": 9,
    "function": [
      2
    ],
    "date": 607,
    "coordinates": {
      "lat": 4.833333333333333,
      "lon": -72.3
    }
  },
  {
    "country": "CO",
    "location": "GGL",
    "name": "Gilgal",
    "nameWoDiacritics": "Gilgal",
    "subdivision": "CHO",
    "status": 9,
    "function": [
      3
    ],
    "date": 901,
    "coordinates": {
      "lat": 8.333333333333334,
      "lon": -77.08333333333333
    }
  },
  {
    "country": "CO",
    "location": "GIR",
    "name": "Girardot",
    "nameWoDiacritics": "Girardot",
    "subdivision": "CUN",
    "status": 9,
    "function": [
      3
    ],
    "date": 901,
    "coordinates": {
      "lat": 4.283333333333333,
      "lon": -74.8
    }
  },
  {
    "country": "CO",
    "location": "GDT",
    "name": "Girardota",
    "nameWoDiacritics": "Girardota",
    "subdivision": "ANT",
    "status": 4,
    "function": [
      2
    ],
    "date": 2207,
    "coordinates": {
      "lat": 6.383333333333334,
      "lon": -75.45
    }
  },
  {
    "country": "CO",
    "location": "GIN",
    "name": "GirÛn",
    "nameWoDiacritics": "Giron",
    "subdivision": "SAN",
    "status": 7,
    "function": [
      2
    ],
    "date": 1501,
    "coordinates": {
      "lat": 7.066666666666666,
      "lon": -73.16666666666667
    }
  },
  {
    "country": "CO",
    "location": "GRD",
    "name": "Granada",
    "nameWoDiacritics": "Granada",
    "subdivision": "ANT",
    "status": 7,
    "function": [
      2
    ],
    "date": 1407,
    "coordinates": {
      "lat": 6.133333333333334,
      "lon": -75.18333333333334
    }
  },
  {
    "country": "CO",
    "location": "GCA",
    "name": "Guacamaya",
    "nameWoDiacritics": "Guacamaya",
    "subdivision": "HUI",
    "status": 9,
    "function": [
      3
    ],
    "date": 901,
    "coordinates": {
      "lat": 2.3166666666666664,
      "lon": -75.5
    }
  },
  {
    "country": "CO",
    "location": "GHN",
    "name": "Guachene",
    "nameWoDiacritics": "Guachene",
    "subdivision": "CAU",
    "status": 7,
    "function": [
      5
    ],
    "date": 1107,
    "coordinates": {
      "lat": 3.1333333333333333,
      "lon": -76.38333333333334
    }
  },
  {
    "country": "CO",
    "location": "GUA",
    "name": "Guaduas",
    "nameWoDiacritics": "Guaduas",
    "status": 9,
    "function": [
      2
    ],
    "date": 607,
    "coordinates": {
      "lat": 5.766666666666667,
      "lon": -76.16666666666667
    }
  },
  {
    "country": "CO",
    "location": "GAA",
    "name": "Guamal",
    "nameWoDiacritics": "Guamal",
    "subdivision": "MAG",
    "status": 7,
    "function": [
      3
    ],
    "date": 907,
    "coordinates": {
      "lat": 9.15,
      "lon": -74.23333333333333
    }
  },
  {
    "country": "CO",
    "location": "GPI",
    "name": "Guapi",
    "nameWoDiacritics": "Guapi",
    "subdivision": "CAU",
    "status": 9,
    "function": [
      3
    ],
    "date": 901,
    "coordinates": {
      "lat": 2.5666666666666664,
      "lon": -77.9
    }
  },
  {
    "country": "CO",
    "location": "GUP",
    "name": "Guapi",
    "nameWoDiacritics": "Guapi",
    "status": 9,
    "function": [
      2
    ],
    "date": 607,
    "coordinates": {
      "lat": 2.5833333333333335,
      "lon": -77.9
    }
  },
  {
    "country": "CO",
    "location": "GST",
    "name": "Guaranao",
    "nameWoDiacritics": "Guaranao",
    "subdivision": "SAN",
    "status": 9,
    "function": [
      5
    ],
    "date": 901,
    "coordinates": {
      "lat": 0,
      "lon": 0
    }
  },
  {
    "country": "CO",
    "location": "GUD",
    "name": "Guaranda",
    "nameWoDiacritics": "Guaranda",
    "subdivision": "COR",
    "status": 7,
    "function": [
      2
    ],
    "date": 1601,
    "coordinates": {
      "lat": 8.466666666666667,
      "lon": -75.53333333333333
    }
  },
  {
    "country": "CO",
    "location": "GUN",
    "name": "Guarne",
    "nameWoDiacritics": "Guarne",
    "subdivision": "ANT",
    "status": 4,
    "function": [
      2
    ],
    "date": 2207,
    "coordinates": {
      "lat": 6.283333333333333,
      "lon": -75.45
    }
  },
  {
    "country": "CO",
    "location": "GTI",
    "name": "Guatica",
    "nameWoDiacritics": "Guatica",
    "subdivision": "RIS",
    "status": 4,
    "function": [
      2
    ],
    "date": 2101,
    "coordinates": {
      "lat": 5.316666666666666,
      "lon": -75.8
    }
  },
  {
    "country": "CO",
    "location": "GMC",
    "name": "Guerima",
    "nameWoDiacritics": "Guerima",
    "status": 7,
    "function": [
      3
    ],
    "date": 907,
    "coordinates": {
      "lat": 3.6333333333333333,
      "lon": -71.16666666666667
    }
  },
  {
    "country": "CO",
    "location": "HTZ",
    "name": "Hato Corozal",
    "nameWoDiacritics": "Hato Corozal",
    "subdivision": "CAS",
    "status": 9,
    "function": [
      3
    ],
    "date": 901,
    "coordinates": {
      "lat": 6.15,
      "lon": -71.76666666666667
    }
  },
  {
    "country": "CO",
    "location": "HAT",
    "name": "Hato Nuevo",
    "nameWoDiacritics": "Hato Nuevo",
    "subdivision": "LAG",
    "status": 7,
    "function": [
      2
    ],
    "date": 1601,
    "coordinates": {
      "lat": 11.066666666666666,
      "lon": -72.76666666666667
    }
  },
  {
    "country": "CO",
    "location": "HRR",
    "name": "Herrera",
    "nameWoDiacritics": "Herrera",
    "subdivision": "TOL",
    "status": 9,
    "function": [
      3
    ],
    "date": 901,
    "coordinates": {
      "lat": 3.216666666666667,
      "lon": -75.85
    }
  },
  {
    "country": "CO",
    "location": "IBE",
    "name": "Ibaque",
    "nameWoDiacritics": "Ibaque",
    "subdivision": "TOL",
    "status": 9,
    "function": [
      3
    ],
    "date": 901,
    "coordinates": {
      "lat": 4.433333333333334,
      "lon": -75.23333333333333
    }
  },
  {
    "country": "CO",
    "location": "ICO",
    "name": "Icononzo",
    "nameWoDiacritics": "Icononzo",
    "subdivision": "TOL",
    "status": 4,
    "function": [
      2
    ],
    "date": 2207,
    "coordinates": {
      "lat": 4.183333333333334,
      "lon": -74.53333333333333
    }
  },
  {
    "country": "CO",
    "location": "PDA",
    "name": "InÌrida",
    "nameWoDiacritics": "Inirida",
    "subdivision": "GUA",
    "status": 3,
    "function": [
      2,
      3
    ],
    "date": 1101,
    "coordinates": {
      "lat": 3.85,
      "lon": -67.91666666666667
    }
  },
  {
    "country": "CO",
    "location": "IPI",
    "name": "Ipiales",
    "nameWoDiacritics": "Ipiales",
    "subdivision": "NAR",
    "status": 9,
    "function": [
      3
    ],
    "date": 901,
    "coordinates": {
      "lat": 0.8166666666666667,
      "lon": -77.63333333333334
    }
  },
  {
    "country": "CO",
    "location": "ISD",
    "name": "Iscuande",
    "nameWoDiacritics": "Iscuande",
    "subdivision": "NAR",
    "status": 9,
    "function": [
      3
    ],
    "date": 901,
    "coordinates": {
      "lat": 0.8166666666666667,
      "lon": -77.63333333333334
    }
  },
  {
    "country": "CO",
    "location": "ITG",
    "name": "Itagui",
    "nameWoDiacritics": "Itagui",
    "subdivision": "ANT",
    "status": 9,
    "function": [
      5
    ],
    "date": 1001,
    "coordinates": {
      "lat": 6.166666666666667,
      "lon": -75.6
    }
  },
  {
    "country": "CO",
    "location": "JAR",
    "name": "Jardin",
    "nameWoDiacritics": "Jardin",
    "subdivision": "ANT",
    "status": 4,
    "function": [
      2
    ],
    "date": 2201,
    "coordinates": {
      "lat": 5.6,
      "lon": -75.81666666666666
    }
  },
  {
    "country": "CO",
    "location": "JER",
    "name": "JericÛ",
    "nameWoDiacritics": "Jerico",
    "subdivision": "ANT",
    "status": 7,
    "function": [
      2
    ],
    "date": 1407,
    "coordinates": {
      "lat": 5.783333333333333,
      "lon": -75.78333333333333
    }
  },
  {
    "country": "CO",
    "location": "JDA",
    "name": "Juan de Acosta",
    "nameWoDiacritics": "Juan de Acosta",
    "subdivision": "ATL",
    "status": 7,
    "function": [
      2
    ],
    "date": 1601,
    "coordinates": {
      "lat": 10.816666666666666,
      "lon": -75.03333333333333
    }
  },
  {
    "country": "CO",
    "location": "JUO",
    "name": "Jurado",
    "nameWoDiacritics": "Jurado",
    "subdivision": "CHO",
    "status": 7,
    "function": [
      3
    ],
    "date": 907,
    "coordinates": {
      "lat": 6.516666666666667,
      "lon": -76.6
    }
  },
  {
    "country": "CO",
    "location": "APA",
    "name": "La Apartada",
    "nameWoDiacritics": "La Apartada",
    "subdivision": "COR",
    "status": 7,
    "function": [
      2
    ],
    "date": 1707,
    "coordinates": {
      "lat": 8.1,
      "lon": -75.36666666666666
    }
  },
  {
    "country": "CO",
    "location": "LAU",
    "name": "La Aurora",
    "nameWoDiacritics": "La Aurora",
    "subdivision": "CES",
    "status": 7,
    "function": [
      2
    ],
    "date": 1601,
    "coordinates": {
      "lat": 9.466666666666667,
      "lon": -73.55
    }
  },
  {
    "country": "CO",
    "location": "LCR",
    "name": "La Chorrera",
    "nameWoDiacritics": "La Chorrera",
    "subdivision": "AMA",
    "status": 7,
    "function": [
      3
    ],
    "date": 907,
    "coordinates": {
      "lat": -0.7333333333333333,
      "lon": -73.01666666666667
    }
  },
  {
    "country": "CO",
    "location": "LAD",
    "name": "La Dorada",
    "nameWoDiacritics": "La Dorada",
    "status": 7,
    "function": [
      2
    ],
    "date": 1707,
    "coordinates": {
      "lat": 5.466666666666667,
      "lon": -74.66666666666667
    }
  },
  {
    "country": "CO",
    "location": "LAA",
    "name": "La Estrella",
    "nameWoDiacritics": "La Estrella",
    "subdivision": "ANT",
    "status": 7,
    "function": [
      2
    ],
    "date": 1101,
    "coordinates": {
      "lat": 6.25,
      "lon": -74.61666666666666
    }
  },
  {
    "country": "CO",
    "location": "LJG",
    "name": "La Jagua de Ibirico",
    "nameWoDiacritics": "La Jagua de Ibirico",
    "subdivision": "CES",
    "status": 7,
    "function": [
      5
    ],
    "date": 1201,
    "coordinates": {
      "lat": 9.55,
      "lon": -73.33333333333333
    }
  },
  {
    "country": "CO",
    "location": "LLO",
    "name": "La Loma",
    "nameWoDiacritics": "La Loma",
    "subdivision": "CES",
    "status": 7,
    "function": [
      2
    ],
    "date": 1601,
    "coordinates": {
      "lat": 9.616666666666667,
      "lon": -73.58333333333333
    }
  },
  {
    "country": "CO",
    "location": "LPD",
    "name": "La Pedrera",
    "nameWoDiacritics": "La Pedrera",
    "subdivision": "AMA",
    "status": 9,
    "function": [
      3
    ],
    "date": 901,
    "coordinates": {
      "lat": -1.25,
      "lon": -69.71666666666667
    }
  },
  {
    "country": "CO",
    "location": "LPE",
    "name": "La Primavera",
    "nameWoDiacritics": "La Primavera",
    "status": 7,
    "function": [
      3
    ],
    "date": 907,
    "coordinates": {
      "lat": 3.7333333333333334,
      "lon": -76.21666666666667
    }
  },
  {
    "country": "CO",
    "location": "LAT",
    "name": "La Uribe",
    "nameWoDiacritics": "La Uribe",
    "subdivision": "DC",
    "status": 9,
    "function": [
      3
    ],
    "date": 901,
    "coordinates": {
      "lat": 4.75,
      "lon": -74.05
    }
  },
  {
    "country": "CO",
    "location": "LMC",
    "name": "Lamacarena",
    "nameWoDiacritics": "Lamacarena",
    "subdivision": "MET",
    "status": 9,
    "function": [
      3
    ],
    "date": 901,
    "coordinates": {
      "lat": 3.3166666666666664,
      "lon": -73.9
    }
  },
  {
    "country": "CO",
    "location": "LGT",
    "name": "Las Gaviotas",
    "nameWoDiacritics": "Las Gaviotas",
    "subdivision": "BOL",
    "status": 9,
    "function": [
      3
    ],
    "date": 901,
    "coordinates": {
      "lat": 9.166666666666666,
      "lon": -72.48333333333333
    }
  },
  {
    "country": "CO",
    "location": "LPS",
    "name": "Las Palomas",
    "nameWoDiacritics": "Las Palomas",
    "subdivision": "COR",
    "status": 7,
    "function": [
      2
    ],
    "date": 1601,
    "coordinates": {
      "lat": 8.45,
      "lon": -76
    }
  },
  {
    "country": "CO",
    "location": "LEB",
    "name": "Lebrija",
    "nameWoDiacritics": "Lebrija",
    "subdivision": "SAN",
    "status": 7,
    "function": [
      2
    ],
    "date": 1601,
    "coordinates": {
      "lat": 7.116666666666666,
      "lon": -73.21666666666667
    }
  },
  {
    "country": "CO",
    "location": "LEJ",
    "name": "Lejanias",
    "nameWoDiacritics": "Lejanias",
    "status": 9,
    "function": [
      2
    ],
    "date": 607,
    "coordinates": {
      "lat": 3.5166666666666666,
      "lon": -74.01666666666667
    }
  },
  {
    "country": "CO",
    "location": "LET",
    "name": "Leticia",
    "nameWoDiacritics": "Leticia",
    "subdivision": "AMA",
    "status": 3,
    "function": [
      0,
      3
    ],
    "date": 1307,
    "coordinates": {
      "lat": -4.216666666666667,
      "lon": -69.93333333333334
    }
  },
  {
    "country": "CO",
    "location": "LMX",
    "name": "Lopez de Micay Apt/Micay",
    "nameWoDiacritics": "Lopez de Micay Apt/Micay",
    "subdivision": "CAU",
    "status": 7,
    "function": [
      3
    ],
    "date": 907,
    "coordinates": {
      "lat": 3.05,
      "lon": -77.55
    }
  },
  {
    "country": "CO",
    "location": "LRI",
    "name": "Lorica",
    "nameWoDiacritics": "Lorica",
    "subdivision": "COR",
    "status": 9,
    "function": [
      3
    ],
    "date": 901,
    "coordinates": {
      "lat": 9.016666666666667,
      "lon": -75.7
    }
  },
  {
    "country": "CO",
    "location": "LCO",
    "name": "Los CÛrdobas",
    "nameWoDiacritics": "Los Cordobas",
    "subdivision": "COR",
    "status": 7,
    "function": [
      2
    ],
    "date": 1601,
    "coordinates": {
      "lat": 8.9,
      "lon": -76.35
    }
  },
  {
    "country": "CO",
    "location": "NAD",
    "name": "Macanal",
    "nameWoDiacritics": "Macanal",
    "subdivision": "CAU",
    "status": 7,
    "function": [
      3
    ],
    "date": 907,
    "coordinates": {
      "lat": 3.05,
      "lon": -77.55
    }
  },
  {
    "country": "CO",
    "location": "MAC",
    "name": "Macedonia",
    "nameWoDiacritics": "Macedonia",
    "status": 9,
    "function": [
      2
    ],
    "date": 607,
    "coordinates": {
      "lat": 8.65,
      "lon": -73.91666666666667
    }
  },
  {
    "country": "CO",
    "location": "MDD",
    "name": "Madrid",
    "nameWoDiacritics": "Madrid",
    "subdivision": "CUN",
    "status": 7,
    "function": [
      2
    ],
    "date": 1501,
    "coordinates": {
      "lat": 4.733333333333333,
      "lon": -74.26666666666667
    }
  },
  {
    "country": "CO",
    "location": "MGN",
    "name": "Magangue",
    "nameWoDiacritics": "Magangue",
    "subdivision": "BOL",
    "status": 9,
    "function": [
      3
    ],
    "date": 901,
    "coordinates": {
      "lat": 9.283333333333333,
      "lon": -74.83333333333333
    }
  },
  {
    "country": "CO",
    "location": "MCJ",
    "name": "Maicao",
    "nameWoDiacritics": "Maicao",
    "status": 9,
    "function": [
      3
    ],
    "date": 901,
    "coordinates": {
      "lat": 0,
      "lon": 0
    }
  },
  {
    "country": "CO",
    "location": "MAJ",
    "name": "Majagual",
    "nameWoDiacritics": "Majagual",
    "subdivision": "SUC",
    "status": 7,
    "function": [
      2
    ],
    "date": 1601,
    "coordinates": {
      "lat": 8.533333333333333,
      "lon": -74.61666666666666
    }
  },
  {
    "country": "CO",
    "location": "MAL",
    "name": "Malambo",
    "nameWoDiacritics": "Malambo",
    "subdivision": "ATL",
    "status": 7,
    "function": [
      2
    ],
    "date": 1401,
    "coordinates": {
      "lat": 10.85,
      "lon": -74.76666666666667
    }
  },
  {
    "country": "CO",
    "location": "MAM",
    "name": "Mamonal",
    "nameWoDiacritics": "Mamonal",
    "subdivision": "BOL",
    "status": 7,
    "function": [
      0
    ],
    "date": 1307,
    "coordinates": {
      "lat": 10.316666666666666,
      "lon": -75.5
    }
  },
  {
    "country": "CO",
    "location": "MAU",
    "name": "Manaure",
    "nameWoDiacritics": "Manaure",
    "subdivision": "LAG",
    "status": 7,
    "function": [
      0,
      2
    ],
    "date": 501,
    "coordinates": {
      "lat": 11.766666666666667,
      "lon": -72.43333333333334
    }
  },
  {
    "country": "CO",
    "location": "MZL",
    "name": "Manizales",
    "nameWoDiacritics": "Manizales",
    "status": 3,
    "function": [
      3
    ],
    "date": 9601,
    "coordinates": {
      "lat": 0,
      "lon": 0
    }
  },
  {
    "country": "CO",
    "location": "MBA",
    "name": "Maria La Baja",
    "nameWoDiacritics": "Maria La Baja",
    "subdivision": "BOL",
    "status": 7,
    "function": [
      2
    ],
    "date": 1707,
    "coordinates": {
      "lat": 10,
      "lon": -75.33333333333333
    }
  },
  {
    "country": "CO",
    "location": "MRA",
    "name": "Marinilla",
    "nameWoDiacritics": "Marinilla",
    "subdivision": "ANT",
    "status": 7,
    "function": [
      2
    ],
    "date": 1501,
    "coordinates": {
      "lat": 6.166666666666667,
      "lon": -75.33333333333333
    }
  },
  {
    "country": "CO",
    "location": "MQU",
    "name": "Mariquita",
    "nameWoDiacritics": "Mariquita",
    "subdivision": "TOL",
    "status": 9,
    "function": [
      3
    ],
    "date": 901,
    "coordinates": {
      "lat": 0,
      "lon": 0
    }
  },
  {
    "country": "CO",
    "location": "MAT",
    "name": "Matanza",
    "nameWoDiacritics": "Matanza",
    "status": 9,
    "function": [
      2
    ],
    "date": 607,
    "coordinates": {
      "lat": 7.716666666666667,
      "lon": -74.75
    }
  },
  {
    "country": "CO",
    "location": "MDE",
    "name": "MedellÌn",
    "nameWoDiacritics": "Medellin",
    "subdivision": "ANT",
    "status": 3,
    "function": [
      3
    ],
    "date": 212,
    "coordinates": {
      "lat": 6.283333333333333,
      "lon": -75.53333333333333
    }
  },
  {
    "country": "CO",
    "location": "MND",
    "name": "Medina",
    "nameWoDiacritics": "Medina",
    "subdivision": "CUN",
    "status": 9,
    "function": [
      3
    ],
    "date": 901,
    "coordinates": {
      "lat": 4.516666666666667,
      "lon": -73.26666666666667
    }
  },
  {
    "country": "CO",
    "location": "MDC",
    "name": "Mesitas del Colegio",
    "nameWoDiacritics": "Mesitas del Colegio",
    "subdivision": "CUN",
    "status": 4,
    "function": [
      2
    ],
    "date": 2207,
    "coordinates": {
      "lat": 4.583333333333333,
      "lon": -74.45
    }
  },
  {
    "country": "CO",
    "location": "MIN",
    "name": "Mingueo",
    "nameWoDiacritics": "Mingueo",
    "subdivision": "LAG",
    "status": 4,
    "function": [
      0,
      2,
      5
    ],
    "date": 2101,
    "coordinates": {
      "lat": 11.2,
      "lon": -73.4
    }
  },
  {
    "country": "CO",
    "location": "MFS",
    "name": "Miraflores",
    "nameWoDiacritics": "Miraflores",
    "status": 9,
    "function": [
      3
    ],
    "date": 901,
    "coordinates": {
      "lat": 5.166666666666667,
      "lon": -73.25
    }
  },
  {
    "country": "CO",
    "location": "MIX",
    "name": "Miriti",
    "nameWoDiacritics": "Miriti",
    "status": 9,
    "function": [
      3
    ],
    "date": 901,
    "coordinates": {
      "lat": 0,
      "lon": 0
    }
  },
  {
    "country": "CO",
    "location": "MVP",
    "name": "Mitu",
    "nameWoDiacritics": "Mitu",
    "subdivision": "VAU",
    "status": 9,
    "function": [
      3
    ],
    "date": 901,
    "coordinates": {
      "lat": 1.1333333333333333,
      "lon": -70.05
    }
  },
  {
    "country": "CO",
    "location": "MMP",
    "name": "Mompos",
    "nameWoDiacritics": "Mompos",
    "subdivision": "MAG",
    "status": 9,
    "function": [
      3
    ],
    "date": 901,
    "coordinates": {
      "lat": 9.25,
      "lon": -74.43333333333334
    }
  },
  {
    "country": "CO",
    "location": "MFB",
    "name": "Monfort",
    "nameWoDiacritics": "Monfort",
    "subdivision": "GUA",
    "status": 7,
    "function": [
      3
    ],
    "date": 907,
    "coordinates": {
      "lat": 2.5666666666666664,
      "lon": -67.58333333333333
    }
  },
  {
    "country": "CO",
    "location": "TUE",
    "name": "Moniquira",
    "nameWoDiacritics": "Moniquira",
    "status": 9,
    "function": [
      2
    ],
    "date": 607,
    "coordinates": {
      "lat": 5.883333333333333,
      "lon": -73.58333333333333
    }
  },
  {
    "country": "CO",
    "location": "MOL",
    "name": "Monte Libano",
    "nameWoDiacritics": "Monte Libano",
    "subdivision": "MAG",
    "status": 9,
    "function": [
      2
    ],
    "date": 1101,
    "coordinates": {
      "lat": 9.25,
      "lon": -73.95
    }
  },
  {
    "country": "CO",
    "location": "MTB",
    "name": "MontelÌbano",
    "nameWoDiacritics": "Montelibano",
    "subdivision": "COR",
    "status": 3,
    "function": [
      2,
      3
    ],
    "date": 1101,
    "coordinates": {
      "lat": 7.983333333333333,
      "lon": -75.41666666666667
    },
    "remarks": "Monte LÌbano"
  },
  {
    "country": "CO",
    "location": "MTR",
    "name": "Monteria",
    "nameWoDiacritics": "Monteria",
    "status": 3,
    "function": [
      3
    ],
    "date": 9601,
    "coordinates": {
      "lat": 0,
      "lon": 0
    }
  },
  {
    "country": "CO",
    "location": "MOY",
    "name": "Monterrey",
    "nameWoDiacritics": "Monterrey",
    "status": 9,
    "function": [
      3
    ],
    "date": 901,
    "coordinates": {
      "lat": 0,
      "lon": 0
    }
  },
  {
    "country": "CO",
    "location": "MHF",
    "name": "Morichal",
    "nameWoDiacritics": "Morichal",
    "subdivision": "ARA",
    "status": 7,
    "function": [
      3
    ],
    "date": 907,
    "coordinates": {
      "lat": 1.75,
      "lon": -69.91666666666667
    }
  },
  {
    "country": "CO",
    "location": "MQR",
    "name": "Mosquera",
    "nameWoDiacritics": "Mosquera",
    "status": 9,
    "function": [
      3
    ],
    "date": 901,
    "coordinates": {
      "lat": 0,
      "lon": 0
    }
  },
  {
    "country": "CO",
    "location": "ULS",
    "name": "Mulatos",
    "nameWoDiacritics": "Mulatos",
    "subdivision": "ANT",
    "status": 9,
    "function": [
      3
    ],
    "date": 901,
    "coordinates": {
      "lat": 8.633333333333333,
      "lon": -76.75
    }
  },
  {
    "country": "CO",
    "location": "NAR",
    "name": "Nare",
    "nameWoDiacritics": "Nare",
    "status": 9,
    "function": [
      3
    ],
    "date": 901,
    "coordinates": {
      "lat": 0,
      "lon": 0
    }
  },
  {
    "country": "CO",
    "location": "NCI",
    "name": "Necocli",
    "nameWoDiacritics": "Necocli",
    "subdivision": "ANT",
    "status": 9,
    "function": [
      3
    ],
    "date": 901,
    "coordinates": {
      "lat": 8.466666666666667,
      "lon": -76.75
    }
  },
  {
    "country": "CO",
    "location": "NVA",
    "name": "Neiva",
    "nameWoDiacritics": "Neiva",
    "subdivision": "HUI",
    "status": 7,
    "function": [
      2,
      3
    ],
    "date": 207,
    "coordinates": {
      "lat": 2.9166666666666665,
      "lon": -75.26666666666667
    }
  },
  {
    "country": "CO",
    "location": "NOB",
    "name": "Nobsa",
    "nameWoDiacritics": "Nobsa",
    "status": 9,
    "function": [
      2
    ],
    "date": 607,
    "coordinates": {
      "lat": 5.766666666666667,
      "lon": -72.95
    }
  },
  {
    "country": "CO",
    "location": "NUH",
    "name": "Nunchia",
    "nameWoDiacritics": "Nunchia",
    "subdivision": "CAS",
    "status": 9,
    "function": [
      3
    ],
    "date": 901,
    "coordinates": {
      "lat": 5.616666666666667,
      "lon": -72.21666666666667
    }
  },
  {
    "country": "CO",
    "location": "NQU",
    "name": "Nuqui",
    "nameWoDiacritics": "Nuqui",
    "subdivision": "CHO",
    "status": 7,
    "function": [
      3
    ],
    "date": 907,
    "coordinates": {
      "lat": 5.7,
      "lon": -77.28333333333333
    }
  },
  {
    "country": "CO",
    "location": "OBD",
    "name": "Obando",
    "nameWoDiacritics": "Obando",
    "subdivision": "VAC",
    "status": 4,
    "function": [
      2
    ],
    "date": 2207,
    "coordinates": {
      "lat": 4.583333333333333,
      "lon": -75.96666666666667
    }
  },
  {
    "country": "CO",
    "location": "OCV",
    "name": "Ocana",
    "nameWoDiacritics": "Ocana",
    "subdivision": "NSA",
    "status": 9,
    "function": [
      3
    ],
    "date": 901,
    "coordinates": {
      "lat": 8.233333333333333,
      "lon": -73.33333333333333
    }
  },
  {
    "country": "CO",
    "location": "OIB",
    "name": "Oiba",
    "nameWoDiacritics": "Oiba",
    "status": 9,
    "function": [
      2
    ],
    "date": 607,
    "coordinates": {
      "lat": 6.25,
      "lon": -73.3
    }
  },
  {
    "country": "CO",
    "location": "ORE",
    "name": "Orejero",
    "nameWoDiacritics": "Orejero",
    "subdivision": "SUC",
    "status": 7,
    "function": [
      2
    ],
    "date": 1601,
    "coordinates": {
      "lat": 8.983333333333333,
      "lon": -74.71666666666667
    }
  },
  {
    "country": "CO",
    "location": "ORC",
    "name": "Orocue",
    "nameWoDiacritics": "Orocue",
    "subdivision": "CAS",
    "status": 9,
    "function": [
      3
    ],
    "date": 901,
    "coordinates": {
      "lat": 4.9,
      "lon": -71.33333333333333
    }
  },
  {
    "country": "CO",
    "location": "OTU",
    "name": "Otu",
    "nameWoDiacritics": "Otu",
    "subdivision": "ANT",
    "status": 9,
    "function": [
      3
    ],
    "date": 901,
    "coordinates": {
      "lat": 7,
      "lon": -74.71666666666667
    }
  },
  {
    "country": "CO",
    "location": "OVE",
    "name": "Ovejas",
    "nameWoDiacritics": "Ovejas",
    "subdivision": "SUC",
    "status": 7,
    "function": [
      2
    ],
    "date": 1601,
    "coordinates": {
      "lat": 9.516666666666667,
      "lon": -75.23333333333333
    }
  },
  {
    "country": "CO",
    "location": "PAC",
    "name": "Pacho",
    "nameWoDiacritics": "Pacho",
    "subdivision": "CUN",
    "status": 4,
    "function": [
      2
    ],
    "date": 2207,
    "coordinates": {
      "lat": 5.133333333333334,
      "lon": -74.16666666666667
    }
  },
  {
    "country": "CO",
    "location": "PAI",
    "name": "Pailitas",
    "nameWoDiacritics": "Pailitas",
    "subdivision": "CES",
    "status": 7,
    "function": [
      2
    ],
    "date": 1601,
    "coordinates": {
      "lat": 8.95,
      "lon": -73.61666666666666
    }
  },
  {
    "country": "CO",
    "location": "PAL",
    "name": "Palanquero",
    "nameWoDiacritics": "Palanquero",
    "subdivision": "CUN",
    "status": 7,
    "function": [
      3
    ],
    "date": 907,
    "coordinates": {
      "lat": 5.483333333333333,
      "lon": -74.65
    }
  },
  {
    "country": "CO",
    "location": "QPI",
    "name": "Palmira",
    "nameWoDiacritics": "Palmira",
    "status": 9,
    "function": [
      3
    ],
    "date": 901,
    "coordinates": {
      "lat": 0,
      "lon": 0
    }
  },
  {
    "country": "CO",
    "location": "PDG",
    "name": "Palo de Agua",
    "nameWoDiacritics": "Palo de Agua",
    "subdivision": "COR",
    "status": 7,
    "function": [
      2
    ],
    "date": 1601,
    "coordinates": {
      "lat": 9.166666666666666,
      "lon": -75.85
    }
  },
  {
    "country": "CO",
    "location": "EUO",
    "name": "Paratebueno",
    "nameWoDiacritics": "Paratebueno",
    "status": 9,
    "function": [
      3
    ],
    "date": 901,
    "coordinates": {
      "lat": 0,
      "lon": 0
    }
  },
  {
    "country": "CO",
    "location": "PSO",
    "name": "Pasto",
    "nameWoDiacritics": "Pasto",
    "status": 3,
    "function": [
      3
    ],
    "date": 9601,
    "coordinates": {
      "lat": 0,
      "lon": 0
    }
  },
  {
    "country": "CO",
    "location": "PYN",
    "name": "Payan",
    "nameWoDiacritics": "Payan",
    "subdivision": "NAR",
    "status": 7,
    "function": [
      2,
      3
    ],
    "date": 907,
    "coordinates": {
      "lat": 1.8,
      "lon": -78.23333333333333
    }
  },
  {
    "country": "CO",
    "location": "PZA",
    "name": "Paz de Ariporo",
    "nameWoDiacritics": "Paz de Ariporo",
    "subdivision": "CAS",
    "status": 9,
    "function": [
      3
    ],
    "date": 901,
    "coordinates": {
      "lat": 5.55,
      "lon": -71.88333333333334
    }
  },
  {
    "country": "CO",
    "location": "PEL",
    "name": "Pelaya",
    "nameWoDiacritics": "Pelaya",
    "subdivision": "CES",
    "status": 7,
    "function": [
      2
    ],
    "date": 1601,
    "coordinates": {
      "lat": 8.683333333333334,
      "lon": -73.65
    }
  },
  {
    "country": "CO",
    "location": "PEI",
    "name": "Pereira",
    "nameWoDiacritics": "Pereira",
    "status": 3,
    "function": [
      3
    ],
    "date": 9601,
    "coordinates": {
      "lat": 0,
      "lon": 0
    }
  },
  {
    "country": "CO",
    "location": "PIE",
    "name": "Piedecuesta",
    "nameWoDiacritics": "Piedecuesta",
    "subdivision": "SAN",
    "status": 7,
    "function": [
      2
    ],
    "date": 1601,
    "coordinates": {
      "lat": 6.983333333333333,
      "lon": -73.05
    }
  },
  {
    "country": "CO",
    "location": "PTX",
    "name": "Pitalito",
    "nameWoDiacritics": "Pitalito",
    "subdivision": "HUI",
    "status": 7,
    "function": [
      2,
      3
    ],
    "date": 907,
    "coordinates": {
      "lat": 1.85,
      "lon": -76.03333333333333
    }
  },
  {
    "country": "CO",
    "location": "PIV",
    "name": "Pivijay",
    "nameWoDiacritics": "Pivijay",
    "subdivision": "MAG",
    "status": 7,
    "function": [
      2
    ],
    "date": 1601,
    "coordinates": {
      "lat": 10.466666666666667,
      "lon": -74.61666666666666
    }
  },
  {
    "country": "CO",
    "location": "PLA",
    "name": "Planadas",
    "nameWoDiacritics": "Planadas",
    "status": 9,
    "function": [
      3
    ],
    "date": 901,
    "coordinates": {
      "lat": 0,
      "lon": 0
    }
  },
  {
    "country": "CO",
    "location": "PLC",
    "name": "Planeta Rica",
    "nameWoDiacritics": "Planeta Rica",
    "subdivision": "COR",
    "status": 9,
    "function": [
      3
    ],
    "date": 901,
    "coordinates": {
      "lat": 8.416666666666666,
      "lon": -75.58333333333333
    }
  },
  {
    "country": "CO",
    "location": "PLT",
    "name": "Plato",
    "nameWoDiacritics": "Plato",
    "subdivision": "MAG",
    "status": 9,
    "function": [
      3
    ],
    "date": 901,
    "coordinates": {
      "lat": 9.766666666666667,
      "lon": -74.76666666666667
    }
  },
  {
    "country": "CO",
    "location": "PON",
    "name": "Ponedera",
    "nameWoDiacritics": "Ponedera",
    "subdivision": "ATL",
    "status": 7,
    "function": [
      2
    ],
    "date": 1601,
    "coordinates": {
      "lat": 10.633333333333333,
      "lon": -74.75
    }
  },
  {
    "country": "CO",
    "location": "PPN",
    "name": "Popay·n",
    "nameWoDiacritics": "Popayan",
    "subdivision": "CAU",
    "status": 7,
    "function": [
      2,
      3
    ],
    "date": 401,
    "coordinates": {
      "lat": 2.4333333333333336,
      "lon": -75.61666666666666
    }
  },
  {
    "country": "CO",
    "location": "PRE",
    "name": "Pore",
    "nameWoDiacritics": "Pore",
    "subdivision": "CAS",
    "status": 9,
    "function": [
      3
    ],
    "date": 901,
    "coordinates": {
      "lat": 5.683333333333334,
      "lon": -71.96666666666667
    }
  },
  {
    "country": "CO",
    "location": "POC",
    "name": "Pozos Colorados",
    "nameWoDiacritics": "Pozos Colorados",
    "status": 9,
    "function": [
      0
    ],
    "date": 9506,
    "coordinates": {
      "lat": 0,
      "lon": 0
    }
  },
  {
    "country": "CO",
    "location": "PVA",
    "name": "Providencia",
    "nameWoDiacritics": "Providencia",
    "status": 9,
    "function": [
      3
    ],
    "date": 901,
    "coordinates": {
      "lat": 0,
      "lon": 0
    }
  },
  {
    "country": "CO",
    "location": "PBL",
    "name": "Pueblo Bello",
    "nameWoDiacritics": "Pueblo Bello",
    "subdivision": "CES",
    "status": 7,
    "function": [
      2
    ],
    "date": 1601,
    "coordinates": {
      "lat": 10.416666666666666,
      "lon": -73.58333333333333
    }
  },
  {
    "country": "CO",
    "location": "PNU",
    "name": "Pueblo Nuevo",
    "nameWoDiacritics": "Pueblo Nuevo",
    "subdivision": "COR",
    "status": 7,
    "function": [
      2
    ],
    "date": 1601,
    "coordinates": {
      "lat": 8.5,
      "lon": -75.5
    }
  },
  {
    "country": "CO",
    "location": "PCA",
    "name": "Puente Canoas",
    "nameWoDiacritics": "Puente Canoas",
    "subdivision": "CES",
    "status": 7,
    "function": [
      2
    ],
    "date": 1601,
    "coordinates": {
      "lat": 9.65,
      "lon": -73.63333333333334
    }
  },
  {
    "country": "CO",
    "location": "PUU",
    "name": "Puerto AsÌs",
    "nameWoDiacritics": "Puerto Asis",
    "subdivision": "PUT",
    "status": 7,
    "function": [
      0,
      2,
      3
    ],
    "date": 212,
    "coordinates": {
      "lat": 0.5166666666666667,
      "lon": -76.5
    }
  },
  {
    "country": "CO",
    "location": "PBE",
    "name": "Puerto Berrio",
    "nameWoDiacritics": "Puerto Berrio",
    "status": 3,
    "function": [
      0,
      3
    ],
    "date": 9601,
    "coordinates": {
      "lat": 0,
      "lon": 0
    }
  },
  {
    "country": "CO",
    "location": "PBO",
    "name": "Puerto BolÌvar",
    "nameWoDiacritics": "Puerto Bolivar",
    "subdivision": "LAG",
    "status": 7,
    "function": [
      0
    ],
    "date": 212,
    "coordinates": {
      "lat": 10.683333333333334,
      "lon": -74.73333333333333
    }
  },
  {
    "country": "CO",
    "location": "PYA",
    "name": "Puerto Boyaca",
    "nameWoDiacritics": "Puerto Boyaca",
    "subdivision": "BOY",
    "status": 7,
    "function": [
      0,
      2,
      3
    ],
    "date": 907,
    "coordinates": {
      "lat": 5.75,
      "lon": -74.4
    }
  },
  {
    "country": "CO",
    "location": "PCR",
    "name": "Puerto CarreÒo",
    "nameWoDiacritics": "Puerto Carreno",
    "subdivision": "VID",
    "status": 7,
    "function": [
      0,
      2,
      3
    ],
    "date": 401,
    "coordinates": {
      "lat": 6.183333333333334,
      "lon": -67.48333333333333
    }
  },
  {
    "country": "CO",
    "location": "PUC",
    "name": "Puerto Colombia",
    "nameWoDiacritics": "Puerto Colombia",
    "status": 7,
    "function": [
      0,
      2
    ],
    "date": 701,
    "coordinates": {
      "lat": 11,
      "lon": -74.95
    }
  },
  {
    "country": "CO",
    "location": "PCO",
    "name": "Puerto ColÛn",
    "nameWoDiacritics": "Puerto Colon",
    "subdivision": "PUT",
    "status": 7,
    "function": [
      2
    ],
    "date": 1207,
    "coordinates": {
      "lat": 0.26666666666666666,
      "lon": -76.91666666666667
    }
  },
  {
    "country": "CO",
    "location": "PES",
    "name": "Puerto Escondido",
    "nameWoDiacritics": "Puerto Escondido",
    "subdivision": "COR",
    "status": 7,
    "function": [
      2
    ],
    "date": 1601,
    "coordinates": {
      "lat": 9.016666666666667,
      "lon": -76.25
    }
  },
  {
    "country": "CO",
    "location": "PGA",
    "name": "Puerto Gaitan",
    "nameWoDiacritics": "Puerto Gaitan",
    "status": 9,
    "function": [
      2
    ],
    "date": 607,
    "coordinates": {
      "lat": 6.25,
      "lon": -71.45
    }
  },
  {
    "country": "CO",
    "location": "PUG",
    "name": "Puerto Gaitan",
    "nameWoDiacritics": "Puerto Gaitan",
    "status": 9,
    "function": [
      2
    ],
    "date": 607,
    "coordinates": {
      "lat": 4.316666666666666,
      "lon": -72.06666666666666
    }
  },
  {
    "country": "CO",
    "location": "LQM",
    "name": "Puerto LeguÌzamo",
    "nameWoDiacritics": "Puerto Leguizamo",
    "subdivision": "PUT",
    "status": 3,
    "function": [
      2,
      3
    ],
    "date": 1101,
    "coordinates": {
      "lat": -0.16666666666666666,
      "lon": -74.76666666666667
    }
  },
  {
    "country": "CO",
    "location": "PLI",
    "name": "Puerto Libertador",
    "nameWoDiacritics": "Puerto Libertador",
    "subdivision": "COR",
    "status": 7,
    "function": [
      2
    ],
    "date": 1601,
    "coordinates": {
      "lat": 7.883333333333333,
      "lon": -75.66666666666667
    }
  },
  {
    "country": "CO",
    "location": "PNM",
    "name": "Puerto LimÛn",
    "nameWoDiacritics": "Puerto Limon",
    "status": 7,
    "function": [
      0,
      2
    ],
    "date": 201,
    "coordinates": {
      "lat": 1.05,
      "lon": -76.5
    }
  },
  {
    "country": "CO",
    "location": "PUL",
    "name": "Puerto LimÛn",
    "nameWoDiacritics": "Puerto Limon",
    "status": 7,
    "function": [
      0,
      2
    ],
    "date": 201,
    "coordinates": {
      "lat": 9.383333333333333,
      "lon": -76.18333333333334
    }
  },
  {
    "country": "CO",
    "location": "PLL",
    "name": "Puerto Lleras",
    "nameWoDiacritics": "Puerto Lleras",
    "status": 9,
    "function": [
      2
    ],
    "date": 607,
    "coordinates": {
      "lat": 8.15,
      "lon": -72.46666666666667
    }
  },
  {
    "country": "CO",
    "location": "PPR",
    "name": "Puerto Prodeco",
    "nameWoDiacritics": "Puerto Prodeco",
    "status": 9,
    "function": [
      0
    ],
    "date": 9506,
    "coordinates": {
      "lat": 0,
      "lon": 0
    }
  },
  {
    "country": "CO",
    "location": "PCC",
    "name": "Puerto Rico",
    "nameWoDiacritics": "Puerto Rico",
    "subdivision": "CAQ",
    "status": 3,
    "function": [
      2,
      3
    ],
    "date": 1101,
    "coordinates": {
      "lat": 1.9,
      "lon": -75.13333333333334
    }
  },
  {
    "country": "CO",
    "location": "PTJ",
    "name": "Puerto Tejada",
    "nameWoDiacritics": "Puerto Tejada",
    "subdivision": "CAU",
    "status": 4,
    "function": [
      2
    ],
    "date": 2207,
    "coordinates": {
      "lat": 3.2333333333333334,
      "lon": -76.41666666666667
    }
  },
  {
    "country": "CO",
    "location": "PWI",
    "name": "Puerto Wilches",
    "nameWoDiacritics": "Puerto Wilches",
    "subdivision": "SAN",
    "status": 7,
    "function": [
      2
    ],
    "date": 1601,
    "coordinates": {
      "lat": 7.333333333333333,
      "lon": -73.9
    }
  },
  {
    "country": "CO",
    "location": "UIB",
    "name": "QuibdÛ",
    "nameWoDiacritics": "Quibdo",
    "subdivision": "CHO",
    "status": 3,
    "function": [
      3
    ],
    "date": 212,
    "coordinates": {
      "lat": 5.7,
      "lon": -76.66666666666667
    }
  },
  {
    "country": "CO",
    "location": "QUO",
    "name": "Quindio",
    "nameWoDiacritics": "Quindio",
    "subdivision": "SAN",
    "status": 7,
    "function": [
      2
    ],
    "date": 1501,
    "coordinates": {
      "lat": 7.233333333333333,
      "lon": -73.56666666666666
    }
  },
  {
    "country": "CO",
    "location": "RCO",
    "name": "Rio Cordoba",
    "nameWoDiacritics": "Rio Cordoba",
    "status": 7,
    "function": [
      0
    ],
    "date": 901,
    "coordinates": {
      "lat": 8.916666666666666,
      "lon": -76.36666666666666
    }
  },
  {
    "country": "CO",
    "location": "RCH",
    "name": "Riohacha",
    "nameWoDiacritics": "Riohacha",
    "status": 3,
    "function": [
      0,
      3
    ],
    "date": 9601,
    "coordinates": {
      "lat": 0,
      "lon": 0
    }
  },
  {
    "country": "CO",
    "location": "RRO",
    "name": "Rionegro",
    "nameWoDiacritics": "Rionegro",
    "subdivision": "ANT",
    "status": 7,
    "function": [
      5
    ],
    "date": 901,
    "coordinates": {
      "lat": 6.15,
      "lon": -75.38333333333334
    }
  },
  {
    "country": "CO",
    "location": "RON",
    "name": "Rondon",
    "nameWoDiacritics": "Rondon",
    "status": 9,
    "function": [
      3
    ],
    "date": 901,
    "coordinates": {
      "lat": 0,
      "lon": 0
    }
  },
  {
    "country": "CO",
    "location": "ROZ",
    "name": "Rozo",
    "nameWoDiacritics": "Rozo",
    "subdivision": "VAC",
    "status": 4,
    "function": [
      2
    ],
    "date": 2101,
    "coordinates": {
      "lat": 3.6,
      "lon": -76.38333333333334
    }
  },
  {
    "country": "CO",
    "location": "SNT",
    "name": "Sabana de Torres",
    "nameWoDiacritics": "Sabana de Torres",
    "subdivision": "SAN",
    "status": 7,
    "function": [
      2,
      3
    ],
    "date": 907,
    "coordinates": {
      "lat": 7.666666666666667,
      "lon": -73.01666666666667
    }
  },
  {
    "country": "CO",
    "location": "SGR",
    "name": "Sabanagrande",
    "nameWoDiacritics": "Sabanagrande",
    "subdivision": "ATL",
    "status": 7,
    "function": [
      2
    ],
    "date": 1601,
    "coordinates": {
      "lat": 10.783333333333333,
      "lon": -74.75
    }
  },
  {
    "country": "CO",
    "location": "SA2",
    "name": "Sabanalarga",
    "nameWoDiacritics": "Sabanalarga",
    "subdivision": "ANT",
    "status": 7,
    "function": [
      2
    ],
    "date": 1607,
    "coordinates": {
      "lat": 6.85,
      "lon": -75.81666666666666
    }
  },
  {
    "country": "CO",
    "location": "SAB",
    "name": "Sabanalarga",
    "nameWoDiacritics": "Sabanalarga",
    "subdivision": "ATL",
    "status": 7,
    "function": [
      2
    ],
    "date": 1601,
    "coordinates": {
      "lat": 10.633333333333333,
      "lon": -74.91666666666667
    }
  },
  {
    "country": "CO",
    "location": "SAT",
    "name": "Sabaneta",
    "nameWoDiacritics": "Sabaneta",
    "subdivision": "ANT",
    "status": 7,
    "function": [
      2
    ],
    "date": 1407,
    "coordinates": {
      "lat": 6.15,
      "lon": -75.6
    }
  },
  {
    "country": "CO",
    "location": "SAH",
    "name": "Sahag˙n",
    "nameWoDiacritics": "Sahagun",
    "subdivision": "COR",
    "status": 7,
    "function": [
      2
    ],
    "date": 1601,
    "coordinates": {
      "lat": 8.933333333333334,
      "lon": -75.43333333333334
    }
  },
  {
    "country": "CO",
    "location": "SAL",
    "name": "Salento",
    "nameWoDiacritics": "Salento",
    "subdivision": "QUI",
    "status": 7,
    "function": [
      2
    ],
    "date": 1201,
    "coordinates": {
      "lat": 4.633333333333333,
      "lon": -75.56666666666666
    }
  },
  {
    "country": "CO",
    "location": "SAM",
    "name": "Samaca",
    "nameWoDiacritics": "Samaca",
    "status": 9,
    "function": [
      2
    ],
    "date": 607,
    "coordinates": {
      "lat": 5.483333333333333,
      "lon": -73.48333333333333
    }
  },
  {
    "country": "CO",
    "location": "SAP",
    "name": "SampuÈs",
    "nameWoDiacritics": "Sampues",
    "subdivision": "SUC",
    "status": 7,
    "function": [
      2
    ],
    "date": 1601,
    "coordinates": {
      "lat": 9.366666666666667,
      "lon": -75.36666666666666
    }
  },
  {
    "country": "CO",
    "location": "SAO",
    "name": "San Alberto",
    "nameWoDiacritics": "San Alberto",
    "subdivision": "CES",
    "status": 7,
    "function": [
      2
    ],
    "date": 1601,
    "coordinates": {
      "lat": 9.133333333333333,
      "lon": -73.56666666666666
    }
  },
  {
    "country": "CO",
    "location": "SAC",
    "name": "San AndrÈs",
    "nameWoDiacritics": "San Andres",
    "subdivision": "SAP",
    "status": 7,
    "function": [
      2
    ],
    "date": 1607,
    "coordinates": {
      "lat": 12.583333333333334,
      "lon": -81.7
    }
  },
  {
    "country": "CO",
    "location": "ADZ",
    "name": "San Andres Island",
    "nameWoDiacritics": "San Andres Island",
    "status": 3,
    "function": [
      3
    ],
    "date": 9601,
    "coordinates": {
      "lat": 0,
      "lon": 0
    }
  },
  {
    "country": "CO",
    "location": "ANT",
    "name": "San Antero",
    "nameWoDiacritics": "San Antero",
    "subdivision": "COR",
    "status": 7,
    "function": [
      2
    ],
    "date": 1601,
    "coordinates": {
      "lat": 9.366666666666667,
      "lon": -75.75
    }
  },
  {
    "country": "CO",
    "location": "SBV",
    "name": "San Bernardo del Viento",
    "nameWoDiacritics": "San Bernardo del Viento",
    "subdivision": "COR",
    "status": 7,
    "function": [
      2
    ],
    "date": 1601,
    "coordinates": {
      "lat": 9.35,
      "lon": -75.95
    }
  },
  {
    "country": "CO",
    "location": "8SG",
    "name": "San Carlos de Guaroa",
    "nameWoDiacritics": "San Carlos de Guaroa",
    "subdivision": "MET",
    "status": 7,
    "function": [
      2
    ],
    "date": 1301,
    "coordinates": {
      "lat": 3.7,
      "lon": -73.23333333333333
    }
  },
  {
    "country": "CO",
    "location": "SDI",
    "name": "San Diego",
    "nameWoDiacritics": "San Diego",
    "subdivision": "CES",
    "status": 7,
    "function": [
      2
    ],
    "date": 1601,
    "coordinates": {
      "lat": 10.333333333333334,
      "lon": -73.16666666666667
    }
  },
  {
    "country": "CO",
    "location": "SET",
    "name": "San Estanislao",
    "nameWoDiacritics": "San Estanislao",
    "subdivision": "BOL",
    "status": 7,
    "function": [
      2
    ],
    "date": 1707,
    "coordinates": {
      "lat": 10.383333333333333,
      "lon": -75.15
    }
  },
  {
    "country": "CO",
    "location": "SSD",
    "name": "San Felipe",
    "nameWoDiacritics": "San Felipe",
    "subdivision": "GUA",
    "status": 7,
    "function": [
      2,
      3
    ],
    "date": 907,
    "coordinates": {
      "lat": 1.75,
      "lon": -67.1
    }
  },
  {
    "country": "CO",
    "location": "SAG",
    "name": "San Gil",
    "nameWoDiacritics": "San Gil",
    "status": 9,
    "function": [
      2
    ],
    "date": 607,
    "coordinates": {
      "lat": 6.55,
      "lon": -73.13333333333334
    }
  },
  {
    "country": "CO",
    "location": "SJC",
    "name": "San Jacinto",
    "nameWoDiacritics": "San Jacinto",
    "subdivision": "BOL",
    "status": 7,
    "function": [
      2
    ],
    "date": 1601,
    "coordinates": {
      "lat": 9.816666666666666,
      "lon": -75.11666666666666
    }
  },
  {
    "country": "CO",
    "location": "SJA",
    "name": "San Jose de Ariguani",
    "nameWoDiacritics": "San Jose de Ariguani",
    "subdivision": "BOL",
    "status": 7,
    "function": [
      2
    ],
    "date": 1601,
    "coordinates": {
      "lat": 9.916666666666666,
      "lon": -74.95
    }
  },
  {
    "country": "CO",
    "location": "SJE",
    "name": "San Jose del Gua",
    "nameWoDiacritics": "San Jose del Gua",
    "subdivision": "GUV",
    "status": 9,
    "function": [
      3
    ],
    "date": 901,
    "coordinates": {
      "lat": 2.5666666666666664,
      "lon": -72.65
    }
  },
  {
    "country": "CO",
    "location": "RIO",
    "name": "San Juan de Rioseco",
    "nameWoDiacritics": "San Juan de Rioseco",
    "subdivision": "CUN",
    "status": 4,
    "function": [
      2
    ],
    "date": 2207,
    "coordinates": {
      "lat": 4.85,
      "lon": -74.61666666666666
    }
  },
  {
    "country": "CO",
    "location": "SJR",
    "name": "San Juan de Uraba",
    "nameWoDiacritics": "San Juan de Uraba",
    "subdivision": "ANT",
    "status": 9,
    "function": [
      3
    ],
    "date": 901,
    "coordinates": {
      "lat": 8.766666666666667,
      "lon": -76.51666666666667
    }
  },
  {
    "country": "CO",
    "location": "SJH",
    "name": "San Juan del Cesar",
    "nameWoDiacritics": "San Juan del Cesar",
    "subdivision": "LAG",
    "status": 9,
    "function": [
      3
    ],
    "date": 901,
    "coordinates": {
      "lat": 10.766666666666667,
      "lon": -73.01666666666667
    }
  },
  {
    "country": "CO",
    "location": "SJN",
    "name": "San Juan Nepomuceno",
    "nameWoDiacritics": "San Juan Nepomuceno",
    "subdivision": "BOL",
    "status": 7,
    "function": [
      2
    ],
    "date": 1601,
    "coordinates": {
      "lat": 9.95,
      "lon": -75.08333333333333
    }
  },
  {
    "country": "CO",
    "location": "SQE",
    "name": "San Luis de Pale",
    "nameWoDiacritics": "San Luis de Pale",
    "status": 9,
    "function": [
      3
    ],
    "date": 901,
    "coordinates": {
      "lat": 0,
      "lon": 0
    }
  },
  {
    "country": "CO",
    "location": "SRS",
    "name": "San Marcos",
    "nameWoDiacritics": "San Marcos",
    "subdivision": "SUC",
    "status": 9,
    "function": [
      3
    ],
    "date": 901,
    "coordinates": {
      "lat": 8.633333333333333,
      "lon": -75.11666666666666
    }
  },
  {
    "country": "CO",
    "location": "SMA",
    "name": "San MartÌn",
    "nameWoDiacritics": "San Martin",
    "subdivision": "CES",
    "status": 7,
    "function": [
      2
    ],
    "date": 1601,
    "coordinates": {
      "lat": 9.933333333333334,
      "lon": -73.63333333333334
    }
  },
  {
    "country": "CO",
    "location": "SMT",
    "name": "San Mateo",
    "nameWoDiacritics": "San Mateo",
    "subdivision": "SUC",
    "status": 7,
    "function": [
      2
    ],
    "date": 1601,
    "coordinates": {
      "lat": 8.9,
      "lon": -74.71666666666667
    }
  },
  {
    "country": "CO",
    "location": "SON",
    "name": "San Onofre",
    "nameWoDiacritics": "San Onofre",
    "subdivision": "SUC",
    "status": 7,
    "function": [
      2
    ],
    "date": 1601,
    "coordinates": {
      "lat": 9.733333333333333,
      "lon": -75.51666666666667
    }
  },
  {
    "country": "CO",
    "location": "SPR",
    "name": "San Pedro",
    "nameWoDiacritics": "San Pedro",
    "subdivision": "SUC",
    "status": 7,
    "function": [
      2
    ],
    "date": 1707,
    "coordinates": {
      "lat": 8.716666666666667,
      "lon": -74.71666666666667
    }
  },
  {
    "country": "CO",
    "location": "SJG",
    "name": "San Pedro Jagua",
    "nameWoDiacritics": "San Pedro Jagua",
    "status": 9,
    "function": [
      3
    ],
    "date": 901,
    "coordinates": {
      "lat": 0,
      "lon": 0
    }
  },
  {
    "country": "CO",
    "location": "NPU",
    "name": "San Pedro Uraba",
    "nameWoDiacritics": "San Pedro Uraba",
    "status": 9,
    "function": [
      3
    ],
    "date": 901,
    "coordinates": {
      "lat": 0,
      "lon": 0
    }
  },
  {
    "country": "CO",
    "location": "SPY",
    "name": "San Pelayo",
    "nameWoDiacritics": "San Pelayo",
    "subdivision": "COR",
    "status": 7,
    "function": [
      2
    ],
    "date": 1601,
    "coordinates": {
      "lat": 8.95,
      "lon": -75.83333333333333
    }
  },
  {
    "country": "CO",
    "location": "SRB",
    "name": "San Roque",
    "nameWoDiacritics": "San Roque",
    "subdivision": "MAG",
    "status": 7,
    "function": [
      2
    ],
    "date": 1601,
    "coordinates": {
      "lat": 9.066666666666666,
      "lon": -74.15
    }
  },
  {
    "country": "CO",
    "location": "SRQ",
    "name": "San Roque",
    "nameWoDiacritics": "San Roque",
    "subdivision": "CES",
    "status": 7,
    "function": [
      2
    ],
    "date": 1601,
    "coordinates": {
      "lat": 9.283333333333333,
      "lon": -73.5
    }
  },
  {
    "country": "CO",
    "location": "SVI",
    "name": "San Vicente del Cagu·n",
    "nameWoDiacritics": "San Vicente del Caguan",
    "subdivision": "CAQ",
    "status": 7,
    "function": [
      3
    ],
    "date": 1501,
    "coordinates": {
      "lat": 2.1,
      "lon": -74.76666666666667
    }
  },
  {
    "country": "CO",
    "location": "SQB",
    "name": "Santa Ana",
    "nameWoDiacritics": "Santa Ana",
    "subdivision": "TOL",
    "status": 7,
    "function": [
      2,
      3
    ],
    "date": 907,
    "coordinates": {
      "lat": 4.766666666666667,
      "lon": -75.95
    }
  },
  {
    "country": "CO",
    "location": "SCA",
    "name": "Santa Cantalina",
    "nameWoDiacritics": "Santa Cantalina",
    "subdivision": "BOL",
    "status": 9,
    "function": [
      3
    ],
    "date": 901,
    "coordinates": {
      "lat": 10.6,
      "lon": -75.26666666666667
    }
  },
  {
    "country": "CO",
    "location": "STF",
    "name": "Santa Fee",
    "nameWoDiacritics": "Santa Fee",
    "status": 9,
    "function": [
      2
    ],
    "date": 607,
    "coordinates": {
      "lat": 6.633333333333333,
      "lon": -70.76666666666667
    }
  },
  {
    "country": "CO",
    "location": "STI",
    "name": "Santa InÈs",
    "nameWoDiacritics": "Santa Ines",
    "subdivision": "SUC",
    "status": 7,
    "function": [
      2
    ],
    "date": 1601,
    "coordinates": {
      "lat": 8.716666666666667,
      "lon": -75.23333333333333
    }
  },
  {
    "country": "CO",
    "location": "SMG",
    "name": "Santa Margarita",
    "nameWoDiacritics": "Santa Margarita",
    "subdivision": "ANT",
    "status": 7,
    "function": [
      2
    ],
    "date": 1101,
    "coordinates": {
      "lat": 7.666666666666667,
      "lon": -74.75
    }
  },
  {
    "country": "CO",
    "location": "SMC",
    "name": "Santa Maria",
    "nameWoDiacritics": "Santa Maria",
    "status": 9,
    "function": [
      3
    ],
    "date": 901,
    "coordinates": {
      "lat": 0,
      "lon": 0
    }
  },
  {
    "country": "CO",
    "location": "SMR",
    "name": "Santa Marta",
    "nameWoDiacritics": "Santa Marta",
    "status": 3,
    "function": [
      0,
      3
    ],
    "date": 9601,
    "coordinates": {
      "lat": 0,
      "lon": 0
    }
  },
  {
    "country": "CO",
    "location": "SAR",
    "name": "Santa Rosa",
    "nameWoDiacritics": "Santa Rosa",
    "status": 9,
    "function": [
      2
    ],
    "date": 607,
    "coordinates": {
      "lat": 8.816666666666666,
      "lon": -76.48333333333333
    }
  },
  {
    "country": "CO",
    "location": "SSL",
    "name": "Santa Rosalia",
    "nameWoDiacritics": "Santa Rosalia",
    "subdivision": "CAS",
    "status": 7,
    "function": [
      2,
      3
    ],
    "date": 907,
    "coordinates": {
      "lat": 1.4666666666666668,
      "lon": -72.23333333333333
    }
  },
  {
    "country": "CO",
    "location": "SRO",
    "name": "Santana Ramos",
    "nameWoDiacritics": "Santana Ramos",
    "subdivision": "CAQ",
    "status": 7,
    "function": [
      2,
      3
    ],
    "date": 907,
    "coordinates": {
      "lat": 2.216666666666667,
      "lon": -75.25
    }
  },
  {
    "country": "CO",
    "location": "SDQ",
    "name": "Santander de Quilichao",
    "nameWoDiacritics": "Santander de Quilichao",
    "subdivision": "CAU",
    "status": 7,
    "function": [
      2
    ],
    "date": 1207,
    "coordinates": {
      "lat": 3,
      "lon": -76.48333333333333
    }
  },
  {
    "country": "CO",
    "location": "STT",
    "name": "Santiago de Tolu",
    "nameWoDiacritics": "Santiago de Tolu",
    "subdivision": "SUC",
    "status": 7,
    "function": [
      2
    ],
    "date": 1601,
    "coordinates": {
      "lat": 9.516666666666667,
      "lon": -75.58333333333333
    }
  },
  {
    "country": "CO",
    "location": "RVE",
    "name": "Saravena",
    "nameWoDiacritics": "Saravena",
    "subdivision": "ARA",
    "status": 9,
    "function": [
      3
    ],
    "date": 901,
    "coordinates": {
      "lat": 6.916666666666667,
      "lon": -71.9
    }
  },
  {
    "country": "CO",
    "location": "SRV",
    "name": "Saravena",
    "nameWoDiacritics": "Saravena",
    "status": 9,
    "function": [
      2
    ],
    "date": 607,
    "coordinates": {
      "lat": 6.983333333333333,
      "lon": -71.91666666666667
    }
  },
  {
    "country": "CO",
    "location": "SAV",
    "name": "Savanilla",
    "nameWoDiacritics": "Savanilla",
    "status": 9,
    "function": [
      0
    ],
    "date": 9506,
    "coordinates": {
      "lat": 0,
      "lon": 0
    }
  },
  {
    "country": "CO",
    "location": "SES",
    "name": "SesquilÈ",
    "nameWoDiacritics": "Sesquile",
    "subdivision": "CUN",
    "status": 4,
    "function": [
      2
    ],
    "date": 2207,
    "coordinates": {
      "lat": 5.033333333333333,
      "lon": -73.8
    }
  },
  {
    "country": "CO",
    "location": "SIB",
    "name": "Sibate",
    "nameWoDiacritics": "Sibate",
    "subdivision": "CUN",
    "status": 7,
    "function": [
      2
    ],
    "date": 1101,
    "coordinates": {
      "lat": 4.483333333333333,
      "lon": -74.25
    }
  },
  {
    "country": "CO",
    "location": "SIL",
    "name": "Silvania",
    "nameWoDiacritics": "Silvania",
    "subdivision": "CUN",
    "status": 4,
    "function": [
      2
    ],
    "date": 2207,
    "coordinates": {
      "lat": 4.4,
      "lon": -74.38333333333334
    }
  },
  {
    "country": "CO",
    "location": "SIG",
    "name": "Simana",
    "nameWoDiacritics": "Simana",
    "subdivision": "LAG",
    "status": 7,
    "function": [
      2
    ],
    "date": 1601,
    "coordinates": {
      "lat": 8.616666666666667,
      "lon": -73.73333333333333
    }
  },
  {
    "country": "CO",
    "location": "SIM",
    "name": "Simiti",
    "nameWoDiacritics": "Simiti",
    "subdivision": "BOL",
    "status": 7,
    "function": [
      2
    ],
    "date": 1601,
    "coordinates": {
      "lat": 7.95,
      "lon": -73.93333333333334
    }
  },
  {
    "country": "CO",
    "location": "PSB",
    "name": "Simon Bolivar",
    "nameWoDiacritics": "Simon Bolivar",
    "status": 9,
    "function": [
      0,
      5
    ],
    "date": 607,
    "coordinates": {
      "lat": -4.133333333333334,
      "lon": -69.96666666666667
    }
  },
  {
    "country": "CO",
    "location": "SIN",
    "name": "Since",
    "nameWoDiacritics": "Since",
    "status": 9,
    "function": [
      2
    ],
    "date": 607,
    "coordinates": {
      "lat": 9.233333333333333,
      "lon": -75.13333333333334
    }
  },
  {
    "country": "CO",
    "location": "SIJ",
    "name": "Sincelejo",
    "nameWoDiacritics": "Sincelejo",
    "subdivision": "SUC",
    "status": 7,
    "function": [
      2
    ],
    "date": 1501,
    "coordinates": {
      "lat": 9.3,
      "lon": -75.38333333333334
    }
  },
  {
    "country": "CO",
    "location": "SOA",
    "name": "Soacha",
    "nameWoDiacritics": "Soacha",
    "subdivision": "CUN",
    "status": 7,
    "function": [
      2
    ],
    "date": 1407,
    "coordinates": {
      "lat": 4.583333333333333,
      "lon": -74.21666666666667
    }
  },
  {
    "country": "CO",
    "location": "SPC",
    "name": "Sociedad Portuaria Regional Cartagena",
    "nameWoDiacritics": "Sociedad Portuaria Regional Cartagena",
    "subdivision": "BOL",
    "status": 9,
    "function": [
      0,
      2,
      5
    ],
    "date": 1607,
    "coordinates": {
      "lat": 10.4,
      "lon": -75.53333333333333
    }
  },
  {
    "country": "CO",
    "location": "SOX",
    "name": "Sogamoso",
    "nameWoDiacritics": "Sogamoso",
    "subdivision": "BOY",
    "status": 9,
    "function": [
      3
    ],
    "date": 901,
    "coordinates": {
      "lat": 5.716666666666667,
      "lon": -72.93333333333334
    }
  },
  {
    "country": "CO",
    "location": "SQF",
    "name": "Solano",
    "nameWoDiacritics": "Solano",
    "subdivision": "CAQ",
    "status": 7,
    "function": [
      2,
      3
    ],
    "date": 907,
    "coordinates": {
      "lat": 0.7166666666666667,
      "lon": -75.26666666666667
    }
  },
  {
    "country": "CO",
    "location": "SOL",
    "name": "Soledad",
    "nameWoDiacritics": "Soledad",
    "subdivision": "ATL",
    "status": 7,
    "function": [
      2
    ],
    "date": 1107,
    "coordinates": {
      "lat": 10.916666666666666,
      "lon": -74.76666666666667
    }
  },
  {
    "country": "CO",
    "location": "SOH",
    "name": "Solita",
    "nameWoDiacritics": "Solita",
    "status": 9,
    "function": [
      3
    ],
    "date": 901,
    "coordinates": {
      "lat": 0,
      "lon": 0
    }
  },
  {
    "country": "CO",
    "location": "SOP",
    "name": "SopÛ",
    "nameWoDiacritics": "Sopo",
    "subdivision": "CUN",
    "status": 4,
    "function": [
      2
    ],
    "date": 2301,
    "coordinates": {
      "lat": 4.9,
      "lon": -73.93333333333334
    }
  },
  {
    "country": "CO",
    "location": "SUB",
    "name": "Subachoque",
    "nameWoDiacritics": "Subachoque",
    "subdivision": "CUN",
    "status": 4,
    "function": [
      2
    ],
    "date": 2207,
    "coordinates": {
      "lat": 4.933333333333334,
      "lon": -74.18333333333334
    }
  },
  {
    "country": "CO",
    "location": "SUC",
    "name": "Sucre",
    "nameWoDiacritics": "Sucre",
    "subdivision": "SUC",
    "status": 7,
    "function": [
      2
    ],
    "date": 1601,
    "coordinates": {
      "lat": 8.8,
      "lon": -74.71666666666667
    }
  },
  {
    "country": "CO",
    "location": "STM",
    "name": "Sutamarchan",
    "nameWoDiacritics": "Sutamarchan",
    "subdivision": "BOY",
    "status": 4,
    "function": [
      2
    ],
    "date": 2107,
    "coordinates": {
      "lat": 5.6,
      "lon": -73.63333333333334
    }
  },
  {
    "country": "CO",
    "location": "TTM",
    "name": "Tablon de Tamara",
    "nameWoDiacritics": "Tablon de Tamara",
    "status": 9,
    "function": [
      3
    ],
    "date": 901,
    "coordinates": {
      "lat": 0,
      "lon": 0
    }
  },