[
  {
    "country": "CU",
    "name": ".CUBA",
    "function": [],
    "coordinates": {
      "lat": 0,
      "lon": 0
    }
  },
  {
    "country": "CU",
    "location": "ANT",
    "name": "Antilla",
    "nameWoDiacritics": "Antilla",
    "status": "RL",
    "function": [
      1,
      2
    ],
    "date": 701,
    "coordinates": {
      "lat": 20.833333333333332,
      "lon": 7.916666666666667
    }
  },
  {
    "country": "CU",
    "location": "BHO",
    "name": "BahÌa Honda",
    "nameWoDiacritics": "Bahia Honda",
    "status": "RL",
    "function": [
      0
    ],
    "date": 212,
    "coordinates": {
      "lat": 22.9,
      "lon": 8.516666666666667
    }
  },
  {
    "country": "CU",
    "location": "BAN",
    "name": "Banes",
    "nameWoDiacritics": "Banes",
    "status": "RL",
    "function": [
      0,
      1,
      2
    ],
    "date": 701,
    "coordinates": {
      "lat": 20.966666666666665,
      "lon": 7.9
    }
  },
  {
    "country": "CU",
    "location": "BCA",
    "name": "Baracoa",
    "nameWoDiacritics": "Baracoa",
    "status": "AI",
    "function": [
      0,
      3
    ],
    "date": 9601,
    "coordinates": {
      "lat": 0,
      "lon": 0
    }
  },
  {
    "country": "CU",
    "location": "BYM",
    "name": "Bayamo",
    "nameWoDiacritics": "Bayamo",
    "status": "AI",
    "function": [
      3
    ],
    "date": 9601,
    "coordinates": {
      "lat": 0,
      "lon": 0
    }
  },
  {
    "country": "CU",
    "location": "BOG",
    "name": "Boca Grande",
    "nameWoDiacritics": "Boca Grande",
    "status": "RL",
    "function": [
      0
    ],
    "date": 701,
    "coordinates": {
      "lat": 21.583333333333332,
      "lon": 8.4
    }
  },
  {
    "country": "CU",
    "location": "BOQ",
    "name": "Boqueron",
    "nameWoDiacritics": "Boqueron",
    "status": "RL",
    "function": [
      1,
      2
    ],
    "date": 701,
    "coordinates": {
      "lat": 22.166666666666668,
      "lon": 8.5
    }
  },
  {
    "country": "CU",
    "location": "BUF",
    "name": "Bufadero",
    "nameWoDiacritics": "Bufadero",
    "status": "RL",
    "function": [
      0,
      1,
      2
    ],
    "date": 701,
    "coordinates": {
      "lat": 21.566666666666666,
      "lon": 8.183333333333334
    }
  },
  {
    "country": "CU",
    "location": "CAB",
    "name": "CabaÒas",
    "nameWoDiacritics": "Cabanas",
    "status": "RL",
    "function": [
      0
    ],
    "date": 212,
    "coordinates": {
      "lat": 22.983333333333334,
      "lon": 8.416666666666666
    }
  },
  {
    "country": "CU",
    "location": "CAI",
    "name": "CaibariÈn",
    "nameWoDiacritics": "Caibarien",
    "status": "RL",
    "function": [
      0
    ],
    "date": 212,
    "coordinates": {
      "lat": 22.516666666666666,
      "lon": 8.533333333333333
    }
  },
  {
    "country": "CU",
    "location": "CMW",
    "name": "Camag¸ey",
    "nameWoDiacritics": "Camaguey",
    "status": "AI",
    "function": [
      0,
      3
    ],
    "date": 212,
    "coordinates": {
      "lat": 21.383333333333333,
      "lon": 8.25
    }
  },
  {
    "country": "CU",
    "location": "CAR",
    "name": "C·rdenas",
    "nameWoDiacritics": "Cardenas",
    "status": "RL",
    "function": [
      0,
      1,
      2
    ],
    "date": 701,
    "coordinates": {
      "lat": 23.033333333333335,
      "lon": 8.183333333333334
    }
  },
  {
    "country": "CU",
    "location": "CAS",
    "name": "Casilda",
    "nameWoDiacritics": "Casilda",
    "status": "RL",
    "function": [
      0,
      2
    ],
    "date": 701,
    "coordinates": {
      "lat": 21.766666666666666,
      "lon": 8
    }
  },
  {
    "country": "CU",
    "location": "CCC",
    "name": "Cayo Coco",
    "nameWoDiacritics": "Cayo Coco",
    "status": "RL",
    "function": [
      3
    ],
    "date": 907,
    "coordinates": {
      "lat": 22.5,
      "lon": 8.383333333333333
    }
  },
  {
    "country": "CU",
    "location": "CYO",
    "name": "Cayo Largo del Sur",
    "nameWoDiacritics": "Cayo Largo del Sur",
    "status": "RQ",
    "function": [
      3
    ],
    "date": 901,
    "coordinates": {
      "lat": 21.616666666666667,
      "lon": 8.216666666666667
    }
  },
  {
    "country": "CU",
    "location": "CEI",
    "name": "Ceiba Hueca",
    "nameWoDiacritics": "Ceiba Hueca",
    "status": "RL",
    "function": [
      0,
      2
    ],
    "date": 701,
    "coordinates": {
      "lat": 20.216666666666665,
      "lon": 8.2
    }
  },
  {
    "country": "CU",
    "location": "CFG",
    "name": "Cienfuegos",
    "nameWoDiacritics": "Cienfuegos",
    "status": "AI",
    "function": [
      0,
      3
    ],
    "date": 9601,
    "coordinates": {
      "lat": 0,
      "lon": 0
    }
  },
  {
    "country": "CU",
    "location": "QCO",
    "name": "Colon",
    "nameWoDiacritics": "Colon",
    "status": "RL",
    "function": [
      0,
      2,
      3
    ],
    "date": 9805,
    "coordinates": {
      "lat": 0,
      "lon": 0
    }
  },
  {
    "country": "CU",
    "location": "GIB",
    "name": "Gibara",
    "nameWoDiacritics": "Gibara",
    "status": "RL",
    "function": [
      0,
      1,
      2,
      5
    ],
    "date": 701,
    "coordinates": {
      "lat": 21.1,
      "lon": 8
    }
  },
  {
    "country": "CU",
    "location": "GUB",
    "name": "Guantanamo Bay",
    "nameWoDiacritics": "Guantanamo Bay",
    "status": "RQ",
    "function": [
      0,
      2
    ],
    "date": 9506,
    "coordinates": {
      "lat": 0,
      "lon": 0
    }
  },
  {
    "country": "CU",
    "location": "NBW",
    "name": "Guantanamo Nas Apt",
    "nameWoDiacritics": "Guantanamo Nas Apt",
    "status": "AI",
    "function": [
      3
    ],
    "date": 9601,
    "coordinates": {
      "lat": 0,
      "lon": 0
    }
  },
  {
    "country": "CU",
    "location": "GYB",
    "name": "Guayabal",
    "nameWoDiacritics": "Guayabal",
    "status": "AI",
    "function": [
      0
    ],
    "date": 9401,
    "coordinates": {
      "lat": 0,
      "lon": 0
    }
  },
  {
    "change": "=",
    "country": "CU",
    "name": "Havana = La Habana",
    "nameWoDiacritics": "Havana = La Habana",
    "function": [],
    "coordinates": {
      "lat": 0,
      "lon": 0
    }
  },
  {
    "country": "CU",
    "location": "HOG",
    "name": "Holguin",
    "nameWoDiacritics": "Holguin",
    "status": "AI",
    "function": [
      3
    ],
    "date": 9601,
    "coordinates": {
      "lat": 0,
      "lon": 0
    }
  },
  {
    "country": "CU",
    "location": "IDS",
    "name": "Isabela de Sagua",
    "nameWoDiacritics": "Isabela de Sagua",
    "status": "RQ",
    "function": [
      0
    ],
    "date": 9506,
    "coordinates": {
      "lat": 0,
      "lon": 0
    }
  },
  {
    "country": "CU",
    "location": "JUC",
    "name": "J˙caro",
    "nameWoDiacritics": "Jucaro",
    "status": "RL",
    "function": [
      0,
      1,
      2
    ],
    "date": 701,
    "coordinates": {
      "lat": 21.633333333333333,
      "lon": 8.416666666666666
    }
  },
  {
    "country": "CU",
    "location": "LCL",
    "name": "La Coloma",
    "nameWoDiacritics": "La Coloma",
    "status": "RL",
    "function": [
      3
    ],
    "date": 907,
    "coordinates": {
      "lat": 22.333333333333332,
      "lon": 8.55
    }
  },
  {
    "country": "CU",
    "location": "HAV",
    "name": "La Habana",
    "nameWoDiacritics": "La Habana",
    "subdivision": 3,
    "status": "AI",
    "function": [
      0,
      1,
      2,
      3,
      4
    ],
    "date": 501,
    "coordinates": {
      "lat": 23.116666666666667,
      "lon": 8.366666666666667
    }
  },
  {
    "country": "CU",
    "location": "BWW",
    "name": "Las Brujas",
    "nameWoDiacritics": "Las Brujas",
    "status": "RL",
    "function": [
      3
    ],
    "date": 907,
    "coordinates": {
      "lat": 23.616666666666667,
      "lon": 2.283333333333333
    }
  },
  {
    "country": "CU",
    "location": "VTU",
    "name": "Las Tunas",
    "nameWoDiacritics": "Las Tunas",
    "subdivision": 10,
    "status": "AI",
    "function": [
      1,
      2,
      3
    ],
    "date": 207,
    "coordinates": {
      "lat": 20.95,
      "lon": 8.083333333333334
    }
  },
  {
    "country": "CU",
    "location": "GAO",
    "name": "Los Canos Apt/Guantanamo",
    "nameWoDiacritics": "Los Canos Apt/Guantanamo",
    "status": "AI",
    "function": [
      3
    ],
    "coordinates": {
      "lat": 0,
      "lon": 0
    }
  },
  {
    "country": "CU",
    "location": "MZO",
    "name": "Manzanillo",
    "nameWoDiacritics": "Manzanillo",
    "status": "AI",
    "function": [
      0,
      3
    ],
    "date": 9601,
    "coordinates": {
      "lat": 0,
      "lon": 0
    }
  },
  {
    "country": "CU",
    "location": "MAR",
    "name": "Mariel",
    "nameWoDiacritics": "Mariel",
    "status": "RL",
    "function": [
      0,
      1,
      2,
      3
    ],
    "date": 701,
    "coordinates": {
      "lat": 23,
      "lon": 8.4
    }
  },
  {
    "country": "CU",
    "location": "QMA",
    "name": "Matanzas",
    "nameWoDiacritics": "Matanzas",
    "status": "AI",
    "function": [
      0,
      3
    ],
    "date": 9601,
    "coordinates": {
      "lat": 0,
      "lon": 0
    }
  },
  {
    "country": "CU",
    "location": "AVI",
    "name": "Maximo Gomez Apt",
    "nameWoDiacritics": "Maximo Gomez Apt",
    "status": "RL",
    "function": [
      3
    ],
    "date": 907,
    "coordinates": {
      "lat": 22.016666666666666,
      "lon": 8.4
    }
  },
  {
    "country": "CU",
    "location": "MJG",
    "name": "Mayajigua",
    "nameWoDiacritics": "Mayajigua",
    "subdivision": 7,
    "status": "RQ",
    "function": [
      3
    ],
    "date": 901,
    "coordinates": {
      "lat": 21.75,
      "lon": 8.5
    }
  },
  {
    "country": "CU",
    "location": "MEL",
    "name": "Media Luna",
    "nameWoDiacritics": "Media Luna",
    "status": "RL",
    "function": [
      0,
      2
    ],
    "date": 701,
    "coordinates": {
      "lat": 20.15,
      "lon": 8.2
    }
  },
  {
    "country": "CU",
    "location": "MLG",
    "name": "Melgarejo",
    "nameWoDiacritics": "Melgarejo",
    "subdivision": 13,
    "status": "RL",
    "function": [
      1,
      2
    ],
    "date": 1307,
    "coordinates": {
      "lat": 20.05,
      "lon": 7.916666666666667
    }
  },
  {
    "country": "CU",
    "location": "MIR",
    "name": "Miramar",
    "nameWoDiacritics": "Miramar",
    "status": "RL",
    "function": [
      2
    ],
    "date": 1207,
    "coordinates": {
      "lat": 23.116666666666667,
      "lon": 8.366666666666667
    }
  },
  {
    "country": "CU",
    "location": "MOA",
    "name": "Moa",
    "nameWoDiacritics": "Moa",
    "status": "AI",
    "function": [
      3
    ],
    "date": 9601,
    "coordinates": {
      "lat": 0,
      "lon": 0
    }
  },
  {
    "country": "CU",
    "location": "MOR",
    "name": "MorÛn",
    "nameWoDiacritics": "Moron",
    "subdivision": 8,
    "status": "RL",
    "function": [
      1,
      2
    ],
    "date": 1407,
    "coordinates": {
      "lat": 22.1,
      "lon": 8.383333333333333
    }
  },
  {
    "country": "CU",
    "location": "ICR",
    "name": "Nicaro",
    "nameWoDiacritics": "Nicaro",
    "status": "AI",
    "function": [
      0,
      3
    ],
    "date": 9506,
    "coordinates": {
      "lat": 0,
      "lon": 0
    }
  },
  {
    "country": "CU",
    "location": "NIQ",
    "name": "Niquero",
    "nameWoDiacritics": "Niquero",
    "status": "RL",
    "function": [
      0,
      1,
      2
    ],
    "date": 701,
    "coordinates": {
      "lat": 20.05,
      "lon": 8.216666666666667
    }
  },
  {
    "country": "CU",
    "location": "GER",
    "name": "Nueva Gerona",
    "nameWoDiacritics": "Nueva Gerona",
    "status": "AI",
    "function": [
      0,
      3
    ],
    "date": 9601,
    "coordinates": {
      "lat": 0,
      "lon": 0
    }
  },
  {
    "country": "CU",
    "location": "NVT",
    "name": "Nuevitas",
    "nameWoDiacritics": "Nuevitas",
    "status": "RL",
    "function": [
      0,
      1,
      2
    ],
    "date": 701,
    "coordinates": {
      "lat": 21.55,
      "lon": 8.183333333333334
    }
  },
  {
    "country": "CU",
    "location": "PAL",
    "name": "Palo Alto",
    "nameWoDiacritics": "Palo Alto",
    "status": "RL",
    "function": [
      0,
      2
    ],
    "date": 307,
    "coordinates": {
      "lat": 21.6,
      "lon": 8.416666666666666
    }
  },
  {
    "country": "CU",
    "location": "PIL",
    "name": "PilÛn",
    "nameWoDiacritics": "Pilon",
    "status": "RL",
    "function": [
      1,
      2
    ],
    "date": 701,
    "coordinates": {
      "lat": 20.85,
      "lon": 7.9
    }
  },
  {
    "country": "CU",
    "location": "QPD",
    "name": "Pinar del Rio",
    "nameWoDiacritics": "Pinar del Rio",
    "status": "RQ",
    "function": [
      3
    ],
    "date": 901,
    "coordinates": {
      "lat": 22.416666666666668,
      "lon": 8.566666666666666
    }
  },
  {
    "country": "CU",
    "location": "PST",
    "name": "Preston",
    "nameWoDiacritics": "Preston",
    "status": "RQ",
    "function": [
      3
    ],
    "date": 901,
    "coordinates": {
      "lat": 20.75,
      "lon": 7.883333333333333
    }
  },
  {
    "country": "CU",
    "location": "VIT",
    "name": "Puerto da Vita",
    "nameWoDiacritics": "Puerto da Vita",
    "status": "RL",
    "function": [
      0,
      1,
      2
    ],
    "date": 701,
    "coordinates": {
      "lat": 21.083333333333332,
      "lon": 7.916666666666667
    }
  },
  {
    "country": "CU",
    "location": "PAS",
    "name": "Puerto de Pastelillo",
    "nameWoDiacritics": "Puerto de Pastelillo",
    "status": "RL",
    "function": [
      0,
      2
    ],
    "date": 701,
    "coordinates": {
      "lat": 21.55,
      "lon": 8.183333333333334
    }
  },
  {
    "country": "CU",
    "location": "MNT",
    "name": "Puerto ManatÌ",
    "nameWoDiacritics": "Puerto Manati",
    "status": "RL",
    "function": [
      0,
      1,
      2
    ],
    "date": 701,
    "coordinates": {
      "lat": 21.366666666666667,
      "lon": 8.083333333333334
    }
  },
  {
    "country": "CU",
    "location": "PPA",
    "name": "Puerto Padre",
    "nameWoDiacritics": "Puerto Padre",
    "status": "RL",
    "function": [
      0,
      1,
      2
    ],
    "date": 701,
    "coordinates": {
      "lat": 21.2,
      "lon": 8.05
    }
  },
  {
    "country": "CU",
    "location": "PTA",
    "name": "Puerto Tarafa",
    "nameWoDiacritics": "Puerto Tarafa",
    "status": "RL",
    "function": [
      0,
      1,
      2
    ],
    "date": 701,
    "coordinates": {
      "lat": 21.566666666666666,
      "lon": 8.183333333333334
    }
  },
  {
    "country": "CU",
    "location": "UPA",
    "name": "Punta Alegre",
    "nameWoDiacritics": "Punta Alegre",
    "status": "RQ",
    "function": [
      3
    ],
    "date": 901,
    "coordinates": {
      "lat": 22.366666666666667,
      "lon": 8.4
    }
  },
  {
    "country": "CU",
    "location": "UMA",
    "name": "Punta de Maisi",
    "nameWoDiacritics": "Punta de Maisi",
    "subdivision": 14,
    "status": "RQ",
    "function": [
      2,
      3
    ],
    "date": 907,
    "coordinates": {
      "lat": 20.25,
      "lon": 7.666666666666667
    }
  },
  {
    "country": "CU",
    "location": "SDT",
    "name": "Sagua de T·namo",
    "nameWoDiacritics": "Sagua de Tanamo",
    "subdivision": 11,
    "status": "RL",
    "function": [
      0
    ],
    "date": 212,
    "coordinates": {
      "lat": 20.583333333333332,
      "lon": 7.85
    }
  },
  {
    "country": "CU",
    "location": "RSL",
    "name": "Sagua la Grande",
    "nameWoDiacritics": "Sagua la Grande",
    "status": "RL",
    "function": [
      0,
      1,
      2,
      3
    ],
    "date": 701,
    "coordinates": {
      "lat": 22.8,
      "lon": 8
    }
  },
  {
    "country": "CU",
    "location": "SNJ",
    "name": "San Julian",
    "nameWoDiacritics": "San Julian",
    "status": "RQ",
    "function": [
      3
    ],
    "date": 901,
    "coordinates": {
      "lat": 22.066666666666666,
      "lon": 8.666666666666666
    }
  },
  {
    "country": "CU",
    "location": "QSN",
    "name": "San Nicolas Bari",
    "nameWoDiacritics": "San Nicolas Bari",
    "status": "RL",
    "function": [
      3
    ],
    "date": 907,
    "coordinates": {
      "lat": 22.75,
      "lon": 8.25
    }
  },
  {
    "country": "CU",
    "location": "SNU",
    "name": "Santa Clara",
    "nameWoDiacritics": "Santa Clara",
    "status": "AI",
    "function": [
      0
    ],
    "date": 9601,
    "coordinates": {
      "lat": 0,
      "lon": 0
    }
  },
  {
    "country": "CU",
    "location": "SCS",
    "name": "Santa Cruz del Sur",
    "nameWoDiacritics": "Santa Cruz del Sur",
    "status": "AI",
    "function": [
      0
    ],
    "date": 9401,
    "coordinates": {
      "lat": 0,
      "lon": 0
    }
  },
  {
    "country": "CU",
    "location": "USS",
    "name": "Santi Spiritus",
    "nameWoDiacritics": "Santi Spiritus",
    "status": "RL",
    "function": [
      2,
      3
    ],
    "date": 907,
    "coordinates": {
      "lat": 21.916666666666668,
      "lon": 8.533333333333333
    }
  },
  {
    "country": "CU",
    "location": "SCU",
    "name": "Santiago de Cuba",
    "nameWoDiacritics": "Santiago de Cuba",
    "status": "AI",
    "function": [
      0,
      3
    ],
    "date": 9601,
    "coordinates": {
      "lat": 0,
      "lon": 0
    }
  },
  {
    "country": "CU",
    "location": "SZJ",
    "name": "Siguanea",
    "nameWoDiacritics": "Siguanea",
    "subdivision": 99,
    "status": "RL",
    "function": [
      3
    ],
    "date": 907,
    "coordinates": {
      "lat": 21.616666666666667,
      "lon": 8.416666666666666
    }
  },
  {
    "country": "CU",
    "location": "TAN",
    "name": "T·namo",
    "nameWoDiacritics": "Tanamo",
    "status": "RL",
    "function": [
      2
    ],
    "date": 212,
    "coordinates": {
      "lat": 20.683333333333334,
      "lon": 7.866666666666667
    }
  },
  {
    "country": "CU",
    "location": "TND",
    "name": "Trinidad",
    "nameWoDiacritics": "Trinidad",
    "status": "RL",
    "function": [
      2,
      3
    ],
    "date": 9805,
    "coordinates": {
      "lat": 0,
      "lon": 0
    }
  },
  {
    "country": "CU",
    "location": "TDZ",
    "name": "Tunas de Zaza",
    "nameWoDiacritics": "Tunas de Zaza",
    "status": "RL",
    "function": [
      0,
      1,
      2
    ],
    "date": 701,
    "coordinates": {
      "lat": 21.633333333333333,
      "lon": 8.55
    }
  },
  {
    "country": "CU",
    "location": "VRA",
    "name": "Varadero",
    "nameWoDiacritics": "Varadero",
    "subdivision": 4,
    "status": "AI",
    "function": [
      2,
      3
    ],
    "date": 401,
    "coordinates": {
      "lat": 23.15,
      "lon": 8.183333333333334
    }
  },
  {
    "country": "CU",
    "location": "VDO",
    "name": "Vedado",
    "nameWoDiacritics": "Vedado",
    "status": "RL",
    "function": [
      2
    ],
    "date": 1101,
    "coordinates": {
      "lat": 23.133333333333333,
      "lon": 8.533333333333333
    }
  }
]