[
  {
    "country": "DZ",
    "name": ".ALGERIA",
    "function": [],
    "coordinates": {
      "lat": 0,
      "lon": 0
    }
  },
  {
    "country": "DZ",
    "location": "AZR",
    "name": "Adrar",
    "nameWoDiacritics": "Adrar",
    "subdivision": 1,
    "status": "RQ",
    "function": [
      3
    ],
    "date": 901,
    "coordinates": {
      "lat": 27.866666666666667,
      "lon": 0.016666666666666666
    }
  },
  {
    "country": "DZ",
    "location": "QBP",
    "name": "Ain Beida",
    "nameWoDiacritics": "Ain Beida",
    "subdivision": 4,
    "status": "RL",
    "function": [
      2
    ],
    "date": 907,
    "coordinates": {
      "lat": 31.933333333333334,
      "lon": 1.05
    }
  },
  {
    "country": "DZ",
    "location": "A8L",
    "name": "Ain Benian",
    "nameWoDiacritics": "Ain Benian",
    "subdivision": 42,
    "status": "RL",
    "function": [
      2
    ],
    "date": 1601,
    "coordinates": {
      "lat": 36.8,
      "lon": 0.4166666666666667
    }
  },
  {
    "country": "DZ",
    "location": "AIN",
    "name": "'AÔn Benian",
    "nameWoDiacritics": "'Ain Benian",
    "subdivision": 42,
    "status": "RL",
    "function": [
      5
    ],
    "date": 1201,
    "coordinates": {
      "lat": 36.8,
      "lon": 0.4166666666666667
    }
  },
  {
    "country": "DZ",
    "location": "ADA",
    "name": "AÔn Defla",
    "nameWoDiacritics": "Ain Defla",
    "subdivision": 44,
    "status": "RL",
    "function": [
      2
    ],
    "date": 1707,
    "coordinates": {
      "lat": 36.266666666666666,
      "lon": 0.25
    }
  },
  {
    "country": "DZ",
    "location": "BUJ",
    "name": "Ain Eddis Apt/Bou Saada",
    "nameWoDiacritics": "Ain Eddis Apt/Bou Saada",
    "subdivision": 28,
    "status": "RL",
    "function": [
      3
    ],
    "date": 907,
    "coordinates": {
      "lat": 35.31666666666667,
      "lon": 0.7
    }
  },
  {
    "country": "DZ",
    "location": "QEH",
    "name": "'Ain El Hadjar",
    "nameWoDiacritics": "'Ain El Hadjar",
    "status": "RL",
    "function": [
      2
    ],
    "date": 907,
    "coordinates": {
      "lat": 34.766666666666666,
      "lon": 0.15
    }
  },
  {
    "country": "DZ",
    "location": "QIM",
    "name": "Ain M'Lila",
    "nameWoDiacritics": "Ain M'Lila",
    "subdivision": 4,
    "status": "RL",
    "function": [
      2
    ],
    "date": 907,
    "coordinates": {
      "lat": 36.03333333333333,
      "lon": 1.05
    }
  },
  {
    "country": "DZ",
    "location": "ATY",
    "name": "Ain Taya",
    "nameWoDiacritics": "Ain Taya",
    "subdivision": 16,
    "status": "RQ",
    "function": [
      5
    ],
    "date": 1007,
    "coordinates": {
      "lat": 36.78333333333333,
      "lon": 0.5166666666666667
    }
  },
  {
    "country": "DZ",
    "location": "TCT",
    "name": "Ain Temouchent",
    "nameWoDiacritics": "Ain Temouchent",
    "status": "RL",
    "function": [
      2
    ],
    "date": 901,
    "coordinates": {
      "lat": 35.28333333333333,
      "lon": 0.16666666666666666
    }
  },
  {
    "country": "DZ",
    "location": "ATT",
    "name": "Ain Touta",
    "nameWoDiacritics": "Ain Touta",
    "subdivision": 5,
    "status": "RL",
    "function": [
      2
    ],
    "date": 1601,
    "coordinates": {
      "lat": 35.36666666666667,
      "lon": 0.9166666666666666
    }
  },
  {
    "country": "DZ",
    "location": "AZO",
    "name": "AÔn Zaouia",
    "nameWoDiacritics": "Ain Zaouia",
    "subdivision": 15,
    "status": "RL",
    "function": [
      2
    ],
    "date": 1301,
    "coordinates": {
      "lat": 36.53333333333333,
      "lon": 0.5833333333333334
    }
  },
  {
    "country": "DZ",
    "location": "ALG",
    "name": "Alger (Algiers)",
    "nameWoDiacritics": "Alger (Algiers)",
    "subdivision": 16,
    "status": "AI",
    "function": [
      0,
      1,
      2,
      3,
      4,
      5
    ],
    "date": 1101,
    "coordinates": {
      "lat": 36.75,
      "lon": 0.5
    }
  },
  {
    "country": "DZ",
    "location": "AAE",
    "name": "Annaba (ex Bone)",
    "nameWoDiacritics": "Annaba (ex Bone)",
    "status": "AI",
    "function": [
      0,
      3
    ],
    "date": 9601,
    "coordinates": {
      "lat": 0,
      "lon": 0
    }
  },
  {
    "country": "DZ",
    "location": "AZW",
    "name": "Arzew",
    "nameWoDiacritics": "Arzew",
    "status": "RL",
    "function": [
      0,
      1,
      2
    ],
    "date": 701,
    "coordinates": {
      "lat": 35.86666666666667,
      "lon": 0.016666666666666666
    }
  },
  {
    "country": "DZ",
    "location": "ZZA",
    "name": "Azazga",
    "nameWoDiacritics": "Azazga",
    "subdivision": 15,
    "status": "RL",
    "function": [
      2
    ],
    "date": 907,
    "coordinates": {
      "lat": 36.75,
      "lon": 0.7
    }
  },
  {
    "country": "DZ",
    "location": "EZZ",
    "name": "Bab Ezzouar",
    "nameWoDiacritics": "Bab Ezzouar",
    "subdivision": 16,
    "status": "RL",
    "function": [
      2
    ],
    "date": 1301,
    "coordinates": {
      "lat": 36.71666666666667,
      "lon": 0.5166666666666667
    }
  },
  {
    "country": "DZ",
    "location": "BRK",
    "name": "Baraki",
    "nameWoDiacritics": "Baraki",
    "subdivision": 42,
    "status": "RL",
    "function": [
      2
    ],
    "date": 1301,
    "coordinates": {
      "lat": 36.666666666666664,
      "lon": 0.5
    }
  },
  {
    "country": "DZ",
    "location": "ZZB",
    "name": "Barika",
    "nameWoDiacritics": "Barika",
    "subdivision": 5,
    "status": "RL",
    "function": [
      2
    ],
    "date": 907,
    "coordinates": {
      "lat": 35.38333333333333,
      "lon": 0.8666666666666667
    }
  },
  {
    "country": "DZ",
    "location": "BLJ",
    "name": "Batna",
    "nameWoDiacritics": "Batna",
    "subdivision": 5,
    "status": "RQ",
    "function": [
      3
    ],
    "date": 901,
    "coordinates": {
      "lat": 35.55,
      "lon": 1.0166666666666666
    }
  },
  {
    "country": "DZ",
    "location": "CBH",
    "name": "Bechar",
    "nameWoDiacritics": "Bechar",
    "subdivision": 8,
    "status": "RQ",
    "function": [
      3
    ],
    "date": 901,
    "coordinates": {
      "lat": 31.616666666666667,
      "lon": 0.35
    }
  },
  {
    "country": "DZ",
    "location": "BJA",
    "name": "Bejaia (ex Bougie)",
    "nameWoDiacritics": "Bejaia (ex Bougie)",
    "status": "AI",
    "function": [
      0,
      3
    ],
    "date": 9601,
    "coordinates": {
      "lat": 0,
      "lon": 0
    }
  },
  {
    "country": "DZ",
    "location": "BMR",
    "name": "Beni Mered",
    "nameWoDiacritics": "Beni Mered",
    "status": "RL",
    "function": [
      5
    ],
    "date": 1107,
    "coordinates": {
      "lat": 36.516666666666666,
      "lon": 0.4166666666666667
    }
  },
  {
    "country": "DZ",
    "location": "BSF",
    "name": "Benisaf",
    "nameWoDiacritics": "Benisaf",
    "status": "RL",
    "function": [
      0
    ],
    "date": 201,
    "coordinates": {
      "lat": 35.28333333333333,
      "lon": 0.2
    }
  },
  {
    "country": "DZ",
    "location": "ZBI",
    "name": "Berriane",
    "nameWoDiacritics": "Berriane",
    "status": "RL",
    "function": [
      3
    ],
    "date": 907,
    "coordinates": {
      "lat": 32.833333333333336,
      "lon": 0.5666666666666667
    }
  },
  {
    "country": "DZ",
    "location": "BHA",
    "name": "Bethioua",
    "nameWoDiacritics": "Bethioua",
    "subdivision": 31,
    "status": "RL",
    "function": [
      0
    ],
    "date": 1201,
    "coordinates": {
      "lat": 35.8,
      "lon": 0.016666666666666666
    }
  },
  {
    "country": "DZ",
    "location": "BTA",
    "name": "Bethoula",
    "nameWoDiacritics": "Bethoula",
    "status": "AI",
    "function": [
      0
    ],
    "date": 201,
    "coordinates": {
      "lat": 0,
      "lon": 0
    }
  },
  {
    "country": "DZ",
    "location": "QBT",
    "name": "Bettioua",
    "nameWoDiacritics": "Bettioua",
    "subdivision": 31,
    "status": "RL",
    "function": [
      2
    ],
    "date": 907,
    "coordinates": {
      "lat": 35.8,
      "lon": 0.016666666666666666
    }
  },
  {
    "country": "DZ",
    "location": "D2H",
    "name": "Bir Mourad Rais",
    "nameWoDiacritics": "Bir Mourad Rais",
    "subdivision": 16,
    "status": "RL",
    "function": [
      2
    ],
    "date": 1601,
    "coordinates": {
      "lat": 36.733333333333334,
      "lon": 0.5
    }
  },
  {
    "country": "DZ",
    "location": "BIM",
    "name": "Bir Mourad RaÔs",
    "nameWoDiacritics": "Bir Mourad Rais",
    "subdivision": 42,
    "status": "RL",
    "function": [
      2
    ],
    "date": 1307,
    "coordinates": {
      "lat": 36.733333333333334,
      "lon": 0.5
    }
  },
  {
    "country": "DZ",
    "location": "G2H",
    "name": "Birkhadem",
    "nameWoDiacritics": "Birkhadem",
    "subdivision": 16,
    "status": "RL",
    "function": [
      2
    ],
    "date": 1601,
    "coordinates": {
      "lat": 36.71666666666667,
      "lon": 0.5
    }
  },
  {
    "country": "DZ",
    "location": "BIR",
    "name": "Birtouta",
    "nameWoDiacritics": "Birtouta",
    "subdivision": 42,
    "status": "RL",
    "function": [
      2
    ],
    "date": 1807,
    "coordinates": {
      "lat": 36.65,
      "lon": 0.5
    }
  },
  {
    "country": "DZ",
    "location": "BSK",
    "name": "Biskra",
    "nameWoDiacritics": "Biskra",
    "status": "RQ",
    "function": [
      3
    ],
    "date": 901,
    "coordinates": {
      "lat": 34.85,
      "lon": 0.9
    }
  },
  {
    "country": "DZ",
    "location": "BLD",
    "name": "Blida",
    "nameWoDiacritics": "Blida",
    "subdivision": 9,
    "status": "RL",
    "function": [
      5
    ],
    "date": 901,
    "coordinates": {
      "lat": 36.46666666666667,
      "lon": 0.4
    }
  },
  {
    "country": "DZ",
    "location": "BMW",
    "name": "Bordj Badj Mokthar",
    "nameWoDiacritics": "Bordj Badj Mokthar",
    "status": "RQ",
    "function": [
      3
    ],
    "date": 901,
    "coordinates": {
      "lat": 0,
      "lon": 0
    }
  },
  {
    "country": "DZ",
    "location": "BOR",
    "name": "Bordj Bou Arreridj",
    "nameWoDiacritics": "Bordj Bou Arreridj",
    "subdivision": 34,
    "status": "RL",
    "function": [
      1,
      2,
      5
    ],
    "date": 407,
    "coordinates": {
      "lat": 36.06666666666667,
      "lon": 0.7333333333333333
    }
  },
  {
    "country": "DZ",
    "location": "BEK",
    "name": "Bordj El Kiffan",
    "nameWoDiacritics": "Bordj El Kiffan",
    "subdivision": 16,
    "status": "RL",
    "function": [
      2
    ],
    "date": 1601,
    "coordinates": {
      "lat": 36.733333333333334,
      "lon": 0.5166666666666667
    }
  },
  {
    "country": "DZ",
    "location": "BOM",
    "name": "Bordj MenaÔel",
    "nameWoDiacritics": "Bordj Menaiel",
    "status": "RL",
    "function": [
      1,
      2
    ],
    "date": 601,
    "coordinates": {
      "lat": 36.733333333333334,
      "lon": 0.5666666666666667
    }
  },
  {
    "country": "DZ",
    "location": "ZAB",
    "name": "Bou Kadir",
    "nameWoDiacritics": "Bou Kadir",
    "subdivision": 2,
    "status": "RL",
    "function": [
      2
    ],
    "date": 907,
    "coordinates": {
      "lat": 36.06666666666667,
      "lon": 0.16666666666666666
    }
  },
  {
    "country": "DZ",
    "location": "QFD",
    "name": "Boufarik",
    "nameWoDiacritics": "Boufarik",
    "subdivision": 9,
    "status": "RL",
    "function": [
      2
    ],
    "date": 907,
    "coordinates": {
      "lat": 36.55,
      "lon": 0.4166666666666667
    }
  },
  {
    "country": "DZ",
    "location": "BNN",
    "name": "Bouinan",
    "nameWoDiacritics": "Bouinan",
    "subdivision": 9,
    "status": "RL",
    "function": [
      2
    ],
    "date": 1707,
    "coordinates": {
      "lat": 36.516666666666666,
      "lon": 0.4166666666666667
    }
  },
  {
    "country": "DZ",
    "location": "BIU",
    "name": "Bouinane",
    "nameWoDiacritics": "Bouinane",
    "subdivision": 9,
    "status": "RQ",
    "function": [
      0,
      2
    ],
    "date": 901,
    "coordinates": {
      "lat": 0,
      "lon": 0
    }
  },
  {
    "country": "DZ",
    "location": "QBZ",
    "name": "Bouira",
    "nameWoDiacritics": "Bouira",
    "status": "RL",
    "function": [
      2
    ],
    "date": 907,
    "coordinates": {
      "lat": 36.38333333333333,
      "lon": 0.5833333333333334
    }
  },
  {
    "country": "DZ",
    "location": "BOU",
    "name": "Boumerdas",
    "nameWoDiacritics": "Boumerdas",
    "subdivision": 35,
    "status": "RL",
    "function": [
      2
    ],
    "date": 501,
    "coordinates": {
      "lat": 36.766666666666666,
      "lon": 0.5333333333333333
    }
  },
  {
    "country": "DZ",
    "location": "CAN",
    "name": "Canastel",
    "nameWoDiacritics": "Canastel",
    "subdivision": 31,
    "status": "RL",
    "function": [
      2
    ],
    "date": 1301,
    "coordinates": {
      "lat": 35.75,
      "lon": 0.05
    }
  },
  {
    "country": "DZ",
    "location": "CEA",
    "name": "Cheghoum-el-Aid",
    "nameWoDiacritics": "Cheghoum-el-Aid",
    "subdivision": 43,
    "status": "RL",
    "function": [
      2
    ],
    "date": 901,
    "coordinates": {
      "lat": 36.15,
      "lon": 1
    }
  },
  {
    "country": "DZ",
    "location": "F4U",
    "name": "Cheraga",
    "nameWoDiacritics": "Cheraga",
    "subdivision": 16,
    "status": "RL",
    "function": [
      2
    ],
    "date": 1601,
    "coordinates": {
      "lat": 36.766666666666666,
      "lon": 0.4166666666666667
    }
  },
  {
    "country": "DZ",
    "location": "CHE",
    "name": "Cherchell",
    "nameWoDiacritics": "Cherchell",
    "status": "RL",
    "function": [
      0,
      2
    ],
    "date": 701,
    "coordinates": {
      "lat": 36.6,
      "lon": 0.35
    }
  },
  {
    "country": "DZ",
    "location": "CTN",
    "name": "Chetouane",
    "nameWoDiacritics": "Chetouane",
    "subdivision": 13,
    "status": "RL",
    "function": [
      2
    ],
    "date": 1301,
    "coordinates": {
      "lat": 34.916666666666664,
      "lon": 0.18333333333333332
    }
  },
  {
    "country": "DZ",
    "location": "CHF",
    "name": "Chiffa",
    "nameWoDiacritics": "Chiffa",
    "subdivision": 9,
    "status": "RL",
    "function": [
      5
    ],
    "date": 901,
    "coordinates": {
      "lat": 36.45,
      "lon": 0.4
    }
  },
  {
    "country": "DZ",
    "location": "CLF",
    "name": "Chlef",
    "nameWoDiacritics": "Chlef",
    "subdivision": 2,
    "status": "RL",
    "function": [
      2,
      5
    ],
    "date": 901,
    "coordinates": {
      "lat": 36.15,
      "lon": 0.2
    }
  },
  {
    "country": "DZ",
    "location": "COL",
    "name": "Collo",
    "nameWoDiacritics": "Collo",
    "status": "RL",
    "function": [
      0,
      2
    ],
    "date": 701,
    "coordinates": {
      "lat": 37.016666666666666,
      "lon": 1.05
    }
  },
  {
    "country": "DZ",
    "location": "CZL",
    "name": "Constantine",
    "nameWoDiacritics": "Constantine",
    "status": "AI",
    "function": [
      3
    ],
    "date": 9601,
    "coordinates": {
      "lat": 0,
      "lon": 0
    }
  },
  {
    "country": "DZ",
    "location": "DEB",
    "name": "Dar el BeÔda",
    "nameWoDiacritics": "Dar el Beida",
    "subdivision": 16,
    "status": "RL",
    "function": [
      2
    ],
    "date": 1301,
    "coordinates": {
      "lat": 36.7,
      "lon": 0.5166666666666667
    }
  },
  {
    "country": "DZ",
    "location": "DEL",
    "name": "Dellys",
    "nameWoDiacritics": "Dellys",
    "status": "RL",
    "function": [
      0,
      2
    ],
    "date": 701,
    "coordinates": {
      "lat": 36.916666666666664,
      "lon": 0.5833333333333334
    }
  },
  {
    "country": "DZ",
    "location": "DJG",
    "name": "Djanet",
    "nameWoDiacritics": "Djanet",
    "subdivision": 33,
    "status": "RQ",
    "function": [
      3
    ],
    "date": 901,
    "coordinates": {
      "lat": 24.55,
      "lon": 1.5333333333333334
    }
  },
  {
    "country": "DZ",
    "location": "QDJ",
    "name": "Djelfa",
    "nameWoDiacritics": "Djelfa",
    "subdivision": 17,
    "status": "RL",
    "function": [
      2
    ],
    "date": 907,
    "coordinates": {
      "lat": 34.666666666666664,
      "lon": 0.5166666666666667
    }
  },
  {
    "country": "DZ",
    "location": "DJE",
    "name": "Djen-Djen",
    "nameWoDiacritics": "Djen-Djen",
    "status": "AI",
    "function": [
      0
    ],
    "date": 201,
    "coordinates": {
      "lat": 0,
      "lon": 0
    }
  },
  {
    "country": "DZ",
    "location": "DEM",
    "name": "Draa el Mizan",
    "nameWoDiacritics": "Draa el Mizan",
    "status": "RL",
    "function": [
      2
    ],
    "date": 601,
    "coordinates": {
      "lat": 36.53333333333333,
      "lon": 0.5666666666666667
    }
  },
  {
    "country": "DZ",
    "location": "DRA",
    "name": "Draria",
    "nameWoDiacritics": "Draria",
    "subdivision": 42,
    "status": "RL",
    "function": [
      2
    ],
    "date": 1201,
    "coordinates": {
      "lat": 36.733333333333334,
      "lon": 0.5
    }
  },
  {
    "country": "DZ",
    "location": "QAS",
    "name": "Ech Cheliff",
    "nameWoDiacritics": "Ech Cheliff",
    "status": "RL",
    "function": [
      2
    ],
    "date": 907,
    "coordinates": {
      "lat": 36.21666666666667,
      "lon": 0.2
    }
  },
  {
    "country": "DZ",
    "location": "EBH",
    "name": "El Bayadh",
    "nameWoDiacritics": "El Bayadh",
    "subdivision": 32,
    "status": "RL",
    "function": [
      3
    ],
    "date": 907,
    "coordinates": {
      "lat": 33.68333333333333,
      "lon": 0.16666666666666666
    }
  },
  {
    "country": "DZ",
    "location": "ZAE",
    "name": "El Eulma",
    "nameWoDiacritics": "El Eulma",
    "subdivision": 19,
    "status": "RL",
    "function": [
      2
    ],
    "date": 907,
    "coordinates": {
      "lat": 36.15,
      "lon": 0.9
    }
  },
  {
    "country": "DZ",
    "location": "ELG",
    "name": "El Golea",
    "nameWoDiacritics": "El Golea",
    "status": "RQ",
    "function": [
      3
    ],
    "date": 901,
    "coordinates": {
      "lat": 0,
      "lon": 0
    }
  },
  {
    "country": "DZ",
    "location": "ELH",
    "name": "El Hamiz",
    "nameWoDiacritics": "El Hamiz",
    "subdivision": 16,
    "status": "RL",
    "function": [
      5
    ],
    "date": 1201,
    "coordinates": {
      "lat": 36.733333333333334,
      "lon": 0.5166666666666667
    }
  },
  {
    "country": "DZ",
    "location": "QLK",
    "name": "El Kala",
    "nameWoDiacritics": "El Kala",
    "subdivision": 36,
    "status": "RL",
    "function": [
      2
    ],
    "date": 907,
    "coordinates": {
      "lat": 36.75,
      "lon": 1.3666666666666667
    }
  },
  {
    "country": "DZ",
    "location": "ORX",
    "name": "El Kerma",
    "nameWoDiacritics": "El Kerma",
    "subdivision": 31,
    "status": "RL",
    "function": [
      2
    ],
    "date": 1601,
    "coordinates": {
      "lat": 35.6,
      "lon": 0.05
    }
  },
  {
    "country": "DZ",
    "location": "EMD",
    "name": "El Madania",
    "nameWoDiacritics": "El Madania",
    "subdivision": 16,
    "status": "RL",
    "function": [
      2
    ],
    "date": 1301,
    "coordinates": {
      "lat": 36.75,
      "lon": 0.5
    }
  },
  {
    "country": "DZ",
    "location": "EMR",
    "name": "El Merdja",
    "nameWoDiacritics": "El Merdja",
    "subdivision": 34,
    "status": "RL",
    "function": [
      5
    ],
    "date": 1201,
    "coordinates": {
      "lat": 36,
      "lon": 0.7
    }
  },
  {
    "country": "DZ",
    "location": "ELM",
    "name": "El Milia",
    "nameWoDiacritics": "El Milia",
    "subdivision": 25,
    "status": "RL",
    "function": [
      2
    ],
    "date": 1301,
    "coordinates": {
      "lat": 36.36666666666667,
      "lon": 1.05
    }
  },
  {
    "country": "DZ",
    "location": "EMU",
    "name": "El Mouradia",
    "nameWoDiacritics": "El Mouradia",
    "subdivision": 16,
    "status": "RL",
    "function": [
      5
    ],
    "date": 1607,
    "coordinates": {
      "lat": 36.75,
      "lon": 0.5
    }
  },
  {
    "country": "DZ",
    "location": "ELU",
    "name": "El Qued",
    "nameWoDiacritics": "El Qued",
    "subdivision": 39,
    "status": "RQ",
    "function": [
      3
    ],
    "date": 901,
    "coordinates": {
      "lat": 33.31666666666667,
      "lon": 1.0833333333333333
    }
  },
  {
    "country": "DZ",
    "location": "SEN",
    "name": "Es Senia",
    "nameWoDiacritics": "Es Senia",
    "subdivision": 31,
    "status": "RL",
    "function": [
      5
    ],
    "date": 1201,
    "coordinates": {
      "lat": 35.65,
      "lon": 0.05
    }
  },
  {
    "country": "DZ",
    "location": "GBB",
    "name": "Gara Djebilet",
    "nameWoDiacritics": "Gara Djebilet",
    "subdivision": 37,
    "status": "RL",
    "function": [
      3
    ],
    "date": 907,
    "coordinates": {
      "lat": 26.15,
      "lon": 1.2
    }
  },
  {
    "country": "DZ",
    "location": "GHA",
    "name": "GhardaÔa",
    "nameWoDiacritics": "Ghardaia",
    "status": "RL",
    "function": [
      0,
      2,
      3
    ],
    "date": 401,
    "coordinates": {
      "lat": 32.483333333333334,
      "lon": 0.5666666666666667
    }
  },
  {
    "country": "DZ",
    "location": "GHZ",
    "name": "Ghazaouet",
    "nameWoDiacritics": "Ghazaouet",
    "subdivision": 13,
    "status": "RL",
    "function": [
      0,
      1,
      2
    ],
    "date": 407,
    "iata": "QVX",
    "coordinates": {
      "lat": 35.1,
      "lon": 0.25
    }
  },
  {
    "country": "DZ",
    "location": "GLL",
    "name": "Guellal",
    "nameWoDiacritics": "Guellal",
    "subdivision": 19,
    "status": "RQ",
    "function": [
      5
    ],
    "date": 1007,
    "coordinates": {
      "lat": 36.03333333333333,
      "lon": 0.8666666666666667
    }
  },
  {
    "country": "DZ",
    "location": "QGE",
    "name": "Guelma",
    "nameWoDiacritics": "Guelma",
    "subdivision": 24,
    "status": "RL",
    "function": [
      2
    ],
    "date": 907,
    "coordinates": {
      "lat": 36.46666666666667,
      "lon": 1.2
    }
  },
  {
    "country": "DZ",
    "location": "HAE",
    "name": "Hammedi",
    "nameWoDiacritics": "Hammedi",
    "subdivision": 35,
    "status": "RL",
    "function": [
      2
    ],
    "date": 1807,
    "coordinates": {
      "lat": 36.666666666666664,
      "lon": 0.5166666666666667
    }
  },
  {
    "country": "DZ",
    "location": "HME",
    "name": "Hassi Messaoud",
    "nameWoDiacritics": "Hassi Messaoud",
    "status": "RL",
    "function": [
      2,
      3
    ],
    "date": 601,
    "coordinates": {
      "lat": 31.666666666666668,
      "lon": 1
    }
  },
  {
    "country": "DZ",
    "location": "RME",
    "name": "Hassi R'Mel",
    "nameWoDiacritics": "Hassi R'Mel",
    "subdivision": 3,
    "status": "RL",
    "function": [
      2
    ],
    "date": 1707,
    "coordinates": {
      "lat": 32.916666666666664,
      "lon": 0.5166666666666667
    }
  },
  {
    "country": "DZ",
    "location": "HDR",
    "name": "Hydra",
    "nameWoDiacritics": "Hydra",
    "subdivision": 16,
    "status": "RQ",
    "function": [
      5
    ],
    "date": 1007,
    "coordinates": {
      "lat": 36.75,
      "lon": 0.5
    }
  },
  {
    "country": "DZ",
    "location": "VVZ",
    "name": "Illizi",
    "nameWoDiacritics": "Illizi",
    "subdivision": 33,
    "status": "RL",
    "function": [
      3
    ],
    "date": 907,
    "coordinates": {
      "lat": 26.466666666666665,
      "lon": 1.3666666666666667
    }
  },
  {
    "country": "DZ",
    "location": "IAM",
    "name": "In Amenas",
    "nameWoDiacritics": "In Amenas",
    "subdivision": 33,
    "status": "RQ",
    "function": [
      3
    ],
    "date": 901,
    "coordinates": {
      "lat": 28.05,
      "lon": 1.55
    }
  },
  {
    "country": "DZ",
    "location": "INZ",
    "name": "In Salah",
    "nameWoDiacritics": "In Salah",
    "subdivision": 11,
    "status": "RQ",
    "function": [
      3
    ],
    "date": 901,
    "coordinates": {
      "lat": 27.25,
      "lon": 0.38333333333333336
    }
  },
  {
    "country": "DZ",
    "location": "INA",
    "name": "I-N-Amenas",
    "nameWoDiacritics": "I-N-Amenas",
    "subdivision": 33,
    "status": "RL",
    "function": [
      2,
      5
    ],
    "date": 901,
    "coordinates": {
      "lat": 28.05,
      "lon": 1.55
    }
  },
  {
    "country": "DZ",
    "location": "INF",
    "name": "I-n-Guezzam",
    "nameWoDiacritics": "I-n-Guezzam",
    "subdivision": 11,
    "status": "RL",
    "function": [
      3
    ],
    "date": 907,
    "coordinates": {
      "lat": 19.55,
      "lon": 0.9
    }
  },
  {
    "country": "DZ",
    "location": "GJL",
    "name": "Jijel",
    "nameWoDiacritics": "Jijel",
    "subdivision": 18,
    "status": "RQ",
    "function": [
      3
    ],
    "date": 901,
    "coordinates": {
      "lat": 0,
      "lon": 0
    }
  },
  {
    "country": "DZ",
    "location": "DJI",
    "name": "Jijel (ex Djidjelli)",
    "nameWoDiacritics": "Jijel (ex Djidjelli)",
    "status": "QQ",
    "function": [
      0
    ],
    "date": 701,
    "coordinates": {
      "lat": 0,
      "lon": 0
    }
  },
  {
    "country": "DZ",
    "location": "QKJ",
    "name": "Kenchela",
    "nameWoDiacritics": "Kenchela",
    "subdivision": 40,
    "status": "RL",
    "function": [
      2
    ],
    "date": 907,
    "coordinates": {
      "lat": 35.45,
      "lon": 1.1666666666666667
    }
  },
  {
    "country": "DZ",
    "location": "KHM",
    "name": "Khemis Miliana",
    "nameWoDiacritics": "Khemis Miliana",
    "status": "RL",
    "function": [
      1,
      2
    ],
    "date": 601,
    "coordinates": {
      "lat": 36.25,
      "lon": 0.35
    }
  },
  {
    "country": "DZ",
    "location": "KHE",
    "name": "Kherrata",
    "nameWoDiacritics": "Kherrata",
    "status": "RL",
    "function": [
      0,
      2
    ],
    "date": 601,
    "coordinates": {
      "lat": 36.483333333333334,
      "lon": 0.85
    }
  },
  {
    "country": "DZ",
    "location": "KOB",
    "name": "Kouba",
    "nameWoDiacritics": "Kouba",
    "subdivision": 16,
    "status": "RL",
    "function": [
      2,
      5
    ],
    "date": 901,
    "coordinates": {
      "lat": 36.71666666666667,
      "lon": 0.5
    }
  },
  {
    "country": "DZ",
    "location": "CLE",
    "name": "La Calle",
    "nameWoDiacritics": "La Calle",
    "status": "RL",
    "function": [
      2
    ],
    "date": 9811,
    "coordinates": {
      "lat": 0,
      "lon": 0
    }
  },
  {
    "country": "DZ",
    "location": "LOO",
    "name": "Laghouat",
    "nameWoDiacritics": "Laghouat",
    "subdivision": 3,
    "status": "RQ",
    "function": [
      3
    ],
    "date": 901,
    "coordinates": {
      "lat": 0,
      "lon": 0
    }
  },
  {
    "country": "DZ",
    "location": "ANI",
    "name": "L'Arbaa NaÔt Irathen",
    "nameWoDiacritics": "L'Arbaa Nait Irathen",
    "status": "RL",
    "function": [
      2
    ],
    "date": 601,
    "coordinates": {
      "lat": 36.63333333333333,
      "lon": 0.6833333333333333
    }
  },
  {
    "country": "DZ",
    "location": "QMG",
    "name": "Maghnia",
    "nameWoDiacritics": "Maghnia",
    "subdivision": 13,
    "status": "RL",
    "function": [
      2
    ],
    "date": 907,
    "coordinates": {
      "lat": 34.85,
      "lon": 0.23333333333333334
    }
  },
  {
    "country": "DZ",
    "location": "MSR",
    "name": "Manso˚ra",
    "nameWoDiacritics": "Mansoura",
    "subdivision": 13,
    "status": "RL",
    "function": [
      2
    ],
    "date": 1301,
    "coordinates": {
      "lat": 34.85,
      "lon": 0.2
    }
  },
  {
    "country": "DZ",
    "location": "MUW",
    "name": "Mascara",
    "nameWoDiacritics": "Mascara",
    "subdivision": 29,
    "status": "RQ",
    "function": [
      3
    ],
    "date": 901,
    "coordinates": {
      "lat": 0,
      "lon": 0
    }
  },
  {
    "country": "DZ",
    "location": "MZW",
    "name": "MÈcheria",
    "nameWoDiacritics": "Mecheria",
    "subdivision": 45,
    "status": "RL",
    "function": [
      3
    ],
    "date": 907,
    "coordinates": {
      "lat": 33.55,
      "lon": 0.016666666666666666
    }
  },
  {
    "country": "DZ",
    "location": "QED",
    "name": "Medea",
    "nameWoDiacritics": "Medea",
    "subdivision": 26,
    "status": "RL",
    "function": [
      2
    ],
    "date": 907,
    "coordinates": {
      "lat": 36.266666666666666,
      "lon": 0.4
    }
  },
  {
    "country": "DZ",
    "location": "MEF",
    "name": "Meftah",
    "nameWoDiacritics": "Meftah",
    "subdivision": 16,
    "status": "RL",
    "function": [
      2
    ],
    "date": 1801,
    "coordinates": {
      "lat": 36.61666666666667,
      "lon": 0.5166666666666667
    }
  },
  {
    "country": "DZ",
    "location": "MIL",
    "name": "Mila",
    "nameWoDiacritics": "Mila",
    "subdivision": 43,
    "status": "RL",
    "function": [
      2
    ],
    "date": 1501,
    "coordinates": {
      "lat": 36.45,
      "lon": 1.0166666666666666
    }
  },
  {
    "country": "DZ",
    "location": "MHA",
    "name": "Mohammadia",
    "nameWoDiacritics": "Mohammadia",
    "subdivision": 16,
    "status": "RL",
    "function": [
      2
    ],
    "date": 1301,
    "coordinates": {
      "lat": 36.733333333333334,
      "lon": 0.5
    }
  },
  {
    "country": "DZ",
    "location": "QMW",
    "name": "Mohammadia",
    "nameWoDiacritics": "Mohammadia",
    "subdivision": 29,
    "status": "RL",
    "function": [
      2
    ],
    "date": 907,
    "coordinates": {
      "lat": 35.583333333333336,
      "lon": 0.06666666666666667
    }
  },
  {
    "country": "DZ",
    "location": "MOS",
    "name": "Mostaganem",
    "nameWoDiacritics": "Mostaganem",
    "status": "QQ",
    "function": [
      0
    ],
    "date": 701,
    "coordinates": {
      "lat": 0,
      "lon": 0
    }
  },
  {
    "country": "DZ",
    "location": "ZZS",
    "name": "M'sila",
    "nameWoDiacritics": "M'sila",
    "subdivision": 28,
    "status": "RL",
    "function": [
      2
    ],
    "date": 907,
    "coordinates": {
      "lat": 35.7,
      "lon": 0.7166666666666667
    }
  },
  {
    "country": "DZ",
    "location": "NED",
    "name": "Nedroma",
    "nameWoDiacritics": "Nedroma",
    "subdivision": 13,
    "status": "RL",
    "function": [
      5
    ],
    "date": 901,
    "coordinates": {
      "lat": 35,
      "lon": 1.7333333333333334
    }
  },
  {
    "country": "DZ",
    "location": "ORN",
    "name": "Oran",
    "nameWoDiacritics": "Oran",
    "status": "AI",
    "function": [
      0,
      3
    ],
    "date": 9601,
    "coordinates": {
      "lat": 0,
      "lon": 0
    }
  },
  {
    "country": "DZ",
    "location": "2ON",
    "name": "Oran Dry Port",
    "nameWoDiacritics": "Oran Dry Port",
    "subdivision": 31,
    "status": "RL",
    "function": [
      0,
      5
    ],
    "date": 1701,
    "coordinates": {
      "lat": 35.68333333333333,
      "lon": 0.05
    }
  },
  {
    "country": "DZ",
    "location": "OGX",
    "name": "Ouargla",
    "nameWoDiacritics": "Ouargla",
    "subdivision": 30,
    "status": "RQ",
    "function": [
      3
    ],
    "date": 901,
    "coordinates": {
      "lat": 31.916666666666668,
      "lon": 0.8666666666666667
    }
  },
  {
    "country": "DZ",
    "location": "OTL",
    "name": "Oued TlÈlat",
    "nameWoDiacritics": "Oued Tlelat",
    "subdivision": 31,
    "status": "RL",
    "function": [
      2
    ],
    "date": 1401,
    "coordinates": {
      "lat": 35.55,
      "lon": 0.03333333333333333
    }
  },
  {
    "country": "DZ",
    "location": "OHD",
    "name": "Ouled Haddadj",
    "nameWoDiacritics": "Ouled Haddadj",
    "subdivision": 35,
    "status": "RQ",
    "function": [
      5
    ],
    "date": 1007,
    "coordinates": {
      "lat": 36.71666666666667,
      "lon": 0.5333333333333333
    }
  },
  {
    "country": "DZ",
    "location": "OYA",
    "name": "Ouled YaÔch",
    "nameWoDiacritics": "Ouled Yaich",
    "subdivision": 9,
    "status": "RL",
    "function": [
      2
    ],
    "date": 1301,
    "coordinates": {
      "lat": 35.833333333333336,
      "lon": 0.16666666666666666
    }
  },
  {
    "country": "DZ",
    "location": "QMH",
    "name": "Oum El Bouaghi",
    "nameWoDiacritics": "Oum El Bouaghi",
    "subdivision": 4,
    "status": "RL",
    "function": [
      2
    ],
    "date": 907,
    "coordinates": {
      "lat": 35.88333333333333,
      "lon": 1.1666666666666667
    }
  },
  {
    "country": "DZ",
    "location": "QQU",
    "name": "Qued Rhiou",
    "nameWoDiacritics": "Qued Rhiou",
    "subdivision": 48,
    "status": "RL",
    "function": [
      2
    ],
    "date": 907,
    "coordinates": {
      "lat": 35.96666666666667,
      "lon": 0.08333333333333333
    }
  },
  {
    "country": "DZ",
    "location": "QOZ",
    "name": "Qued Zenati",
    "nameWoDiacritics": "Qued Zenati",
    "subdivision": 25,
    "status": "RL",
    "function": [
      2
    ],
    "date": 907,
    "coordinates": {
      "lat": 36.333333333333336,
      "lon": 1.1833333333333333
    }
  },
  {
    "country": "DZ",
    "location": "REG",
    "name": "Reghaia",
    "nameWoDiacritics": "Reghaia",
    "subdivision": 35,
    "status": "RL",
    "function": [
      2
    ],
    "date": 1601,
    "coordinates": {
      "lat": 36.733333333333334,
      "lon": 0.5333333333333333
    }
  },
  {
    "country": "DZ",
    "location": "QZN",
    "name": "Relizane",
    "nameWoDiacritics": "Relizane",
    "subdivision": 48,
    "status": "RL",
    "function": [
      2
    ],
    "date": 907,
    "coordinates": {
      "lat": 35.75,
      "lon": 0.05
    }
  },
  {
    "country": "DZ",
    "location": "RMC",
    "name": "Remchi",
    "nameWoDiacritics": "Remchi",
    "subdivision": 13,
    "status": "RL",
    "function": [
      2
    ],
    "date": 1301,
    "coordinates": {
      "lat": 35.05,
      "lon": 0.2
    }
  },
  {
    "country": "DZ",
    "location": "ONO",
    "name": "Rhourde Nouss",
    "nameWoDiacritics": "Rhourde Nouss",
    "status": "RQ",
    "function": [
      5
    ],
    "date": 1001,
    "coordinates": {
      "lat": 28.5,
      "lon": 1.0666666666666667
    }
  },
  {
    "country": "DZ",
    "location": "ROU",
    "name": "Rouiba",
    "nameWoDiacritics": "Rouiba",
    "subdivision": 16,
    "status": "RL",
    "function": [
      0,
      5
    ],
    "date": 901,
    "coordinates": {
      "lat": 36.733333333333334,
      "lon": 0.5166666666666667
    }
  },
  {
    "country": "DZ",
    "location": "QDZ",
    "name": "SaÔda",
    "nameWoDiacritics": "Saida",
    "subdivision": 20,
    "status": "RL",
    "function": [
      2
    ],
    "date": 907,
    "coordinates": {
      "lat": 34.833333333333336,
      "lon": 0.15
    }
  },
  {
    "country": "DZ",
    "location": "SBY",
    "name": "Salah Bey",
    "nameWoDiacritics": "Salah Bey",
    "subdivision": 16,
    "status": "RL",
    "function": [
      2
    ],
    "date": 1601,
    "coordinates": {
      "lat": 35.85,
      "lon": 0.85
    }
  },
  {
    "country": "DZ",
    "location": "SAO",
    "name": "Saoula",
    "nameWoDiacritics": "Saoula",
    "subdivision": 42,
    "status": "RL",
    "function": [
      2
    ],
    "date": 1401,
    "coordinates": {
      "lat": 36.7,
      "lon": 0.5
    }
  },
  {
    "country": "DZ",
    "location": "QDT",
    "name": "Sedrata",
    "nameWoDiacritics": "Sedrata",
    "subdivision": 41,
    "status": "RL",
    "function": [
      2
    ],
    "date": 907,
    "coordinates": {
      "lat": 36.13333333333333,
      "lon": 1.2166666666666666
    }
  },
  {
    "country": "DZ",
    "location": "SET",
    "name": "SÈtif",
    "nameWoDiacritics": "Setif",
    "status": "RL",
    "function": [
      1,
      2
    ],
    "date": 601,
    "coordinates": {
      "lat": 36.18333333333333,
      "lon": 0.8666666666666667
    }
  },
  {
    "country": "DZ",
    "location": "SBA",
    "name": "Sidi Bel Abbes",
    "nameWoDiacritics": "Sidi Bel Abbes",
    "status": "RL",
    "function": [
      2,
      5
    ],
    "date": 901,
    "coordinates": {
      "lat": 35.18333333333333,
      "lon": 0.05
    }
  },
  {
    "country": "DZ",
    "location": "SDY",
    "name": "Sidi Yahia",
    "nameWoDiacritics": "Sidi Yahia",
    "subdivision": 13,
    "status": "RL",
    "function": [
      5
    ],
    "date": 1201,
    "coordinates": {
      "lat": 34.733333333333334,
      "lon": 0.21666666666666667
    }
  },
  {
    "country": "DZ",
    "location": "QIL",
    "name": "Sig",
    "nameWoDiacritics": "Sig",
    "subdivision": 31,
    "status": "RL",
    "function": [
      2
    ],
    "date": 907,
    "coordinates": {
      "lat": 35.53333333333333,
      "lon": 0.016666666666666666
    }
  },
  {
    "country": "DZ",
    "location": "SKK",
    "name": "Skikda",
    "nameWoDiacritics": "Skikda",
    "subdivision": 21,
    "status": "RL",
    "function": [
      2,
      3
    ],
    "date": 2001,
    "coordinates": {
      "lat": 36.86666666666667,
      "lon": 1.0833333333333333
    }
  },
  {
    "country": "DZ",
    "location": "SKI",
    "name": "Skikda (ex Philippeville)",
    "nameWoDiacritics": "Skikda (ex Philippeville)",
    "status": "AI",
    "function": [
      0,
      3
    ],
    "date": 9601,
    "coordinates": {
      "lat": 0,
      "lon": 0
    }
  },
  {
    "country": "DZ",
    "location": "QSK",
    "name": "Souk Ahras",
    "nameWoDiacritics": "Souk Ahras",
    "subdivision": 41,
    "status": "RL",
    "function": [
      2
    ],
    "date": 907,
    "coordinates": {
      "lat": 36.28333333333333,
      "lon": 1.25
    }
  },
  {
    "country": "DZ",
    "location": "BO7",
    "name": "Sour El Ghozlane",
    "nameWoDiacritics": "Sour El Ghozlane",
    "subdivision": 10,
    "status": "RL",
    "function": [
      2
    ],
    "date": 1601,
    "coordinates": {
      "lat": 36.15,
      "lon": 0.5666666666666667
    }
  },
  {
    "country": "DZ",
    "location": "TAH",
    "name": "Taher",
    "nameWoDiacritics": "Taher",
    "status": "RL",
    "function": [
      2
    ],
    "date": 601,
    "coordinates": {
      "lat": 36.766666666666666,
      "lon": 0.9166666666666666
    }
  },
  {
    "country": "DZ",
    "location": "TMR",
    "name": "Tamanrasset",
    "nameWoDiacritics": "Tamanrasset",
    "status": "RQ",
    "function": [
      3
    ],
    "date": 901,
    "coordinates": {
      "lat": 22.8,
      "lon": 0.8666666666666667
    }
  },
  {
    "country": "DZ",
    "location": "TEE",
    "name": "Tbessa",
    "nameWoDiacritics": "Tbessa",
    "status": "RQ",
    "function": [
      3
    ],
    "date": 901,
    "coordinates": {
      "lat": 0,
      "lon": 0
    }
  },
  {
    "country": "DZ",
    "location": "TBS",
    "name": "Tebessa",
    "nameWoDiacritics": "Tebessa",
    "subdivision": 12,
    "status": "RQ",
    "function": [
      0,
      5
    ],
    "date": 1001,
    "coordinates": {
      "lat": 35.4,
      "lon": 1.3333333333333333
    }
  },
  {
    "country": "DZ",
    "location": "TEN",
    "name": "TÈnËs",
    "nameWoDiacritics": "Tenes",
    "status": "RL",
    "function": [
      0
    ],
    "date": 212,
    "coordinates": {
      "lat": 36.516666666666666,
      "lon": 0.18333333333333332
    }
  },
  {
    "country": "DZ",
    "location": "TID",
    "name": "Tiaret",
    "nameWoDiacritics": "Tiaret",
    "status": "RQ",
    "function": [
      3
    ],
    "date": 901,
    "coordinates": {
      "lat": 35.46666666666667,
      "lon": 0.2
    }
  },
  {
    "country": "DZ",
    "location": "TMX",
    "name": "Timimoun",
    "nameWoDiacritics": "Timimoun",
    "subdivision": 1,
    "status": "RQ",
    "function": [
      3
    ],
    "date": 901,
    "coordinates": {
      "lat": 29.233333333333334,
      "lon": 0.016666666666666666
    }
  },
  {
    "country": "DZ",
    "location": "TIN",
    "name": "Tindouf",
    "nameWoDiacritics": "Tindouf",
    "subdivision": 37,
    "status": "RQ",
    "function": [
      3
    ],
    "date": 901,
    "coordinates": {
      "lat": 27.716666666666665,
      "lon": 1.35
    }
  },
  {
    "country": "DZ",
    "location": "AZA",
    "name": "Tipaza",
    "nameWoDiacritics": "Tipaza",
    "subdivision": 1,
    "status": "RQ",
    "function": [
      2
    ],
    "date": 901,
    "coordinates": {
      "lat": 0,
      "lon": 0
    }
  },
  {
    "country": "DZ",
    "location": "TIZ",
    "name": "Tizi Ouzou",
    "nameWoDiacritics": "Tizi Ouzou",
    "subdivision": 1,
    "status": "RL",
    "function": [
      2
    ],
    "date": 901,
    "coordinates": {
      "lat": 36.71666666666667,
      "lon": 0.6666666666666666
    }
  },
  {
    "country": "DZ",
    "location": "TLM",
    "name": "Tlemcen",
    "nameWoDiacritics": "Tlemcen",
    "subdivision": 13,
    "status": "RL",
    "function": [
      0,
      1,
      2,
      3,
      5
    ],
    "date": 407,
    "coordinates": {
      "lat": 34.86666666666667,
      "lon": 0.18333333333333332
    }
  },
  {
    "country": "DZ",
    "location": "TGR",
    "name": "Touggourt",
    "nameWoDiacritics": "Touggourt",
    "subdivision": 30,
    "status": "RQ",
    "function": [
      3
    ],
    "date": 901,
    "coordinates": {
      "lat": 0,
      "lon": 0
    }
  }
]