[
  {
    "change": "",
    "country": "HR",
    "location": "",
    "name": ".CROATIA",
    "nameWoDiacritics": "",
    "subdivision": "",
    "status": null,
    "function": [],
    "date": "",
    "iata": "",
    "coordinates": null,
    "remarks": ""
  },
  {
    "change": "",
    "country": "HR",
    "location": "ALJ",
    "name": "Aljmas",
    "nameWoDiacritics": "Aljmas",
    "subdivision": "",
    "status": 7,
    "function": [
      0,
      2
    ],
    "date": "0701",
    "iata": "",
    "coordinates": {
      "lat": 45.53333333333333,
      "lon": 18.95
    },
    "remarks": ""
  },
  {
    "change": "",
    "country": "HR",
    "location": "ANA",
    "name": "ANA",
    "nameWoDiacritics": "ANA",
    "subdivision": "",
    "status": 7,
    "function": [
      6
    ],
    "date": "1701",
    "iata": "",
    "coordinates": {
      "lat": 44.68333333333333,
      "lon": 13.266666666666667
    },
    "remarks": ""
  },
  {
    "change": "",
    "country": "HR",
    "location": "ANN",
    "name": "ANNAMARIA A",
    "nameWoDiacritics": "ANNAMARIA A",
    "subdivision": "",
    "status": 7,
    "function": [
      6
    ],
    "date": "1701",
    "iata": "",
    "coordinates": {
      "lat": 44.36666666666667,
      "lon": 13.366666666666667
    },
    "remarks": ""
  },
  {
    "change": "",
    "country": "HR",
    "location": "ATL",
    "name": "Antenal",
    "nameWoDiacritics": "Antenal",
    "subdivision": "",
    "status": 0,
    "function": [
      0,
      2
    ],
    "date": "0607",
    "iata": "",
    "coordinates": {
      "lat": 45.31666666666667,
      "lon": 13.55
    },
    "remarks": ""
  },
  {
    "change": "",
    "country": "HR",
    "location": "BAK",
    "name": "Bakar",
    "nameWoDiacritics": "Bakar",
    "subdivision": "08",
    "status": 7,
    "function": [
      0,
      1,
      2
    ],
    "date": "0401",
    "iata": "",
    "coordinates": {
      "lat": 45.3,
      "lon": 14.516666666666667
    },
    "remarks": ""
  },
  {
    "change": "",
    "country": "HR",
    "location": "BAL",
    "name": "Bale",
    "nameWoDiacritics": "Bale",
    "subdivision": "18",
    "status": 7,
    "function": [
      2
    ],
    "date": "1207",
    "iata": "",
    "coordinates": {
      "lat": 45.03333333333333,
      "lon": 13.783333333333333
    },
    "remarks": ""
  },
  {
    "change": "",
    "country": "HR",
    "location": "BAS",
    "name": "Baska",
    "nameWoDiacritics": "Baska",
    "subdivision": "08",
    "status": 7,
    "function": [
      0,
      2
    ],
    "date": "1001",
    "iata": "",
    "coordinates": {
      "lat": 44.96666666666667,
      "lon": 14.75
    },
    "remarks": ""
  },
  {
    "change": "",
    "country": "HR",
    "location": "BVO",
    "name": "Baska Voda",
    "nameWoDiacritics": "Baska Voda",
    "subdivision": "",
    "status": 7,
    "function": [
      2
    ],
    "date": "0501",
    "iata": "",
    "coordinates": {
      "lat": 43.35,
      "lon": 16.95
    },
    "remarks": ""
  },
  {
    "change": "",
    "country": "HR",
    "location": "BAT",
    "name": "Batina",
    "nameWoDiacritics": "Batina",
    "subdivision": "14",
    "status": 7,
    "function": [
      0,
      2,
      7
    ],
    "date": "0907",
    "iata": "",
    "coordinates": {
      "lat": 45.86666666666667,
      "lon": 18.866666666666667
    },
    "remarks": ""
  },
  {
    "change": "",
    "country": "HR",
    "location": "BKC",
    "name": "Bedekovcina",
    "nameWoDiacritics": "Bedekovcina",
    "subdivision": "02",
    "status": 7,
    "function": [
      1,
      2
    ],
    "date": "0407",
    "iata": "",
    "coordinates": {
      "lat": 46.03333333333333,
      "lon": 15.983333333333333
    },
    "remarks": ""
  },
  {
    "change": "",
    "country": "HR",
    "location": "BDN",
    "name": "Bedenica",
    "nameWoDiacritics": "Bedenica",
    "subdivision": "01",
    "status": 7,
    "function": [
      2
    ],
    "date": "1707",
    "iata": "",
    "coordinates": {
      "lat": 46.03333333333333,
      "lon": 16.233333333333334
    },
    "remarks": ""
  },
  {
    "change": "",
    "country": "HR",
    "location": "BLN",
    "name": "Beletinec",
    "nameWoDiacritics": "Beletinec",
    "subdivision": "",
    "status": 9,
    "function": [
      5
    ],
    "date": "1007",
    "iata": "",
    "coordinates": {
      "lat": 46.21666666666667,
      "lon": 16.316666666666666
    },
    "remarks": ""
  },
  {
    "change": "",
    "country": "HR",
    "location": "BEL",
    "name": "Belgrad",
    "nameWoDiacritics": "Belgrad",
    "subdivision": "",
    "status": 9,
    "function": [
      5
    ],
    "date": "1007",
    "iata": "",
    "coordinates": {
      "lat": 45.21666666666667,
      "lon": 14.733333333333333
    },
    "remarks": ""
  },
  {
    "change": "",
    "country": "HR",
    "location": "BCA",
    "name": "Belica",
    "nameWoDiacritics": "Belica",
    "subdivision": "20",
    "status": 7,
    "function": [
      5
    ],
    "date": "1201",
    "iata": "",
    "coordinates": {
      "lat": 46.4,
      "lon": 16.516666666666666
    },
    "remarks": ""
  },
  {
    "change": "",
    "country": "HR",
    "location": "BLC",
    "name": "Belisce",
    "nameWoDiacritics": "Belisce",
    "subdivision": "",
    "status": 7,
    "function": [
      0,
      2
    ],
    "date": "0607",
    "iata": "",
    "coordinates": {
      "lat": 45.7,
      "lon": 18.416666666666668
    },
    "remarks": ""
  },
  {
    "change": "",
    "country": "HR",
    "location": "BEN",
    "name": "Benicanci",
    "nameWoDiacritics": "Benicanci",
    "subdivision": "14",
    "status": 7,
    "function": [
      2
    ],
    "date": "1307",
    "iata": "",
    "coordinates": {
      "lat": 45.63333333333333,
      "lon": 18.166666666666668
    },
    "remarks": ""
  },
  {
    "change": "",
    "country": "HR",
    "location": "HBC",
    "name": "Benkovac",
    "nameWoDiacritics": "Benkovac",
    "subdivision": "13",
    "status": 7,
    "function": [
      5
    ],
    "date": "0901",
    "iata": "",
    "coordinates": {
      "lat": 44.03333333333333,
      "lon": 15.6
    },
    "remarks": ""
  },
  {
    "change": "",
    "country": "HR",
    "location": "BTC",
    "name": "Beretinec",
    "nameWoDiacritics": "Beretinec",
    "subdivision": "",
    "status": 9,
    "function": [
      1
    ],
    "date": "1007",
    "iata": "",
    "coordinates": {
      "lat": 46.21666666666667,
      "lon": 16.316666666666666
    },
    "remarks": ""
  },
  {
    "change": "",
    "country": "HR",
    "location": "BTJ",
    "name": "Bestovje",
    "nameWoDiacritics": "Bestovje",
    "subdivision": "21",
    "status": 9,
    "function": [
      5
    ],
    "date": "1007",
    "iata": "",
    "coordinates": {
      "lat": 45.8,
      "lon": 15.816666666666666
    },
    "remarks": ""
  },
  {
    "change": "",
    "country": "HR",
    "location": "BBJ",
    "name": "Bibinje",
    "nameWoDiacritics": "Bibinje",
    "subdivision": "13",
    "status": 9,
    "function": [
      2
    ],
    "date": "0907",
    "iata": "",
    "coordinates": {
      "lat": 44.06666666666667,
      "lon": 15.283333333333333
    },
    "remarks": ""
  },
  {
    "change": "",
    "country": "HR",
    "location": "BNM",
    "name": "Biograd na Moru",
    "nameWoDiacritics": "Biograd na Moru",
    "subdivision": "",
    "status": 7,
    "function": [
      0,
      2
    ],
    "date": "0601",
    "iata": "",
    "coordinates": {
      "lat": 43.93333333333333,
      "lon": 15.45
    },
    "remarks": ""
  },
  {
    "change": "",
    "country": "HR",
    "location": "BJE",
    "name": "Bjelovar",
    "nameWoDiacritics": "Bjelovar",
    "subdivision": "07",
    "status": 7,
    "function": [
      1,
      2
    ],
    "date": "0401",
    "iata": "",
    "coordinates": {
      "lat": 45.9,
      "lon": 16.833333333333332
    },
    "remarks": ""
  },
  {
    "change": "",
    "country": "HR",
    "location": "BLE",
    "name": "Blace",
    "nameWoDiacritics": "Blace",
    "subdivision": "",
    "status": 0,
    "function": [
      0,
      2
    ],
    "date": "0607",
    "iata": "",
    "coordinates": {
      "lat": 43.016666666666666,
      "lon": 17.483333333333334
    },
    "remarks": ""
  },
  {
    "change": "",
    "country": "HR",
    "location": "BLA",
    "name": "Blato",
    "nameWoDiacritics": "Blato",
    "subdivision": "19",
    "status": 7,
    "function": [
      2
    ],
    "date": "2001",
    "iata": "",
    "coordinates": {
      "lat": 42.93333333333333,
      "lon": 16.783333333333335
    },
    "remarks": ""
  },
  {
    "change": "",
    "country": "HR",
    "location": "BOL",
    "name": "Bol",
    "nameWoDiacritics": "Bol",
    "subdivision": "",
    "status": 7,
    "function": [
      0,
      2
    ],
    "date": "0307",
    "iata": "BWK",
    "coordinates": {
      "lat": 43.266666666666666,
      "lon": 16.65
    },
    "remarks": ""
  },
  {
    "change": "",
    "country": "HR",
    "location": "BJN",
    "name": "Boljun",
    "nameWoDiacritics": "Boljun",
    "subdivision": "18",
    "status": 7,
    "function": [
      2
    ],
    "date": "0407",
    "iata": "",
    "coordinates": {
      "lat": 45.3,
      "lon": 14.116666666666667
    },
    "remarks": ""
  },
  {
    "change": "",
    "country": "HR",
    "location": "BOR",
    "name": "Borovo",
    "nameWoDiacritics": "Borovo",
    "subdivision": "",
    "status": 7,
    "function": [
      0,
      2
    ],
    "date": "0701",
    "iata": "",
    "coordinates": {
      "lat": 45.36666666666667,
      "lon": 18.966666666666665
    },
    "remarks": ""
  },
  {
    "change": "",
    "country": "HR",
    "location": "BRV",
    "name": "Borovo Selo",
    "nameWoDiacritics": "Borovo Selo",
    "subdivision": "",
    "status": 9,
    "function": [
      0,
      2
    ],
    "date": "0607",
    "iata": "",
    "coordinates": {
      "lat": 45.416666666666664,
      "lon": 18.983333333333334
    },
    "remarks": ""
  },
  {
    "change": "",
    "country": "HR",
    "location": "BOT",
    "name": "Botovo",
    "nameWoDiacritics": "Botovo",
    "subdivision": "",
    "status": 7,
    "function": [
      1,
      2,
      7
    ],
    "date": "0701",
    "iata": "",
    "coordinates": {
      "lat": 46.21666666666667,
      "lon": 16.916666666666668
    },
    "remarks": ""
  },
  {
    "change": "",
    "country": "HR",
    "location": "BZA",
    "name": "Bozava",
    "nameWoDiacritics": "Bozava",
    "subdivision": "",
    "status": 7,
    "function": [
      0,
      2
    ],
    "date": "0601",
    "iata": "",
    "coordinates": {
      "lat": 44.13333333333333,
      "lon": 14.9
    },
    "remarks": ""
  },
  {
    "change": "",
    "country": "HR",
    "location": "BRB",
    "name": "Brbinj/Lucina",
    "nameWoDiacritics": "Brbinj/Lucina",
    "subdivision": "",
    "status": 0,
    "function": [
      0,
      2
    ],
    "date": "0607",
    "iata": "",
    "coordinates": {
      "lat": 44.083333333333336,
      "lon": 15
    },
    "remarks": ""
  },
  {
    "change": "",
    "country": "HR",
    "location": "BRC",
    "name": "Brckovljani",
    "nameWoDiacritics": "Brckovljani",
    "subdivision": "01",
    "status": 7,
    "function": [
      2
    ],
    "date": "1207",
    "iata": "",
    "coordinates": {
      "lat": 45.833333333333336,
      "lon": 16.3
    },
    "remarks": ""
  },
  {
    "change": "",
    "country": "HR",
    "location": "BRG",
    "name": "Bregana",
    "nameWoDiacritics": "Bregana",
    "subdivision": "01",
    "status": 9,
    "function": [
      2
    ],
    "date": "0907",
    "iata": "",
    "coordinates": {
      "lat": 46.416666666666664,
      "lon": 16.15
    },
    "remarks": ""
  },
  {
    "change": "",
    "country": "HR",
    "location": "BVA",
    "name": "Brezovica",
    "nameWoDiacritics": "Brezovica",
    "subdivision": "21",
    "status": 7,
    "function": [
      2
    ],
    "date": "0407",
    "iata": "",
    "coordinates": {
      "lat": 45.733333333333334,
      "lon": 15.883333333333333
    },
    "remarks": ""
  },
  {
    "change": "",
    "country": "HR",
    "location": "BRE",
    "name": "Brinje",
    "nameWoDiacritics": "Brinje",
    "subdivision": "",
    "status": 7,
    "function": [
      2
    ],
    "date": "0501",
    "iata": "",
    "coordinates": {
      "lat": 45,
      "lon": 15.133333333333333
    },
    "remarks": ""
  },
  {
    "change": "",
    "country": "HR",
    "location": "BRI",
    "name": "Brioni",
    "nameWoDiacritics": "Brioni",
    "subdivision": "",
    "status": 7,
    "function": [
      0,
      2
    ],
    "date": "0307",
    "iata": "",
    "coordinates": {
      "lat": 44.9,
      "lon": 13.75
    },
    "remarks": ""
  },
  {
    "change": "",
    "country": "HR",
    "location": "BSB",
    "name": "Brodski Stupnik",
    "nameWoDiacritics": "Brodski Stupnik",
    "subdivision": "12",
    "status": 9,
    "function": [
      5
    ],
    "date": "0907",
    "iata": "",
    "coordinates": {
      "lat": 45.166666666666664,
      "lon": 17.8
    },
    "remarks": ""
  },
  {
    "change": "",
    "country": "HR",
    "location": "BRT",
    "name": "Brtonigla",
    "nameWoDiacritics": "Brtonigla",
    "subdivision": "18",
    "status": 7,
    "function": [
      2
    ],
    "date": "1301",
    "iata": "",
    "coordinates": {
      "lat": 45.36666666666667,
      "lon": 13.616666666666667
    },
    "remarks": ""
  },
  {
    "change": "",
    "country": "HR",
    "location": "BUZ",
    "name": "Buzet",
    "nameWoDiacritics": "Buzet",
    "subdivision": "18",
    "status": 7,
    "function": [
      2
    ],
    "date": "0307",
    "iata": "",
    "coordinates": {
      "lat": 45.4,
      "lon": 13.966666666666667
    },
    "remarks": ""
  },
  {
    "change": "",
    "country": "HR",
    "location": "CAK",
    "name": "?akovec",
    "nameWoDiacritics": "?akovec",
    "subdivision": "20",
    "status": 7,
    "function": [
      1,
      2
    ],
    "date": "0307",
    "iata": "",
    "coordinates": {
      "lat": 46.38333333333333,
      "lon": 16.433333333333334
    },
    "remarks": ""
  },
  {
    "change": "",
    "country": "HR",
    "location": "CLE",
    "name": "Cavle",
    "nameWoDiacritics": "Cavle",
    "subdivision": "19",
    "status": 2,
    "function": [
      2
    ],
    "date": "1801",
    "iata": "",
    "coordinates": {
      "lat": 45.35,
      "lon": 143.18333333333334
    },
    "remarks": ""
  },
  {
    "change": "",
    "country": "HR",
    "location": "CVT",
    "name": "Cavtat",
    "nameWoDiacritics": "Cavtat",
    "subdivision": "19",
    "status": 7,
    "function": [
      0,
      2
    ],
    "date": "0307",
    "iata": "",
    "coordinates": {
      "lat": 42.56666666666667,
      "lon": 18.216666666666665
    },
    "remarks": ""
  },
  {
    "change": "",
    "country": "HR",
    "location": "CPN",
    "name": "Cepin",
    "nameWoDiacritics": "Cepin",
    "subdivision": "14",
    "status": 7,
    "function": [
      2
    ],
    "date": "1607",
    "iata": "",
    "coordinates": {
      "lat": 45.516666666666666,
      "lon": 18.55
    },
    "remarks": ""
  },
  {
    "change": "",
    "country": "HR",
    "location": "CIL",
    "name": "Cilipi",
    "nameWoDiacritics": "Cilipi",
    "subdivision": "19",
    "status": 2,
    "function": [
      2
    ],
    "date": "1801",
    "iata": "",
    "coordinates": {
      "lat": 42.55,
      "lon": 18.25
    },
    "remarks": ""
  },
  {
    "change": "",
    "country": "HR",
    "location": "CRS",
    "name": "Cres",
    "nameWoDiacritics": "Cres",
    "subdivision": "",
    "status": 7,
    "function": [
      0,
      2
    ],
    "date": "0307",
    "iata": "",
    "coordinates": {
      "lat": 44.95,
      "lon": 14.4
    },
    "remarks": ""
  },
  {
    "change": "",
    "country": "HR",
    "location": "CRA",
    "name": "Crikvenica",
    "nameWoDiacritics": "Crikvenica",
    "subdivision": "",
    "status": 7,
    "function": [
      0,
      2
    ],
    "date": "0601",
    "iata": "",
    "coordinates": {
      "lat": 45.18333333333333,
      "lon": 14.7
    },
    "remarks": ""
  },
  {
    "change": "",
    "country": "HR",
    "location": "CRN",
    "name": "Crnac",
    "nameWoDiacritics": "Crnac",
    "subdivision": "",
    "status": 9,
    "function": [
      2
    ],
    "date": "0901",
    "iata": "",
    "coordinates": {
      "lat": 45.43333333333333,
      "lon": 16.416666666666668
    },
    "remarks": ""
  },
  {
    "change": "",
    "country": "HR",
    "location": "DKO",
    "name": "Dakovo",
    "nameWoDiacritics": "Dakovo",
    "subdivision": "14",
    "status": 7,
    "function": [
      2
    ],
    "date": "1301",
    "iata": "",
    "coordinates": {
      "lat": 45.3,
      "lon": 18.4
    },
    "remarks": ""
  },
  {
    "change": "",
    "country": "HR",
    "location": "DLJ",
    "name": "Dalj",
    "nameWoDiacritics": "Dalj",
    "subdivision": "",
    "status": 7,
    "function": [
      0,
      2
    ],
    "date": "0701",
    "iata": "",
    "coordinates": {
      "lat": 45.483333333333334,
      "lon": 18.983333333333334
    },
    "remarks": ""
  },
  {
    "change": "",
    "country": "HR",
    "location": "DAL",
    "name": "Dalmacia",
    "nameWoDiacritics": "Dalmacia",
    "subdivision": "13",
    "status": 9,
    "function": [
      0
    ],
    "date": "0901",
    "iata": "",
    "coordinates": {
      "lat": 44.05,
      "lon": 15.3
    },
    "remarks": ""
  },
  {
    "change": "",
    "country": "HR",
    "location": "DDA",
    "name": "Darda",
    "nameWoDiacritics": "Darda",
    "subdivision": "",
    "status": 7,
    "function": [
      1,
      2
    ],
    "date": "0601",
    "iata": "",
    "coordinates": {
      "lat": 45.63333333333333,
      "lon": 18.7
    },
    "remarks": ""
  },
  {
    "change": "",
    "country": "HR",
    "location": "DAR",
    "name": "Daruvar",
    "nameWoDiacritics": "Daruvar",
    "subdivision": "",
    "status": 7,
    "function": [
      1,
      2
    ],
    "date": "0307",
    "iata": "",
    "coordinates": {
      "lat": 45.583333333333336,
      "lon": 17.216666666666665
    },
    "remarks": ""
  },
  {
    "change": "",
    "country": "HR",
    "location": "DVR",
    "name": "Davor",
    "nameWoDiacritics": "Davor",
    "subdivision": "12",
    "status": 9,
    "function": [
      2
    ],
    "date": "2101",
    "iata": "",
    "coordinates": {
      "lat": 45.1,
      "lon": 17.516666666666666
    },
    "remarks": ""
  },
  {
    "change": "",
    "country": "HR",
    "location": "DOV",
    "name": "Deletovci",
    "nameWoDiacritics": "Deletovci",
    "subdivision": "16",
    "status": 7,
    "function": [
      2
    ],
    "date": "1307",
    "iata": "",
    "coordinates": {
      "lat": 45.166666666666664,
      "lon": 19
    },
    "remarks": ""
  },
  {
    "change": "",
    "country": "HR",
    "location": "DEL",
    "name": "Delnice",
    "nameWoDiacritics": "Delnice",
    "subdivision": "",
    "status": 7,
    "function": [
      1,
      2
    ],
    "date": "0307",
    "iata": "",
    "coordinates": {
      "lat": 45.4,
      "lon": 14.783333333333333
    },
    "remarks": ""
  },
  {
    "change": "",
    "country": "HR",
    "location": "DDU",
    "name": "Donja Dubrava",
    "nameWoDiacritics": "Donja Dubrava",
    "subdivision": "19",
    "status": 7,
    "function": [
      2
    ],
    "date": "0901",
    "iata": "",
    "coordinates": {
      "lat": 42.88333333333333,
      "lon": 17.483333333333334
    },
    "remarks": ""
  },
  {
    "change": "",
    "country": "HR",
    "location": "DON",
    "name": "Donja Zelina",
    "nameWoDiacritics": "Donja Zelina",
    "subdivision": "01",
    "status": 7,
    "function": [
      2
    ],
    "date": "1301",
    "iata": "",
    "coordinates": {
      "lat": 45.916666666666664,
      "lon": 16.233333333333334
    },
    "remarks": ""
  },
  {
    "change": "",
    "country": "HR",
    "location": "DNC",
    "name": "Donje Celo",
    "nameWoDiacritics": "Donje Celo",
    "subdivision": "",
    "status": 0,
    "function": [
      0,
      2
    ],
    "date": "0607",
    "iata": "",
    "coordinates": {
      "lat": 42.68333333333333,
      "lon": 18
    },
    "remarks": ""
  },
  {
    "change": "",
    "country": "HR",
    "location": "DKC",
    "name": "Donji Kraljevec",
    "nameWoDiacritics": "Donji Kraljevec",
    "subdivision": "",
    "status": 12,
    "function": [
      2
    ],
    "date": "0212",
    "iata": "",
    "coordinates": null,
    "remarks": ""
  },
  {
    "change": "",
    "country": "HR",
    "location": "DMH",
    "name": "Donji Miholjac",
    "nameWoDiacritics": "Donji Miholjac",
    "subdivision": "",
    "status": 7,
    "function": [
      2,
      4,
      7
    ],
    "date": "0701",
    "iata": "",
    "coordinates": {
      "lat": 45.766666666666666,
      "lon": 18.166666666666668
    },
    "remarks": ""
  },
  {
    "change": "",
    "country": "HR",
    "location": "DSK",
    "name": "Donji Stupnik",
    "nameWoDiacritics": "Donji Stupnik",
    "subdivision": "01",
    "status": 7,
    "function": [
      2
    ],
    "date": "1301",
    "iata": "",
    "coordinates": {
      "lat": 45.766666666666666,
      "lon": 15.85
    },
    "remarks": ""
  },
  {
    "change": "",
    "country": "HR",
    "location": "DLV",
    "name": "Dragoslavec",
    "nameWoDiacritics": "Dragoslavec",
    "subdivision": "20",
    "status": 2,
    "function": [
      5
    ],
    "date": "1807",
    "iata": "",
    "coordinates": {
      "lat": 46.75,
      "lon": 16.566666666666666
    },
    "remarks": ""
  },
  {
    "change": "",
    "country": "HR",
    "location": "DJE",
    "name": "Drenje",
    "nameWoDiacritics": "Drenje",
    "subdivision": "14",
    "status": 7,
    "function": [
      2
    ],
    "date": "1301",
    "iata": "",
    "coordinates": {
      "lat": 45.36666666666667,
      "lon": -18.266666666666666
    },
    "remarks": ""
  },
  {
    "change": "",
    "country": "HR",
    "location": "DRN",
    "name": "Drnis",
    "nameWoDiacritics": "Drnis",
    "subdivision": "15",
    "status": 2,
    "function": [
      2
    ],
    "date": "1901",
    "iata": "",
    "coordinates": {
      "lat": 43.85,
      "lon": 16.15
    },
    "remarks": ""
  },
  {
    "change": "",
    "country": "HR",
    "location": "DRK",
    "name": "Drvenik",
    "nameWoDiacritics": "Drvenik",
    "subdivision": "",
    "status": 0,
    "function": [
      0,
      2
    ],
    "date": "0607",
    "iata": "",
    "coordinates": {
      "lat": 43.15,
      "lon": 16.25
    },
    "remarks": ""
  },
  {
    "change": "",
    "country": "HR",
    "location": "DBS",
    "name": "Dubosevica",
    "nameWoDiacritics": "Dubosevica",
    "subdivision": "14",
    "status": 9,
    "function": [
      2
    ],
    "date": "0907",
    "iata": "",
    "coordinates": {
      "lat": 45.88333333333333,
      "lon": 18.683333333333334
    },
    "remarks": ""
  },
  {
    "change": "",
    "country": "HR",
    "location": "DVA",
    "name": "Dubravica",
    "nameWoDiacritics": "Dubravica",
    "subdivision": "",
    "status": 7,
    "function": [
      2
    ],
    "date": "0501",
    "iata": "",
    "coordinates": {
      "lat": 42.733333333333334,
      "lon": 17.933333333333334
    },
    "remarks": ""
  },
  {
    "change": "",
    "country": "HR",
    "location": "DBV",
    "name": "Dubrovnik",
    "nameWoDiacritics": "Dubrovnik",
    "subdivision": "19",
    "status": 3,
    "function": [
      0,
      2,
      3
    ],
    "date": "0401",
    "iata": "",
    "coordinates": {
      "lat": 42.65,
      "lon": 18.083333333333332
    },
    "remarks": ""
  },
  {
    "change": "",
    "country": "HR",
    "location": "RES",
    "name": "Duga Resa",
    "nameWoDiacritics": "Duga Resa",
    "subdivision": "04",
    "status": 7,
    "function": [
      0,
      2
    ],
    "date": "1401",
    "iata": "",
    "coordinates": {
      "lat": 45.416666666666664,
      "lon": 15.483333333333333
    },
    "remarks": ""
  },
  {
    "change": "",
    "country": "HR",
    "location": "DUR",
    "name": "Dugi Rat",
    "nameWoDiacritics": "Dugi Rat",
    "subdivision": "17",
    "status": 7,
    "function": [
      0,
      2
    ],
    "date": "0401",
    "iata": "",
    "coordinates": {
      "lat": 43.43333333333333,
      "lon": 16.633333333333333
    },
    "remarks": ""
  },
  {
    "change": "",
    "country": "HR",
    "location": "DGS",
    "name": "Dugo Sela",
    "nameWoDiacritics": "Dugo Sela",
    "subdivision": "",
    "status": 9,
    "function": [
      1,
      2
    ],
    "date": "0607",
    "iata": "",
    "coordinates": {
      "lat": 45.8,
      "lon": 16.216666666666665
    },
    "remarks": ""
  },
  {
    "change": "",
    "country": "HR",
    "location": "DUG",
    "name": "Dugopolje",
    "nameWoDiacritics": "Dugopolje",
    "subdivision": "17",
    "status": 7,
    "function": [
      2,
      5
    ],
    "date": "0901",
    "iata": "",
    "coordinates": {
      "lat": 43.583333333333336,
      "lon": 16.6
    },
    "remarks": ""
  },
  {
    "change": "",
    "country": "HR",
    "location": "DUC",
    "name": "Durdevac",
    "nameWoDiacritics": "Durdevac",
    "subdivision": "06",
    "status": 7,
    "function": [
      2
    ],
    "date": "1701",
    "iata": "",
    "coordinates": {
      "lat": 46.03333333333333,
      "lon": 17.066666666666666
    },
    "remarks": ""
  },
  {
    "change": "",
    "country": "HR",
    "location": "DMC",
    "name": "Durmanec",
    "nameWoDiacritics": "Durmanec",
    "subdivision": "",
    "status": 7,
    "function": [
      1,
      2
    ],
    "date": "0407",
    "iata": "",
    "coordinates": {
      "lat": 46.18333333333333,
      "lon": 15.833333333333334
    },
    "remarks": ""
  },
  {
    "change": "",
    "country": "HR",
    "location": "ERD",
    "name": "Erdut",
    "nameWoDiacritics": "Erdut",
    "subdivision": "",
    "status": 7,
    "function": [
      0,
      1,
      2,
      7
    ],
    "date": "0701",
    "iata": "",
    "coordinates": {
      "lat": 45.53333333333333,
      "lon": 19.066666666666666
    },
    "remarks": ""
  },
  {
    "change": "",
    "country": "HR",
    "location": "FNA",
    "name": "Fazana",
    "nameWoDiacritics": "Fazana",
    "subdivision": "",
    "status": 0,
    "function": [
      0,
      2
    ],
    "date": "0607",
    "iata": "",
    "coordinates": {
      "lat": 44.93333333333333,
      "lon": 13.733333333333333
    },
    "remarks": ""
  },
  {
    "change": "",
    "country": "HR",
    "location": "N9F",
    "name": "Fericanci",
    "nameWoDiacritics": "Fericanci",
    "subdivision": "11",
    "status": 7,
    "function": [
      0,
      1,
      5
    ],
    "date": "1607",
    "iata": "",
    "coordinates": {
      "lat": 45.516666666666666,
      "lon": 17.966666666666665
    },
    "remarks": ""
  },
  {
    "change": "",
    "country": "HR",
    "location": "FIL",
    "name": "Filipjakov",
    "nameWoDiacritics": "Filipjakov",
    "subdivision": "13",
    "status": 9,
    "function": [
      0
    ],
    "date": "0901",
    "iata": "",
    "coordinates": {
      "lat": 43.96666666666667,
      "lon": 15.416666666666666
    },
    "remarks": ""
  },
  {
    "change": "",
    "country": "HR",
    "location": "FUZ",
    "name": "Fizine",
    "nameWoDiacritics": "Fizine",
    "subdivision": "07",
    "status": 7,
    "function": [
      2
    ],
    "date": "0701",
    "iata": "",
    "coordinates": {
      "lat": 45.3,
      "lon": 14.716666666666667
    },
    "remarks": ""
  },
  {
    "change": "",
    "country": "HR",
    "location": "GLZ",
    "name": "Galizana",
    "nameWoDiacritics": "Galizana",
    "subdivision": "",
    "status": 9,
    "function": [
      5
    ],
    "date": "1007",
    "iata": "",
    "coordinates": {
      "lat": 44.916666666666664,
      "lon": 13.866666666666667
    },
    "remarks": ""
  },
  {
    "change": "",
    "country": "HR",
    "location": "GAR",
    "name": "Garesnica",
    "nameWoDiacritics": "Garesnica",
    "subdivision": "07",
    "status": 7,
    "function": [
      2
    ],
    "date": "0701",
    "iata": "",
    "coordinates": {
      "lat": 45.56666666666667,
      "lon": 16.933333333333334
    },
    "remarks": ""
  },
  {
    "change": "",
    "country": "HR",
    "location": "GNA",
    "name": "Gazenica",
    "nameWoDiacritics": "Gazenica",
    "subdivision": "",
    "status": 0,
    "function": [
      0,
      1,
      2
    ],
    "date": "0607",
    "iata": "",
    "coordinates": {
      "lat": 44.1,
      "lon": 15.266666666666667
    },
    "remarks": ""
  },
  {
    "change": "",
    "country": "HR",
    "location": "GGT",
    "name": "Gegant",
    "nameWoDiacritics": "Gegant",
    "subdivision": "11",
    "status": 7,
    "function": [
      2
    ],
    "date": "1707",
    "iata": "",
    "coordinates": {
      "lat": 45.45,
      "lon": 17.05
    },
    "remarks": ""
  },
  {
    "change": "",
    "country": "HR",
    "location": "GIA",
    "name": "Glina",
    "nameWoDiacritics": "Glina",
    "subdivision": "03",
    "status": 0,
    "function": [
      2
    ],
    "date": "2007",
    "iata": "",
    "coordinates": {
      "lat": 45.333333333333336,
      "lon": 16.083333333333332
    },
    "remarks": ""
  },
  {
    "change": "",
    "country": "HR",
    "location": "GOM",
    "name": "Gomirje",
    "nameWoDiacritics": "Gomirje",
    "subdivision": "",
    "status": 7,
    "function": [
      1,
      2
    ],
    "date": "0401",
    "iata": "",
    "coordinates": {
      "lat": 45.333333333333336,
      "lon": 15.133333333333333
    },
    "remarks": ""
  },
  {
    "change": "",
    "country": "HR",
    "location": "GCN",
    "name": "Gorican",
    "nameWoDiacritics": "Gorican",
    "subdivision": "20",
    "status": 7,
    "function": [
      1,
      2
    ],
    "date": "0407",
    "iata": "",
    "coordinates": {
      "lat": 46.38333333333333,
      "lon": 16.666666666666668
    },
    "remarks": ""
  },
  {
    "change": "",
    "country": "HR",
    "location": "GRC",
    "name": "Gornja Rijeka",
    "nameWoDiacritics": "Gornja Rijeka",
    "subdivision": "06",
    "status": 7,
    "function": [
      2
    ],
    "date": "1301",
    "iata": "",
    "coordinates": {
      "lat": 46.11666666666667,
      "lon": 16.4
    },
    "remarks": ""
  },
  {
    "change": "",
    "country": "HR",
    "location": "GBV",
    "name": "Gornji Kneginec",
    "nameWoDiacritics": "Gornji Kneginec",
    "subdivision": "05",
    "status": 7,
    "function": [
      2
    ],
    "date": "1307",
    "iata": "",
    "coordinates": {
      "lat": 46.25,
      "lon": 16.366666666666667
    },
    "remarks": ""
  },
  {
    "change": "",
    "country": "HR",
    "location": "GSK",
    "name": "Gornji Stupnik",
    "nameWoDiacritics": "Gornji Stupnik",
    "subdivision": "",
    "status": 9,
    "function": [
      5
    ],
    "date": "1007",
    "iata": "",
    "coordinates": {
      "lat": 45.766666666666666,
      "lon": 15.85
    },
    "remarks": ""
  },
  {
    "change": "",
    "country": "HR",
    "location": "GSP",
    "name": "Gospi?",
    "nameWoDiacritics": "Gospi?",
    "subdivision": "",
    "status": 7,
    "function": [
      1,
      2
    ],
    "date": "0307",
    "iata": "",
    "coordinates": {
      "lat": 44.53333333333333,
      "lon": 15.366666666666667
    },
    "remarks": ""
  },
  {
    "change": "",
    "country": "HR",
    "location": "GRA",
    "name": "Gra?ac",
    "nameWoDiacritics": "Gra?ac",
    "subdivision": "",
    "status": 7,
    "function": [
      1,
      2
    ],
    "date": "0307",
    "iata": "",
    "coordinates": {
      "lat": 44.3,
      "lon": 15.85
    },
    "remarks": ""
  },
  {
    "change": "",
    "country": "HR",
    "location": "GAD",
    "name": "Gradiste",
    "nameWoDiacritics": "Gradiste",
    "subdivision": "16",
    "status": 2,
    "function": [
      2
    ],
    "date": "2001",
    "iata": "",
    "coordinates": {
      "lat": 45.13333333333333,
      "lon": 18.7
    },
    "remarks": ""
  },
  {
    "change": "",
    "country": "HR",
    "location": "GBJ",
    "name": "Grubisno Polje",
    "nameWoDiacritics": "Grubisno Polje",
    "subdivision": "07",
    "status": 7,
    "function": [
      2
    ],
    "date": "1301",
    "iata": "",
    "coordinates": {
      "lat": 45.7,
      "lon": 17.166666666666668
    },
    "remarks": ""
  },
  {
    "change": "",
    "country": "HR",
    "location": "GNJ",
    "name": "Gunja",
    "nameWoDiacritics": "Gunja",
    "subdivision": "16",
    "status": 9,
    "function": [
      2
    ],
    "date": "2101",
    "iata": "",
    "coordinates": {
      "lat": 44.88333333333333,
      "lon": 18.833333333333332
    },
    "remarks": ""
  },
  {
    "change": "",
    "country": "HR",
    "location": "HPA",
    "name": "Hampovica",
    "nameWoDiacritics": "Hampovica",
    "subdivision": "06",
    "status": 7,
    "function": [
      2
    ],
    "date": "1307",
    "iata": "",
    "coordinates": {
      "lat": 46,
      "lon": 16.95
    },
    "remarks": ""
  },
  {
    "change": "",
    "country": "HR",
    "location": "HCN",
    "name": "Hrascina",
    "nameWoDiacritics": "Hrascina",
    "subdivision": "02",
    "status": 7,
    "function": [
      2
    ],
    "date": "1207",
    "iata": "",
    "coordinates": {
      "lat": 46.1,
      "lon": 16.216666666666665
    },
    "remarks": ""
  },
  {
    "change": "",
    "country": "HR",
    "location": "HLE",
    "name": "Hrvatski Leskovac",
    "nameWoDiacritics": "Hrvatski Leskovac",
    "subdivision": "",
    "status": 7,
    "function": [
      1,
      2
    ],
    "date": "0407",
    "iata": "",
    "coordinates": {
      "lat": 45.733333333333334,
      "lon": 15.9
    },
    "remarks": ""
  },
  {
    "change": "",
    "country": "HR",
    "location": "HNS",
    "name": "Hum na Sutli",
    "nameWoDiacritics": "Hum na Sutli",
    "subdivision": "02",
    "status": 7,
    "function": [
      2
    ],
    "date": "0701",
    "iata": "",
    "coordinates": {
      "lat": 46.18333333333333,
      "lon": 15.7
    },
    "remarks": ""
  },
  {
    "change": "",
    "country": "HR",
    "location": "HVA",
    "name": "Hvar",
    "nameWoDiacritics": "Hvar",
    "subdivision": "17",
    "status": 7,
    "function": [
      0,
      2
    ],
    "date": "0401",
    "iata": "",
    "coordinates": {
      "lat": 43.166666666666664,
      "lon": 16.433333333333334
    },
    "remarks": ""
  },
  {
    "change": "",
    "country": "HR",
    "location": "IDA",
    "name": "IDA A",
    "nameWoDiacritics": "IDA A",
    "subdivision": "",
    "status": 7,
    "function": [
      6
    ],
    "date": "1701",
    "iata": "",
    "coordinates": {
      "lat": 44.5,
      "lon": 13.45
    },
    "remarks": ""
  },
  {
    "change": "",
    "country": "HR",
    "location": "IDB",
    "name": "IDA B",
    "nameWoDiacritics": "IDA B",
    "subdivision": "",
    "status": 7,
    "function": [
      6
    ],
    "date": "1701",
    "iata": "",
    "coordinates": {
      "lat": 44.45,
      "lon": 13.483333333333333
    },
    "remarks": ""
  },
  {
    "change": "",
    "country": "HR",
    "location": "IDC",
    "name": "IDA C",
    "nameWoDiacritics": "IDA C",
    "subdivision": "",
    "status": 7,
    "function": [
      6
    ],
    "date": "1701",
    "iata": "",
    "coordinates": {
      "lat": 44.46666666666667,
      "lon": 13.5
    },
    "remarks": ""
  },
  {
    "change": "",
    "country": "HR",
    "location": "IKA",
    "name": "IKA A",
    "nameWoDiacritics": "IKA A",
    "subdivision": "",
    "status": 7,
    "function": [
      6
    ],
    "date": "1701",
    "iata": "",
    "coordinates": {
      "lat": 44.36666666666667,
      "lon": 13.483333333333333
    },
    "remarks": ""
  },
  {
    "change": "",
    "country": "HR",
    "location": "IKB",
    "name": "IKA B",
    "nameWoDiacritics": "IKA B",
    "subdivision": "",
    "status": 7,
    "function": [
      6
    ],
    "date": "1701",
    "iata": "",
    "coordinates": {
      "lat": 44.4,
      "lon": 13.433333333333334
    },
    "remarks": ""
  },
  {
    "change": "",
    "country": "HR",
    "location": "IKJ",
    "name": "IKA JZ",
    "nameWoDiacritics": "IKA JZ",
    "subdivision": "",
    "status": 7,
    "function": [
      6
    ],
    "date": "1701",
    "iata": "",
    "coordinates": {
      "lat": 44.28333333333333,
      "lon": 13.566666666666666
    },
    "remarks": ""
  },
  {
    "change": "",
    "country": "HR",
    "location": "ILO",
    "name": "Ilok",
    "nameWoDiacritics": "Ilok",
    "subdivision": "",
    "status": 7,
    "function": [
      0,
      2,
      7
    ],
    "date": "0607",
    "iata": "",
    "coordinates": {
      "lat": 45.21666666666667,
      "lon": 19.366666666666667
    },
    "remarks": ""
  },
  {
    "change": "",
    "country": "HR",
    "location": "IRI",
    "name": "IRINA",
    "nameWoDiacritics": "IRINA",
    "subdivision": "",
    "status": 7,
    "function": [
      6
    ],
    "date": "1701",
    "iata": "",
    "coordinates": {
      "lat": 44.53333333333333,
      "lon": 13.383333333333333
    },
    "remarks": ""
  },
  {
    "change": "",
    "country": "HR",
    "location": "IST",
    "name": "Ist",
    "nameWoDiacritics": "Ist",
    "subdivision": "",
    "status": 7,
    "function": [
      0
    ],
    "date": "0601",
    "iata": "",
    "coordinates": {
      "lat": 44.266666666666666,
      "lon": 14.766666666666667
    },
    "remarks": ""
  },
  {
    "change": "",
    "country": "HR",
    "location": "IVA",
    "name": "IVANA A",
    "nameWoDiacritics": "IVANA A",
    "subdivision": "",
    "status": 7,
    "function": [
      6
    ],
    "date": "1701",
    "iata": "",
    "coordinates": {
      "lat": 44.75,
      "lon": 13.3
    },
    "remarks": ""
  },
  {
    "change": "",
    "country": "HR",
    "location": "IVB",
    "name": "IVANA B",
    "nameWoDiacritics": "IVANA B",
    "subdivision": "",
    "status": 7,
    "function": [
      6
    ],
    "date": "1701",
    "iata": "",
    "coordinates": {
      "lat": 44.68333333333333,
      "lon": 13.216666666666667
    },
    "remarks": ""
  },
  {
    "change": "",
    "country": "HR",
    "location": "IVC",
    "name": "IVANA C",
    "nameWoDiacritics": "IVANA C",
    "subdivision": "",
    "status": 7,
    "function": [
      6
    ],
    "date": "1701",
    "iata": "",
    "coordinates": {
      "lat": 44.61666666666667,
      "lon": 13.183333333333334
    },
    "remarks": ""
  },
  {
    "change": "",
    "country": "HR",
    "location": "IVD",
    "name": "IVANA D",
    "nameWoDiacritics": "IVANA D",
    "subdivision": "",
    "status": 7,
    "function": [
      6
    ],
    "date": "1701",
    "iata": "",
    "coordinates": {
      "lat": 44.78333333333333,
      "lon": 13.266666666666667
    },
    "remarks": ""
  },
  {
    "change": "",
    "country": "HR",
    "location": "IVE",
    "name": "IVANA E",
    "nameWoDiacritics": "IVANA E",
    "subdivision": "",
    "status": 7,
    "function": [
      6
    ],
    "date": "1701",
    "iata": "",
    "coordinates": {
      "lat": 44.75,
      "lon": 13.25
    },
    "remarks": ""
  },
  {
    "change": "",
    "country": "HR",
    "location": "IVK",
    "name": "IVANA K",
    "nameWoDiacritics": "IVANA K",
    "subdivision": "",
    "status": 7,
    "function": [
      6
    ],
    "date": "1701",
    "iata": "",
    "coordinates": {
      "lat": 44.75,
      "lon": 13.3
    },
    "remarks": ""
  },
  {
    "change": "",
    "country": "HR",
    "location": "HIC",
    "name": "Ivanec",
    "nameWoDiacritics": "Ivanec",
    "subdivision": "05",
    "status": 7,
    "function": [
      5
    ],
    "date": "0901",
    "iata": "",
    "coordinates": {
      "lat": 46.21666666666667,
      "lon": 16.116666666666667
    },
    "remarks": ""
  },
  {
    "change": "",
    "country": "HR",
    "location": "HID",
    "name": "Ivanic-Grad",
    "nameWoDiacritics": "Ivanic-Grad",
    "subdivision": "03",
    "status": 7,
    "function": [
      5
    ],
    "date": "0901",
    "iata": "",
    "coordinates": {
      "lat": 45.7,
      "lon": 16.383333333333333
    },
    "remarks": ""
  },
  {
    "change": "",
    "country": "HR",
    "location": "IZJ",
    "name": "IZABELA JUG",
    "nameWoDiacritics": "IZABELA JUG",
    "subdivision": "",
    "status": 7,
    "function": [
      6
    ],
    "date": "1701",
    "iata": "",
    "coordinates": {
      "lat": 44.96666666666667,
      "lon": 13.15
    },
    "remarks": ""
  },
  {
    "change": "",
    "country": "HR",
    "location": "IZS",
    "name": "IZABELA SJEVER",
    "nameWoDiacritics": "IZABELA SJEVER",
    "subdivision": "",
    "status": 7,
    "function": [
      6
    ],
    "date": "1701",
    "iata": "",
    "coordinates": {
      "lat": 44.983333333333334,
      "lon": 13.133333333333333
    },
    "remarks": ""
  },
  {
    "change": "",
    "country": "HR",
    "location": "JAB",
    "name": "Jablanac",
    "nameWoDiacritics": "Jablanac",
    "subdivision": "",
    "status": 7,
    "function": [
      0,
      2
    ],
    "date": "0601",
    "iata": "",
    "coordinates": {
      "lat": 44.71666666666667,
      "lon": 14.9
    },
    "remarks": ""
  },
  {
    "change": "",
    "country": "HR",
    "location": "JNC",
    "name": "Jablanovec",
    "nameWoDiacritics": "Jablanovec",
    "subdivision": "",
    "status": 7,
    "function": [
      2
    ],
    "date": "0501",
    "iata": "",
    "coordinates": {
      "lat": 45.86666666666667,
      "lon": 15.85
    },
    "remarks": ""
  },
  {
    "change": "",
    "country": "HR",
    "location": "JDR",
    "name": "Jadrija",
    "nameWoDiacritics": "Jadrija",
    "subdivision": "",
    "status": 0,
    "function": [
      0,
      2
    ],
    "date": "0607",
    "iata": "",
    "coordinates": {
      "lat": 43.71666666666667,
      "lon": 15.85
    },
    "remarks": ""
  },
  {
    "change": "",
    "country": "HR",
    "location": "JJA",
    "name": "Janjina",
    "nameWoDiacritics": "Janjina",
    "subdivision": "19",
    "status": 7,
    "function": [
      2
    ],
    "date": "1707",
    "iata": "",
    "coordinates": {
      "lat": 42.916666666666664,
      "lon": 17.416666666666668
    },
    "remarks": ""
  },
  {
    "change": "",
    "country": "HR",
    "location": "JAS",
    "name": "Jasenovac",
    "nameWoDiacritics": "Jasenovac",
    "subdivision": "",
    "status": 9,
    "function": [
      2
    ],
    "date": "0901",
    "iata": "",
    "coordinates": {
      "lat": 45.266666666666666,
      "lon": 16.916666666666668
    },
    "remarks": ""
  },
  {
    "change": "",
    "country": "HR",
    "location": "JBO",
    "name": "Jastrebarsko",
    "nameWoDiacritics": "Jastrebarsko",
    "subdivision": "",
    "status": 7,
    "function": [
      2
    ],
    "date": "0501",
    "iata": "",
    "coordinates": {
      "lat": 45.666666666666664,
      "lon": 15.633333333333333
    },
    "remarks": ""
  },
  {
    "change": "",
    "country": "HR",
    "location": "JSA",
    "name": "Jelsa",
    "nameWoDiacritics": "Jelsa",
    "subdivision": "",
    "status": 7,
    "function": [
      0,
      2
    ],
    "date": "0601",
    "iata": "",
    "coordinates": {
      "lat": 43.166666666666664,
      "lon": 16.7
    },
    "remarks": ""
  },
  {
    "change": "",
    "country": "HR",
    "location": "JZR",
    "name": "Jezerane",
    "nameWoDiacritics": "Jezerane",
    "subdivision": "09",
    "status": 4,
    "function": [
      2
    ],
    "date": "2007",
    "iata": "",
    "coordinates": {
      "lat": 45.03333333333333,
      "lon": 15.2
    },
    "remarks": ""
  },
  {
    "change": "",
    "country": "HR",
    "location": "JSI",
    "name": "Josipdol",
    "nameWoDiacritics": "Josipdol",
    "subdivision": "04",
    "status": 2,
    "function": [
      2
    ],
    "date": "2001",
    "iata": "",
    "coordinates": {
      "lat": 45.18333333333333,
      "lon": 17.2
    },
    "remarks": ""
  },
  {
    "change": "",
    "country": "HR",
    "location": "JUR",
    "name": "Jurdani",
    "nameWoDiacritics": "Jurdani",
    "subdivision": "08",
    "status": 7,
    "function": [
      2
    ],
    "date": "2001",
    "iata": "",
    "coordinates": {
      "lat": 45.36666666666667,
      "lon": 14.316666666666666
    },
    "remarks": ""
  },
  {
    "change": "",
    "country": "HR",
    "location": "KAL",
    "name": "Kali",
    "nameWoDiacritics": "Kali",
    "subdivision": "13",
    "status": 9,
    "function": [
      0
    ],
    "date": "0901",
    "iata": "",
    "coordinates": {
      "lat": 44.06666666666667,
      "lon": 15.2
    },
    "remarks": ""
  },
  {
    "change": "",
    "country": "HR",
    "location": "HKA",
    "name": "Kalinovica",
    "nameWoDiacritics": "Kalinovica",
    "subdivision": "01",
    "status": 7,
    "function": [
      5
    ],
    "date": "0901",
    "iata": "",
    "coordinates": {
      "lat": 45.766666666666666,
      "lon": 15.783333333333333
    },
    "remarks": ""
  },
  {
    "change": "",
    "country": "HR",
    "location": "KAM",
    "name": "Kamensko",
    "nameWoDiacritics": "Kamensko",
    "subdivision": "17",
    "status": 9,
    "function": [
      2
    ],
    "date": "0907",
    "iata": "",
    "coordinates": {
      "lat": 43.61666666666667,
      "lon": 16.95
    },
    "remarks": ""
  },
  {
    "change": "",
    "country": "HR",
    "location": "KFR",
    "name": "Kanfanar",
    "nameWoDiacritics": "Kanfanar",
    "subdivision": "07",
    "status": 9,
    "function": [
      0
    ],
    "date": "0901",
    "iata": "",
    "coordinates": null,
    "remarks": ""
  },
  {
    "change": "",
    "country": "HR",
    "location": "KLA",
    "name": "Kapelica",
    "nameWoDiacritics": "Kapelica",
    "subdivision": "07",
    "status": 0,
    "function": [
      2
    ],
    "date": "2107",
    "iata": "",
    "coordinates": {
      "lat": 45.56666666666667,
      "lon": 16.883333333333333
    },
    "remarks": ""
  },
  {
    "change": "",
    "country": "HR",
    "location": "KPR",
    "name": "Kaprije",
    "nameWoDiacritics": "Kaprije",
    "subdivision": "",
    "status": 0,
    "function": [
      0,
      2
    ],
    "date": "0607",
    "iata": "",
    "coordinates": {
      "lat": 43.68333333333333,
      "lon": 15.716666666666667
    },
    "remarks": ""
  },
  {
    "change": "",
    "country": "HR",
    "location": "KRS",
    "name": "Karasovici",
    "nameWoDiacritics": "Karasovici",
    "subdivision": "19",
    "status": 9,
    "function": [
      2
    ],
    "date": "0907",
    "iata": "",
    "coordinates": {
      "lat": 42.5,
      "lon": 18.4
    },
    "remarks": ""
  },
  {
    "change": "=",
    "country": "HR",
    "location": "",
    "name": "Kardeljevo = Ploce",
    "nameWoDiacritics": "Kardeljevo = Ploce",
    "subdivision": "",
    "status": null,
    "function": [],
    "date": "",
    "iata": "",
    "coordinates": null,
    "remarks": ""
  },
  {
    "change": "",
    "country": "HR",
    "location": "KAB",
    "name": "Karlobag",
    "nameWoDiacritics": "Karlobag",
    "subdivision": "",
    "status": 7,
    "function": [
      0,
      2
    ],
    "date": "0601",
    "iata": "",
    "coordinates": {
      "lat": 44.516666666666666,
      "lon": 15.066666666666666
    },
    "remarks": ""
  },
  {
    "change": "",
    "country": "HR",
    "location": "KAR",
    "name": "Karlovac",
    "nameWoDiacritics": "Karlovac",
    "subdivision": "",
    "status": 7,
    "function": [
      1,
      2
    ],
    "date": "0307",
    "iata": "",
    "coordinates": {
      "lat": 45.483333333333334,
      "lon": 15.533333333333333
    },
    "remarks": ""
  },
  {
    "change": "",
    "country": "HR",
    "location": "KAI",
    "name": "Kasina",
    "nameWoDiacritics": "Kasina",
    "subdivision": "21",
    "status": 7,
    "function": [
      5
    ],
    "date": "0901",
    "iata": "",
    "coordinates": {
      "lat": 45.916666666666664,
      "lon": 16
    },
    "remarks": ""
  },
  {
    "change": "",
    "country": "HR",
    "location": "KTV",
    "name": "Kastav",
    "nameWoDiacritics": "Kastav",
    "subdivision": "08",
    "status": 7,
    "function": [
      2
    ],
    "date": "1707",
    "iata": "",
    "coordinates": {
      "lat": 45.36666666666667,
      "lon": 14.333333333333334
    },
    "remarks": ""
  },
  {
    "change": "",
    "country": "HR",
    "location": "KGA",
    "name": "Kastel Gomilica",
    "nameWoDiacritics": "Kastel Gomilica",
    "subdivision": "17",
    "status": 7,
    "function": [
      2
    ],
    "date": "1301",
    "iata": "",
    "coordinates": {
      "lat": 43.55,
      "lon": 16.4
    },
    "remarks": ""
  },
  {
    "change": "",
    "country": "HR",
    "location": "KAS",
    "name": "Kastel Su?urac",
    "nameWoDiacritics": "Kastel Su?urac",
    "subdivision": "07",
    "status": 7,
    "function": [
      2
    ],
    "date": "0901",
    "iata": "",
    "coordinates": {
      "lat": 43.55,
      "lon": 16.433333333333334
    },
    "remarks": ""
  },
  {
    "change": "",
    "country": "HR",
    "location": "KST",
    "name": "Kastelir",
    "nameWoDiacritics": "Kastelir",
    "subdivision": "18",
    "status": 7,
    "function": [
      2
    ],
    "date": "2001",
    "iata": "",
    "coordinates": {
      "lat": 45.3,
      "lon": 13.683333333333334
    },
    "remarks": ""
  },
  {
    "change": "",
    "country": "HR",
    "location": "KAT",
    "name": "KATARINA",
    "nameWoDiacritics": "KATARINA",
    "subdivision": "",
    "status": 7,
    "function": [
      6
    ],
    "date": "1701",
    "iata": "",
    "coordinates": {
      "lat": 43.983333333333334,
      "lon": 14.1
    },
    "remarks": ""
  },
  {
    "change": "",
    "country": "HR",
    "location": "KJV",
    "name": "Kijevo",
    "nameWoDiacritics": "Kijevo",
    "subdivision": "",
    "status": 7,
    "function": [
      0,
      5
    ],
    "date": "1201",
    "iata": "",
    "coordinates": {
      "lat": 44,
      "lon": 16.35
    },
    "remarks": ""
  },
  {
    "change": "",
    "country": "HR",
    "location": "KNA",
    "name": "Klana",
    "nameWoDiacritics": "Klana",
    "subdivision": "08",
    "status": 7,
    "function": [
      2
    ],
    "date": "0407",
    "iata": "",
    "coordinates": {
      "lat": 45.43333333333333,
      "lon": 14.366666666666667
    },
    "remarks": ""
  },
  {
    "change": "",
    "country": "HR",
    "location": "KLK",
    "name": "Klek",
    "nameWoDiacritics": "Klek",
    "subdivision": "",
    "status": 0,
    "function": [
      0,
      2
    ],
    "date": "0607",
    "iata": "",
    "coordinates": {
      "lat": 42.95,
      "lon": 17.566666666666666
    },
    "remarks": ""
  },
  {
    "change": "",
    "country": "HR",
    "location": "KMN",
    "name": "Klimno",
    "nameWoDiacritics": "Klimno",
    "subdivision": "",
    "status": 0,
    "function": [
      0,
      2
    ],
    "date": "0607",
    "iata": "",
    "coordinates": {
      "lat": 45.15,
      "lon": 14.633333333333333
    },
    "remarks": ""
  },
  {
    "change": "",
    "country": "HR",
    "location": "KZA",
    "name": "Kneza",
    "nameWoDiacritics": "Kneza",
    "subdivision": "17",
    "status": 9,
    "function": [
      0
    ],
    "date": "0901",
    "iata": "",
    "coordinates": {
      "lat": 42.96666666666667,
      "lon": 17.05
    },
    "remarks": ""
  },
  {
    "change": "",
    "country": "HR",
    "location": "KNI",
    "name": "Knin",
    "nameWoDiacritics": "Knin",
    "subdivision": "",
    "status": 7,
    "function": [
      1,
      2
    ],
    "date": "0307",
    "iata": "",
    "coordinates": {
      "lat": 44.03333333333333,
      "lon": 16.2
    },
    "remarks": ""
  },
  {
    "change": "",
    "country": "HR",
    "location": "KMZ",
    "name": "Komiza",
    "nameWoDiacritics": "Komiza",
    "subdivision": "",
    "status": 7,
    "function": [
      0,
      2
    ],
    "date": "0307",
    "iata": "",
    "coordinates": {
      "lat": 43.03333333333333,
      "lon": 16.083333333333332
    },
    "remarks": ""
  },
  {
    "change": "",
    "country": "HR",
    "location": "KOV",
    "name": "Koprivnica",
    "nameWoDiacritics": "Koprivnica",
    "subdivision": "06",
    "status": 7,
    "function": [
      1,
      2
    ],
    "date": "0307",
    "iata": "",
    "coordinates": {
      "lat": 46.15,
      "lon": 16.816666666666666
    },
    "remarks": ""
  },
  {
    "change": "",
    "country": "HR",
    "location": "KOP",
    "name": "Koprno",
    "nameWoDiacritics": "Koprno",
    "subdivision": "",
    "status": 7,
    "function": [
      1,
      2
    ],
    "date": "0601",
    "iata": "",
    "coordinates": {
      "lat": 43.71666666666667,
      "lon": 16.166666666666668
    },
    "remarks": ""
  },
  {
    "change": "",
    "country": "HR",
    "location": "KOR",
    "name": "Korcula",
    "nameWoDiacritics": "Korcula",
    "subdivision": "",
    "status": 7,
    "function": [
      0,
      2
    ],
    "date": "0201",
    "iata": "",
    "coordinates": {
      "lat": 42.95,
      "lon": 17.116666666666667
    },
    "remarks": ""
  },
  {
    "change": "",
    "country": "HR",
    "location": "KRM",
    "name": "Koromacno",
    "nameWoDiacritics": "Koromacno",
    "subdivision": "",
    "status": 7,
    "function": [
      0,
      2
    ],
    "date": "0307",
    "iata": "",
    "coordinates": {
      "lat": 44.96666666666667,
      "lon": 14.116666666666667
    },
    "remarks": ""
  },
  {
    "change": "",
    "country": "HR",
    "location": "KOS",
    "name": "Kostrena",
    "nameWoDiacritics": "Kostrena",
    "subdivision": "08",
    "status": 7,
    "function": [
      0,
      2
    ],
    "date": "0901",
    "iata": "",
    "coordinates": {
      "lat": 45.3,
      "lon": 14.5
    },
    "remarks": ""
  },
  {
    "change": "",
    "country": "HR",
    "location": "KTR",
    "name": "Kotoriba",
    "nameWoDiacritics": "Kotoriba",
    "subdivision": "20",
    "status": 9,
    "function": [
      1
    ],
    "date": "0907",
    "iata": "",
    "coordinates": {
      "lat": 46.35,
      "lon": 16.816666666666666
    },
    "remarks": ""
  },
  {
    "change": "",
    "country": "HR",
    "location": "KRA",
    "name": "Kraljevica",
    "nameWoDiacritics": "Kraljevica",
    "subdivision": "",
    "status": 7,
    "function": [
      0,
      2
    ],
    "date": "0307",
    "iata": "",
    "coordinates": {
      "lat": 45.266666666666666,
      "lon": 14.566666666666666
    },
    "remarks": ""
  },
  {
    "change": "",
    "country": "HR",
    "location": "KPA",
    "name": "Krapina",
    "nameWoDiacritics": "Krapina",
    "subdivision": "02",
    "status": 7,
    "function": [
      1,
      2
    ],
    "date": "0401",
    "iata": "",
    "coordinates": {
      "lat": 46.15,
      "lon": 15.866666666666667
    },
    "remarks": ""
  },
  {
    "change": "",
    "country": "HR",
    "location": "PGK",
    "name": "Krasica",
    "nameWoDiacritics": "Krasica",
    "subdivision": "08",
    "status": 7,
    "function": [
      2,
      5
    ],
    "date": "0901",
    "iata": "",
    "coordinates": {
      "lat": 45.31666666666667,
      "lon": 14.55
    },
    "remarks": ""
  },
  {
    "change": "",
    "country": "HR",
    "location": "KRZ",
    "name": "Kriz",
    "nameWoDiacritics": "Kriz",
    "subdivision": "",
    "status": 7,
    "function": [
      1,
      2
    ],
    "date": "0501",
    "iata": "",
    "coordinates": {
      "lat": 45.416666666666664,
      "lon": 16.25
    },
    "remarks": ""
  },
  {
    "change": "",
    "country": "HR",
    "location": "KRI",
    "name": "Krizevci",
    "nameWoDiacritics": "Krizevci",
    "subdivision": "",
    "status": 7,
    "function": [
      1,
      2
    ],
    "date": "0307",
    "iata": "",
    "coordinates": {
      "lat": 46.016666666666666,
      "lon": 16.533333333333335
    },
    "remarks": ""
  },
  {
    "change": "",
    "country": "HR",
    "location": "KRK",
    "name": "Krk",
    "nameWoDiacritics": "Krk",
    "subdivision": "",
    "status": 7,
    "function": [
      0,
      2
    ],
    "date": "0601",
    "iata": "",
    "coordinates": {
      "lat": 45.03333333333333,
      "lon": 14.583333333333334
    },
    "remarks": ""
  },
  {
    "change": "",
    "country": "HR",
    "location": "KRD",
    "name": "Krsan",
    "nameWoDiacritics": "Krsan",
    "subdivision": "18",
    "status": 7,
    "function": [
      2
    ],
    "date": "0901",
    "iata": "",
    "coordinates": {
      "lat": 45.166666666666664,
      "lon": 14.133333333333333
    },
    "remarks": ""
  },
  {
    "change": "",
    "country": "HR",
    "location": "KUK",
    "name": "Kukljica",
    "nameWoDiacritics": "Kukljica",
    "subdivision": "13",
    "status": 9,
    "function": [
      0
    ],
    "date": "0901",
    "iata": "",
    "coordinates": {
      "lat": 44.03333333333333,
      "lon": 15.25
    },
    "remarks": ""
  },
  {
    "change": "",
    "country": "HR",
    "location": "KKC",
    "name": "Kukuljanovo",
    "nameWoDiacritics": "Kukuljanovo",
    "subdivision": "08",
    "status": 7,
    "function": [
      2
    ],
    "date": "1301",
    "iata": "",
    "coordinates": {
      "lat": 45.31666666666667,
      "lon": 14.533333333333333
    },
    "remarks": ""
  },
  {
    "change": "",
    "country": "HR",
    "location": "KUT",
    "name": "Kutina",
    "nameWoDiacritics": "Kutina",
    "subdivision": "",
    "status": 7,
    "function": [
      1,
      2
    ],
    "date": "0307",
    "iata": "",
    "coordinates": {
      "lat": 45.46666666666667,
      "lon": 16.766666666666666
    },
    "remarks": ""
  },
  {
    "change": "",
    "country": "HR",
    "location": "KUJ",
    "name": "Kutjevo",
    "nameWoDiacritics": "Kutjevo",
    "subdivision": "11",
    "status": 7,
    "function": [
      2
    ],
    "date": "1301",
    "iata": "",
    "coordinates": {
      "lat": 45.416666666666664,
      "lon": 17.866666666666667
    },
    "remarks": ""
  },
  {
    "change": "",
    "country": "HR",
    "location": "LAM",
    "name": "Lamjane",
    "nameWoDiacritics": "Lamjane",
    "subdivision": "",
    "status": 7,
    "function": [
      0,
      2
    ],
    "date": "0307",
    "iata": "",
    "coordinates": {
      "lat": 44.03333333333333,
      "lon": 15.2
    },
    "remarks": ""
  },
  {
    "change": "",
    "country": "HR",
    "location": "LST",
    "name": "Lastovo",
    "nameWoDiacritics": "Lastovo",
    "subdivision": "",
    "status": 7,
    "function": [
      0,
      2
    ],
    "date": "0601",
    "iata": "",
    "coordinates": {
      "lat": 42.766666666666666,
      "lon": 16.9
    },
    "remarks": ""
  },
  {
    "change": "",
    "country": "HR",
    "location": "LEP",
    "name": "Lepajci",
    "nameWoDiacritics": "Lepajci",
    "subdivision": "02",
    "status": 7,
    "function": [
      5
    ],
    "date": "1201",
    "iata": "",
    "coordinates": {
      "lat": 46.11666666666667,
      "lon": 15.883333333333333
    },
    "remarks": ""
  },
  {
    "change": "",
    "country": "HR",
    "location": "LPS",
    "name": "Licko Petrovo Selo",
    "nameWoDiacritics": "Licko Petrovo Selo",
    "subdivision": "09",
    "status": 9,
    "function": [
      2
    ],
    "date": "0907",
    "iata": "",
    "coordinates": {
      "lat": 44.86666666666667,
      "lon": 15.7
    },
    "remarks": ""
  },
  {
    "change": "",
    "country": "HR",
    "location": "LIP",
    "name": "Lipik",
    "nameWoDiacritics": "Lipik",
    "subdivision": "11",
    "status": 7,
    "function": [
      2
    ],
    "date": "1307",
    "iata": "",
    "coordinates": {
      "lat": 45.4,
      "lon": 17.15
    },
    "remarks": ""
  },
  {
    "change": "",
    "country": "HR",
    "location": "LPJ",
    "name": "Lipovljani",
    "nameWoDiacritics": "Lipovljani",
    "subdivision": "03",
    "status": 7,
    "function": [
      2
    ],
    "date": "1307",
    "iata": "",
    "coordinates": {
      "lat": 45.38333333333333,
      "lon": 16.883333333333333
    },
    "remarks": ""
  },
  {
    "change": "",
    "country": "HR",
    "location": "LJA",
    "name": "Ljubescica",
    "nameWoDiacritics": "Ljubescica",
    "subdivision": "05",
    "status": 2,
    "function": [
      2
    ],
    "date": "1801",
    "iata": "",
    "coordinates": {
      "lat": 46.15,
      "lon": 162.58333333333334
    },
    "remarks": ""
  },
  {
    "change": "",
    "country": "HR",
    "location": "LKR",
    "name": "Lokrum",
    "nameWoDiacritics": "Lokrum",
    "subdivision": "",
    "status": 0,
    "function": [
      0,
      2
    ],
    "date": "0607",
    "iata": "",
    "coordinates": {
      "lat": 42.61666666666667,
      "lon": 18.133333333333333
    },
    "remarks": ""
  },
  {
    "change": "",
    "country": "HR",
    "location": "LKE",
    "name": "Lokve",
    "nameWoDiacritics": "Lokve",
    "subdivision": "08",
    "status": 7,
    "function": [
      1,
      2
    ],
    "date": "0701",
    "iata": "",
    "coordinates": {
      "lat": 45.35,
      "lon": 14.733333333333333
    },
    "remarks": ""
  },
  {
    "change": "",
    "country": "HR",
    "location": "LPR",
    "name": "Lopar",
    "nameWoDiacritics": "Lopar",
    "subdivision": "",
    "status": 0,
    "function": [
      0,
      2
    ],
    "date": "0607",
    "iata": "",
    "coordinates": {
      "lat": 44.833333333333336,
      "lon": 14.8
    },
    "remarks": ""
  },
  {
    "change": "",
    "country": "HR",
    "location": "LPD",
    "name": "Lopud",
    "nameWoDiacritics": "Lopud",
    "subdivision": "",
    "status": 0,
    "function": [
      0,
      2
    ],
    "date": "0607",
    "iata": "",
    "coordinates": {
      "lat": 42.68333333333333,
      "lon": 17.95
    },
    "remarks": ""
  },
  {
    "change": "",
    "country": "HR",
    "location": "DW2",
    "name": "Lucko",
    "nameWoDiacritics": "Lucko",
    "subdivision": "21",
    "status": 7,
    "function": [
      2
    ],
    "date": "1407",
    "iata": "",
    "coordinates": {
      "lat": 45.75,
      "lon": 15.866666666666667
    },
    "remarks": ""
  },
  {
    "change": "",
    "country": "HR",
    "location": "HLG",
    "name": "Ludbreg",
    "nameWoDiacritics": "Ludbreg",
    "subdivision": "05",
    "status": 7,
    "function": [
      5
    ],
    "date": "0901",
    "iata": "",
    "coordinates": {
      "lat": 46.25,
      "lon": 16.6
    },
    "remarks": ""
  },
  {
    "change": "",
    "country": "HR",
    "location": "LUK",
    "name": "Luka",
    "nameWoDiacritics": "Luka",
    "subdivision": "",
    "status": 7,
    "function": [
      2
    ],
    "date": "1201",
    "iata": "",
    "coordinates": {
      "lat": 45.93333333333333,
      "lon": 16.233333333333334
    },
    "remarks": ""
  },
  {
    "change": "",
    "country": "HR",
    "location": "MCL",
    "name": "Macelj",
    "nameWoDiacritics": "Macelj",
    "subdivision": "02",
    "status": 9,
    "function": [
      2
    ],
    "date": "0907",
    "iata": "",
    "coordinates": {
      "lat": 46.43333333333333,
      "lon": 16.433333333333334
    },
    "remarks": ""
  },
  {
    "change": "",
    "country": "HR",
    "location": "MCC",
    "name": "Macinec",
    "nameWoDiacritics": "Macinec",
    "subdivision": "20",
    "status": 7,
    "function": [
      1,
      2
    ],
    "date": "0407",
    "iata": "",
    "coordinates": {
      "lat": 46.38333333333333,
      "lon": 16.316666666666666
    },
    "remarks": ""
  },
  {
    "change": "",
    "country": "HR",
    "location": "MAC",
    "name": "Mackovac",
    "nameWoDiacritics": "Mackovac",
    "subdivision": "",
    "status": 9,
    "function": [
      2
    ],
    "date": "0901",
    "iata": "",
    "coordinates": {
      "lat": 45.15,
      "lon": 17.333333333333332
    },
    "remarks": ""
  },
  {
    "change": "",
    "country": "HR",
    "location": "MAG",
    "name": "Magadenovac",
    "nameWoDiacritics": "Magadenovac",
    "subdivision": "14",
    "status": 7,
    "function": [
      2
    ],
    "date": "1307",
    "iata": "",
    "coordinates": {
      "lat": 45.65,
      "lon": 18.183333333333334
    },
    "remarks": ""
  },
  {
    "change": "",
    "country": "HR",
    "location": "MAK",
    "name": "Makarska",
    "nameWoDiacritics": "Makarska",
    "subdivision": "17",
    "status": 7,
    "function": [
      0,
      2
    ],
    "date": "1001",
    "iata": "",
    "coordinates": {
      "lat": 43.3,
      "lon": 17.016666666666666
    },
    "remarks": ""
  },
  {
    "change": "",
    "country": "HR",
    "location": "MIZ",
    "name": "Mali Iz",
    "nameWoDiacritics": "Mali Iz",
    "subdivision": "13",
    "status": 9,
    "function": [
      0
    ],
    "date": "0901",
    "iata": "",
    "coordinates": {
      "lat": 44.03333333333333,
      "lon": 15.133333333333333
    },
    "remarks": ""
  },
  {
    "change": "",
    "country": "HR",
    "location": "LSZ",
    "name": "Mali Losinj",
    "nameWoDiacritics": "Mali Losinj",
    "subdivision": "",
    "status": 3,
    "function": [
      0,
      2,
      3
    ],
    "date": "0307",
    "iata": "",
    "coordinates": {
      "lat": 44.53333333333333,
      "lon": 14.466666666666667
    },
    "remarks": ""
  },
  {
    "change": "",
    "country": "HR",
    "location": "MAL",
    "name": "Malinska",
    "nameWoDiacritics": "Malinska",
    "subdivision": "",
    "status": 7,
    "function": [
      0,
      2
    ],
    "date": "0601",
    "iata": "",
    "coordinates": {
      "lat": 45.11666666666667,
      "lon": 14.533333333333333
    },
    "remarks": ""
  },
  {
    "change": "",
    "country": "HR",
    "location": "MCA",
    "name": "Marcana",
    "nameWoDiacritics": "Marcana",
    "subdivision": "18",
    "status": 2,
    "function": [
      2
    ],
    "date": "1807",
    "iata": "",
    "coordinates": {
      "lat": 44.95,
      "lon": 13.95
    },
    "remarks": ""
  },
  {
    "change": "",
    "country": "HR",
    "location": "MAR",
    "name": "MARICA",
    "nameWoDiacritics": "MARICA",
    "subdivision": "",
    "status": 7,
    "function": [
      6
    ],
    "date": "1701",
    "iata": "",
    "coordinates": {
      "lat": 44.06666666666667,
      "lon": 14
    },
    "remarks": ""
  },
  {
    "change": "",
    "country": "HR",
    "location": "MTA",
    "name": "Martinscica",
    "nameWoDiacritics": "Martinscica",
    "subdivision": "",
    "status": 0,
    "function": [
      0,
      2
    ],
    "date": "0607",
    "iata": "",
    "coordinates": {
      "lat": 44.81666666666667,
      "lon": 14.416666666666666
    },
    "remarks": ""
  },
  {
    "change": "",
    "country": "HR",
    "location": "MAV",
    "name": "Martinska Ves Desna",
    "nameWoDiacritics": "Martinska Ves Desna",
    "subdivision": "",
    "status": 7,
    "function": [
      2
    ],
    "date": "0701",
    "iata": "",
    "coordinates": {
      "lat": 45.583333333333336,
      "lon": 16.383333333333333
    },
    "remarks": ""
  },
  {
    "change": "",
    "country": "HR",
    "location": "MSC",
    "name": "Marusevec",
    "nameWoDiacritics": "Marusevec",
    "subdivision": "",
    "status": 7,
    "function": [
      2
    ],
    "date": "0407",
    "iata": "",
    "coordinates": {
      "lat": 46.28333333333333,
      "lon": 16.166666666666668
    },
    "remarks": ""
  },
  {
    "change": "",
    "country": "HR",
    "location": "MAS",
    "name": "Maslenica",
    "nameWoDiacritics": "Maslenica",
    "subdivision": "17",
    "status": 7,
    "function": [
      0,
      2
    ],
    "date": "0401",
    "iata": "",
    "coordinates": {
      "lat": 44.21666666666667,
      "lon": 15.533333333333333
    },
    "remarks": ""
  },
  {
    "change": "",
    "country": "HR",
    "location": "MAT",
    "name": "Matulji",
    "nameWoDiacritics": "Matulji",
    "subdivision": "08",
    "status": 7,
    "function": [
      2
    ],
    "date": "1407",
    "iata": "",
    "coordinates": {
      "lat": 45.35,
      "lon": 14.316666666666666
    },
    "remarks": ""
  },
  {
    "change": "",
    "country": "HR",
    "location": "MRG",
    "name": "Merag",
    "nameWoDiacritics": "Merag",
    "subdivision": "",
    "status": 0,
    "function": [
      0,
      2
    ],
    "date": "0607",
    "iata": "",
    "coordinates": {
      "lat": 44.983333333333334,
      "lon": 14.45
    },
    "remarks": ""
  },
  {
    "change": "",
    "country": "HR",
    "location": "MET",
    "name": "Metkovi?",
    "nameWoDiacritics": "Metkovi?",
    "subdivision": "",
    "status": 7,
    "function": [
      0,
      1,
      2
    ],
    "date": "0307",
    "iata": "",
    "coordinates": {
      "lat": 43.05,
      "lon": 17.633333333333333
    },
    "remarks": ""
  },
  {
    "change": "",
    "country": "HR",
    "location": "JVN",
    "name": "Mihovljan",
    "nameWoDiacritics": "Mihovljan",
    "subdivision": "02",
    "status": 7,
    "function": [
      2
    ],
    "date": "1701",
    "iata": "",
    "coordinates": {
      "lat": 46.11666666666667,
      "lon": 15.966666666666667
    },
    "remarks": ""
  },
  {
    "change": "",
    "country": "HR",
    "location": "MIL",
    "name": "Milna",
    "nameWoDiacritics": "Milna",
    "subdivision": "",
    "status": 7,
    "function": [
      0,
      2
    ],
    "date": "0307",
    "iata": "",
    "coordinates": {
      "lat": 43.31666666666667,
      "lon": 16.45
    },
    "remarks": ""
  },
  {
    "change": "",
    "country": "HR",
    "location": "MNK",
    "name": "Misnjak",
    "nameWoDiacritics": "Misnjak",
    "subdivision": "",
    "status": 0,
    "function": [
      0,
      2
    ],
    "date": "0607",
    "iata": "",
    "coordinates": {
      "lat": 44.7,
      "lon": 14.866666666666667
    },
    "remarks": ""
  },
  {
    "change": "",
    "country": "HR",
    "location": "MHV",
    "name": "Mohovo",
    "nameWoDiacritics": "Mohovo",
    "subdivision": "",
    "status": 7,
    "function": [
      0,
      2
    ],
    "date": "0701",
    "iata": "",
    "coordinates": {
      "lat": 45.25,
      "lon": 19.216666666666665
    },
    "remarks": ""
  },
  {
    "change": "",
    "country": "HR",
    "location": "MLE",
    "name": "Molve",
    "nameWoDiacritics": "Molve",
    "subdivision": "06",
    "status": 7,
    "function": [
      2
    ],
    "date": "0901",
    "iata": "",
    "coordinates": {
      "lat": 46.11666666666667,
      "lon": 17.033333333333335
    },
    "remarks": ""
  },
  {
    "change": "",
    "country": "HR",
    "location": "MOM",
    "name": "Momjan",
    "nameWoDiacritics": "Momjan",
    "subdivision": "18",
    "status": 7,
    "function": [
      0,
      5
    ],
    "date": "1201",
    "iata": "",
    "coordinates": {
      "lat": 45.43333333333333,
      "lon": 13.7
    },
    "remarks": ""
  },
  {
    "change": "",
    "country": "HR",
    "location": "MOD",
    "name": "Moscenicka Draga",
    "nameWoDiacritics": "Moscenicka Draga",
    "subdivision": "",
    "status": 7,
    "function": [
      0,
      2
    ],
    "date": "0601",
    "iata": "",
    "coordinates": {
      "lat": 45.233333333333334,
      "lon": 14.25
    },
    "remarks": ""
  },
  {
    "change": "",
    "country": "HR",
    "location": "MVN",
    "name": "Motovun",
    "nameWoDiacritics": "Motovun",
    "subdivision": "18",
    "status": 7,
    "function": [
      2
    ],
    "date": "0407",
    "iata": "",
    "coordinates": {
      "lat": 45.333333333333336,
      "lon": 13.816666666666666
    },
    "remarks": ""
  },
  {
    "change": "",
    "country": "HR",
    "location": "MRJ",
    "name": "Muna na Zirju",
    "nameWoDiacritics": "Muna na Zirju",
    "subdivision": "",
    "status": 0,
    "function": [
      0,
      2
    ],
    "date": "0607",
    "iata": "",
    "coordinates": {
      "lat": 43.666666666666664,
      "lon": 15.666666666666666
    },
    "remarks": ""
  },
  {
    "change": "",
    "country": "HR",
    "location": "MUS",
    "name": "Mursko Sredisce",
    "nameWoDiacritics": "Mursko Sredisce",
    "subdivision": "20",
    "status": 2,
    "function": [
      2
    ],
    "date": "1901",
    "iata": "",
    "coordinates": {
      "lat": 46.5,
      "lon": 16.433333333333334
    },
    "remarks": ""
  },
  {
    "change": "",
    "country": "HR",
    "location": "MUR",
    "name": "Murter",
    "nameWoDiacritics": "Murter",
    "subdivision": "",
    "status": 7,
    "function": [
      0,
      2
    ],
    "date": "0601",
    "iata": "",
    "coordinates": {
      "lat": 43.81666666666667,
      "lon": 15.6
    },
    "remarks": ""
  },
  {
    "change": "",
    "country": "HR",
    "location": "NDN",
    "name": "Nadin",
    "nameWoDiacritics": "Nadin",
    "subdivision": "",
    "status": 7,
    "function": [
      1,
      2
    ],
    "date": "0407",
    "iata": "",
    "coordinates": {
      "lat": 44.083333333333336,
      "lon": 15.5
    },
    "remarks": ""
  },
  {
    "change": "",
    "country": "HR",
    "location": "NLE",
    "name": "Nedelise",
    "nameWoDiacritics": "Nedelise",
    "subdivision": "20",
    "status": 7,
    "function": [
      1,
      2
    ],
    "date": "0407",
    "iata": "",
    "coordinates": {
      "lat": 46.36666666666667,
      "lon": 16.383333333333333
    },
    "remarks": ""
  },
  {
    "change": "",
    "country": "HR",
    "location": "NEM",
    "name": "Nemetin",
    "nameWoDiacritics": "Nemetin",
    "subdivision": "",
    "status": 7,
    "function": [
      2
    ],
    "date": "0701",
    "iata": "",
    "coordinates": {
      "lat": 45.53333333333333,
      "lon": 18.766666666666666
    },
    "remarks": ""
  },
  {
    "change": "",
    "country": "HR",
    "location": "NRZ",
    "name": "Nerezine",
    "nameWoDiacritics": "Nerezine",
    "subdivision": "",
    "status": 0,
    "function": [
      0,
      2
    ],
    "date": "0607",
    "iata": "",
    "coordinates": {
      "lat": 44.666666666666664,
      "lon": 14.4
    },
    "remarks": ""
  },
  {
    "change": "",
    "country": "HR",
    "location": "NGR",
    "name": "Nova Gradiska",
    "nameWoDiacritics": "Nova Gradiska",
    "subdivision": "12",
    "status": 7,
    "function": [
      1,
      2
    ],
    "date": "0307",
    "iata": "",
    "coordinates": {
      "lat": 45.25,
      "lon": 17.366666666666667
    },
    "remarks": ""
  },
  {
    "change": "",
    "country": "HR",
    "location": "NKP",
    "name": "Nova Kapela",
    "nameWoDiacritics": "Nova Kapela",
    "subdivision": "11",
    "status": 7,
    "function": [
      2
    ],
    "date": "1301",
    "iata": "",
    "coordinates": {
      "lat": 45.18333333333333,
      "lon": 17.633333333333333
    },
    "remarks": ""
  },
  {
    "change": "",
    "country": "HR",
    "location": "NVV",
    "name": "Nova Vas",
    "nameWoDiacritics": "Nova Vas",
    "subdivision": "18",
    "status": 7,
    "function": [
      2
    ],
    "date": "1207",
    "iata": "",
    "coordinates": {
      "lat": 45.25,
      "lon": 13.65
    },
    "remarks": ""
  },
  {
    "change": "",
    "country": "HR",
    "location": "NOV",
    "name": "Novaglia",
    "nameWoDiacritics": "Novaglia",
    "subdivision": "13",
    "status": 9,
    "function": [
      0
    ],
    "date": "0901",
    "iata": "",
    "coordinates": {
      "lat": 44.55,
      "lon": 14.883333333333333
    },
    "remarks": ""
  },
  {
    "change": "",
    "country": "HR",
    "location": "NVL",
    "name": "Novalja",
    "nameWoDiacritics": "Novalja",
    "subdivision": "",
    "status": 7,
    "function": [
      0,
      2
    ],
    "date": "0601",
    "iata": "",
    "coordinates": {
      "lat": 44.55,
      "lon": 14.883333333333333
    },
    "remarks": ""
  },
  {
    "change": "",
    "country": "HR",
    "location": "NVM",
    "name": "Novi Marof",
    "nameWoDiacritics": "Novi Marof",
    "subdivision": "",
    "status": 7,
    "function": [
      2
    ],
    "date": "0607",
    "iata": "",
    "coordinates": {
      "lat": 46.166666666666664,
      "lon": 16.333333333333332
    },
    "remarks": ""
  },
  {
    "change": "",
    "country": "HR",
    "location": "NVS",
    "name": "Novi Varos",
    "nameWoDiacritics": "Novi Varos",
    "subdivision": "12",
    "status": 7,
    "function": [
      2
    ],
    "date": "1407",
    "iata": "",
    "coordinates": {
      "lat": 45.18333333333333,
      "lon": 17.2
    },
    "remarks": ""
  },
  {
    "change": "",
    "country": "HR",
    "location": "NVD",
    "name": "Novi Vinodolski",
    "nameWoDiacritics": "Novi Vinodolski",
    "subdivision": "",
    "status": 7,
    "function": [
      0,
      2
    ],
    "date": "0601",
    "iata": "",
    "coordinates": {
      "lat": 45.13333333333333,
      "lon": 14.783333333333333
    },
    "remarks": ""
  },
  {
    "change": "",
    "country": "HR",
    "location": "NVG",
    "name": "Novigrad",
    "nameWoDiacritics": "Novigrad",
    "subdivision": "18",
    "status": 7,
    "function": [
      0,
      2
    ],
    "date": "0307",
    "iata": "",
    "coordinates": {
      "lat": 45.3,
      "lon": 13.55
    },
    "remarks": ""
  },
  {
    "change": "",
    "country": "HR",
    "location": "NDD",
    "name": "Novigrad (Dalmacija)",
    "nameWoDiacritics": "Novigrad (Dalmacija)",
    "subdivision": "13",
    "status": 7,
    "function": [
      0
    ],
    "date": "2001",
    "iata": "",
    "coordinates": {
      "lat": 44.18333333333333,
      "lon": 15.55
    },
    "remarks": ""
  },
  {
    "change": "",
    "country": "HR",
    "location": "ONJ",
    "name": "Obonjan",
    "nameWoDiacritics": "Obonjan",
    "subdivision": "",
    "status": 0,
    "function": [
      0,
      2
    ],
    "date": "0607",
    "iata": "",
    "coordinates": {
      "lat": 43.68333333333333,
      "lon": 15.783333333333333
    },
    "remarks": ""
  },
  {
    "change": "",
    "country": "HR",
    "location": "OBR",
    "name": "Obrovac",
    "nameWoDiacritics": "Obrovac",
    "subdivision": "13",
    "status": 7,
    "function": [
      2
    ],
    "date": "0701",
    "iata": "",
    "coordinates": {
      "lat": 44.2,
      "lon": 15.666666666666666
    },
    "remarks": ""
  },
  {
    "change": "",
    "country": "HR",
    "location": "OGU",
    "name": "Ogulin",
    "nameWoDiacritics": "Ogulin",
    "subdivision": "",
    "status": 7,
    "function": [
      1,
      2
    ],
    "date": "0307",
    "iata": "",
    "coordinates": {
      "lat": 45.25,
      "lon": 15.216666666666667
    },
    "remarks": ""
  },
  {
    "change": "",
    "country": "HR",
    "location": "OMS",
    "name": "Omis",
    "nameWoDiacritics": "Omis",
    "subdivision": "",
    "status": 7,
    "function": [
      0,
      2
    ],
    "date": "0601",
    "iata": "",
    "coordinates": {
      "lat": 43.45,
      "lon": 16.7
    },
    "remarks": ""
  },
  {
    "change": "",
    "country": "HR",
    "location": "OMI",
    "name": "Omisalj",
    "nameWoDiacritics": "Omisalj",
    "subdivision": "08",
    "status": 7,
    "function": [
      0,
      2
    ],
    "date": "0307",
    "iata": "",
    "coordinates": {
      "lat": 45.21666666666667,
      "lon": 14.55
    },
    "remarks": ""
  },
  {
    "change": "",
    "country": "HR",
    "location": "OPA",
    "name": "Opatija",
    "nameWoDiacritics": "Opatija",
    "subdivision": "18",
    "status": 7,
    "function": [
      0,
      2
    ],
    "date": "0307",
    "iata": "",
    "coordinates": {
      "lat": 45.333333333333336,
      "lon": 14.3
    },
    "remarks": ""
  },
  {
    "change": "",
    "country": "HR",
    "location": "OPT",
    "name": "Opatovac",
    "nameWoDiacritics": "Opatovac",
    "subdivision": "",
    "status": 7,
    "function": [
      0,
      2
    ],
    "date": "0701",
    "iata": "",
    "coordinates": {
      "lat": 45.266666666666666,
      "lon": 19.166666666666668
    },
    "remarks": ""
  },
  {
    "change": "",
    "country": "HR",
    "location": "OVA",
    "name": "Orahovica",
    "nameWoDiacritics": "Orahovica",
    "subdivision": "10",
    "status": 7,
    "function": [
      1,
      2
    ],
    "date": "0701",
    "iata": "",
    "coordinates": {
      "lat": 45.53333333333333,
      "lon": 17.883333333333333
    },
    "remarks": ""
  },
  {
    "change": "",
    "country": "HR",
    "location": "ORB",
    "name": "Orebic",
    "nameWoDiacritics": "Orebic",
    "subdivision": "",
    "status": 0,
    "function": [
      0,
      2
    ],
    "date": "0607",
    "iata": "",
    "coordinates": {
      "lat": 42.96666666666667,
      "lon": 17.183333333333334
    },
    "remarks": ""
  },
  {
    "change": "",
    "country": "HR",
    "location": "OVC",
    "name": "Oriovac",
    "nameWoDiacritics": "Oriovac",
    "subdivision": "12",
    "status": 7,
    "function": [
      1,
      2
    ],
    "date": "0407",
    "iata": "",
    "coordinates": {
      "lat": 45.15,
      "lon": 17.75
    },
    "remarks": ""
  },
  {
    "change": "",
    "country": "HR",
    "location": "ORO",
    "name": "Oroslavje",
    "nameWoDiacritics": "Oroslavje",
    "subdivision": "02",
    "status": 7,
    "function": [
      2
    ],
    "date": "1701",
    "iata": "",
    "coordinates": {
      "lat": 46,
      "lon": 15.9
    },
    "remarks": ""
  },
  {
    "change": "",
    "country": "HR",
    "location": "OSI",
    "name": "Osijek",
    "nameWoDiacritics": "Osijek",
    "subdivision": "14",
    "status": 3,
    "function": [
      0,
      1,
      2,
      3
    ],
    "date": "0401",
    "iata": "",
    "coordinates": {
      "lat": 45.55,
      "lon": 18.683333333333334
    },
    "remarks": ""
  },
  {
    "change": "",
    "country": "HR",
    "location": "OTO",
    "name": "Oto?ac",
    "nameWoDiacritics": "Oto?ac",
    "subdivision": "",
    "status": 7,
    "function": [
      2
    ],
    "date": "0307",
    "iata": "",
    "coordinates": {
      "lat": 44.86666666666667,
      "lon": 15.233333333333333
    },
    "remarks": ""
  },
  {
    "change": "",
    "country": "HR",
    "location": "OZA",
    "name": "Ozalj",
    "nameWoDiacritics": "Ozalj",
    "subdivision": "04",
    "status": 7,
    "function": [
      2
    ],
    "date": "1301",
    "iata": "",
    "coordinates": {
      "lat": 45.6,
      "lon": 15.45
    },
    "remarks": ""
  },
  {
    "change": "",
    "country": "HR",
    "location": "PAG",
    "name": "Pag",
    "nameWoDiacritics": "Pag",
    "subdivision": "",
    "status": 7,
    "function": [
      0,
      2
    ],
    "date": "0307",
    "iata": "",
    "coordinates": {
      "lat": 44.43333333333333,
      "lon": 15.05
    },
    "remarks": ""
  },
  {
    "change": "",
    "country": "HR",
    "location": "PAK",
    "name": "Pakrac",
    "nameWoDiacritics": "Pakrac",
    "subdivision": "11",
    "status": 0,
    "function": [
      2
    ],
    "date": "2107",
    "iata": "",
    "coordinates": {
      "lat": 45.43333333333333,
      "lon": 17.183333333333334
    },
    "remarks": ""
  },
  {
    "change": "",
    "country": "HR",
    "location": "PAS",
    "name": "Pasman",
    "nameWoDiacritics": "Pasman",
    "subdivision": "13",
    "status": 9,
    "function": [
      0
    ],
    "date": "0901",
    "iata": "",
    "coordinates": {
      "lat": 43.95,
      "lon": 15.383333333333333
    },
    "remarks": ""
  },
  {
    "change": "",
    "country": "HR",
    "location": "PAZ",
    "name": "Pazin",
    "nameWoDiacritics": "Pazin",
    "subdivision": "18",
    "status": 7,
    "function": [
      1,
      2
    ],
    "date": "0307",
    "iata": "",
    "coordinates": {
      "lat": 45.233333333333334,
      "lon": 13.933333333333334
    },
    "remarks": ""
  },
  {
    "change": "",
    "country": "HR",
    "location": "PIJ",
    "name": "Petrinja",
    "nameWoDiacritics": "Petrinja",
    "subdivision": "03",
    "status": 7,
    "function": [
      1,
      2
    ],
    "date": "0401",
    "iata": "",
    "coordinates": {
      "lat": 45.43333333333333,
      "lon": 16.266666666666666
    },
    "remarks": ""
  },
  {
    "change": "",
    "country": "HR",
    "location": "PDN",
    "name": "Pijavicino",
    "nameWoDiacritics": "Pijavicino",
    "subdivision": "19",
    "status": 7,
    "function": [
      2
    ],
    "date": "1407",
    "iata": "",
    "coordinates": {
      "lat": 42.93333333333333,
      "lon": 17.333333333333332
    },
    "remarks": ""
  },
  {
    "change": "",
    "country": "HR",
    "location": "PLS",
    "name": "Plaski",
    "nameWoDiacritics": "Plaski",
    "subdivision": "04",
    "status": 2,
    "function": [
      2
    ],
    "date": "2001",
    "iata": "",
    "coordinates": {
      "lat": 45.06666666666667,
      "lon": 15.366666666666667
    },
    "remarks": ""
  },
  {
    "change": "",
    "country": "HR",
    "location": "PLE",
    "name": "Ploce",
    "nameWoDiacritics": "Ploce",
    "subdivision": "",
    "status": 7,
    "function": [
      0,
      1,
      2
    ],
    "date": "0307",
    "iata": "",
    "coordinates": {
      "lat": 43.05,
      "lon": 17.433333333333334
    },
    "remarks": ""
  },
  {
    "change": "",
    "country": "HR",
    "location": "PLM",
    "name": "Plomin",
    "nameWoDiacritics": "Plomin",
    "subdivision": "18",
    "status": 7,
    "function": [
      0,
      2
    ],
    "date": "0307",
    "iata": "",
    "coordinates": {
      "lat": 45.13333333333333,
      "lon": 14.166666666666666
    },
    "remarks": ""
  },
  {
    "change": "",
    "country": "HR",
    "location": "POD",
    "name": "Podglavica",
    "nameWoDiacritics": "Podglavica",
    "subdivision": "15",
    "status": 7,
    "function": [
      2
    ],
    "date": "1307",
    "iata": "",
    "coordinates": {
      "lat": 43.53333333333333,
      "lon": 15.983333333333333
    },
    "remarks": ""
  },
  {
    "change": "",
    "country": "HR",
    "location": "MPD",
    "name": "Podravska Moslavina",
    "nameWoDiacritics": "Podravska Moslavina",
    "subdivision": "",
    "status": 7,
    "function": [
      2
    ],
    "date": "0701",
    "iata": "",
    "coordinates": {
      "lat": 45.86666666666667,
      "lon": 17.983333333333334
    },
    "remarks": ""
  },
  {
    "change": "",
    "country": "HR",
    "location": "PLA",
    "name": "Polace",
    "nameWoDiacritics": "Polace",
    "subdivision": "",
    "status": 0,
    "function": [
      0,
      2
    ],
    "date": "0607",
    "iata": "",
    "coordinates": {
      "lat": 42.78333333333333,
      "lon": 17.383333333333333
    },
    "remarks": ""
  },
  {
    "change": "",
    "country": "HR",
    "location": "PMN",
    "name": "Pomena",
    "nameWoDiacritics": "Pomena",
    "subdivision": "",
    "status": 7,
    "function": [
      0,
      2
    ],
    "date": "0601",
    "iata": "",
    "coordinates": {
      "lat": 42.78333333333333,
      "lon": 17.35
    },
    "remarks": ""
  },
  {
    "change": "",
    "country": "HR",
    "location": "POP",
    "name": "Popovaca",
    "nameWoDiacritics": "Popovaca",
    "subdivision": "03",
    "status": 7,
    "function": [
      2
    ],
    "date": "1407",
    "iata": "",
    "coordinates": {
      "lat": 45.56666666666667,
      "lon": 16.616666666666667
    },
    "remarks": ""
  },
  {
    "change": "",
    "country": "HR",
    "location": "POR",
    "name": "Porec",
    "nameWoDiacritics": "Porec",
    "subdivision": "18",
    "status": 7,
    "function": [
      0,
      2
    ],
    "date": "0307",
    "iata": "",
    "coordinates": {
      "lat": 45.21666666666667,
      "lon": 13.583333333333334
    },
    "remarks": ""
  },
  {
    "change": "",
    "country": "HR",
    "location": "PRZ",
    "name": "Porozina",
    "nameWoDiacritics": "Porozina",
    "subdivision": "",
    "status": 0,
    "function": [
      0,
      2
    ],
    "date": "0607",
    "iata": "",
    "coordinates": {
      "lat": 45.13333333333333,
      "lon": 14.133333333333333
    },
    "remarks": ""
  },
  {
    "change": "",
    "country": "HR",
    "location": "POS",
    "name": "Postire",
    "nameWoDiacritics": "Postire",
    "subdivision": "",
    "status": 9,
    "function": [
      2
    ],
    "date": "0607",
    "iata": "",
    "coordinates": {
      "lat": 43.36666666666667,
      "lon": 16.616666666666667
    },
    "remarks": ""
  },
  {
    "change": "",
    "country": "HR",
    "location": "PTP",
    "name": "Potpican",
    "nameWoDiacritics": "Potpican",
    "subdivision": "18",
    "status": 0,
    "function": [
      2
    ],
    "date": "2101",
    "iata": "",
    "coordinates": {
      "lat": 45.2,
      "lon": 14.1
    },
    "remarks": ""
  },
  {
    "change": "",
    "country": "HR",
    "location": "PZG",
    "name": "Pozega",
    "nameWoDiacritics": "Pozega",
    "subdivision": "11",
    "status": 7,
    "function": [
      1,
      2
    ],
    "date": "0307",
    "iata": "",
    "coordinates": {
      "lat": 45.333333333333336,
      "lon": 17.683333333333334
    },
    "remarks": ""
  },
  {
    "change": "",
    "country": "HR",
    "location": "PRP",
    "name": "Prapratno",
    "nameWoDiacritics": "Prapratno",
    "subdivision": "",
    "status": 0,
    "function": [
      0,
      2
    ],
    "date": "0607",
    "iata": "",
    "coordinates": {
      "lat": 42.81666666666667,
      "lon": 17.683333333333334
    },
    "remarks": ""
  },
  {
    "change": "",
    "country": "HR",
    "location": "PGA",
    "name": "Pregrada",
    "nameWoDiacritics": "Pregrada",
    "subdivision": "02",
    "status": 7,
    "function": [
      2
    ],
    "date": "0407",
    "iata": "",
    "coordinates": {
      "lat": 46.15,
      "lon": 15.75
    },
    "remarks": ""
  },
  {
    "change": "",
    "country": "HR",
    "location": "PRE",
    "name": "Preko",
    "nameWoDiacritics": "Preko",
    "subdivision": "",
    "status": 7,
    "function": [
      0,
      2
    ],
    "date": "0307",
    "iata": "",
    "coordinates": {
      "lat": 44.083333333333336,
      "lon": 15.2
    },
    "remarks": ""
  },
  {
    "change": "",
    "country": "HR",
    "location": "HPG",
    "name": "Prelog",
    "nameWoDiacritics": "Prelog",
    "subdivision": "20",
    "status": 7,
    "function": [
      5
    ],
    "date": "0901",
    "iata": "",
    "coordinates": {
      "lat": 46.333333333333336,
      "lon": 16.6
    },
    "remarks": ""
  },
  {
    "change": "",
    "country": "HR",
    "location": "PBO",
    "name": "Prigorje Brdovecko",
    "nameWoDiacritics": "Prigorje Brdovecko",
    "subdivision": "21",
    "status": 7,
    "function": [
      2
    ],
    "date": "1501",
    "iata": "",
    "coordinates": {
      "lat": 45.86666666666667,
      "lon": 15.733333333333333
    },
    "remarks": ""
  },
  {
    "change": "",
    "country": "HR",
    "location": "PRI",
    "name": "Primosten",
    "nameWoDiacritics": "Primosten",
    "subdivision": "",
    "status": 7,
    "function": [
      0,
      2
    ],
    "date": "0601",
    "iata": "",
    "coordinates": {
      "lat": 43.583333333333336,
      "lon": 15.933333333333334
    },
    "remarks": ""
  },
  {
    "change": "",
    "country": "HR",
    "location": "PVK",
    "name": "Privlaka",
    "nameWoDiacritics": "Privlaka",
    "subdivision": "13",
    "status": 7,
    "function": [
      0
    ],
    "date": "2001",
    "iata": "",
    "coordinates": {
      "lat": 44.266666666666666,
      "lon": 15.116666666666667
    },
    "remarks": ""
  },
  {
    "change": "",
    "country": "HR",
    "location": "PRN",
    "name": "Prizna",
    "nameWoDiacritics": "Prizna",
    "subdivision": "",
    "status": 0,
    "function": [
      0,
      2
    ],
    "date": "0607",
    "iata": "",
    "coordinates": {
      "lat": 44.6,
      "lon": 14.966666666666667
    },
    "remarks": ""
  },
  {
    "change": "",
    "country": "HR",
    "location": "PRV",
    "name": "Prvic",
    "nameWoDiacritics": "Prvic",
    "subdivision": "",
    "status": 0,
    "function": [
      0,
      2
    ],
    "date": "0607",
    "iata": "",
    "coordinates": {
      "lat": 43.71666666666667,
      "lon": 15.8
    },
    "remarks": ""
  },
  {
    "change": "",
    "country": "HR",
    "location": "PRS",
    "name": "Prvic Sepurine",
    "nameWoDiacritics": "Prvic Sepurine",
    "subdivision": "",
    "status": 0,
    "function": [
      0,
      2
    ],
    "date": "0607",
    "iata": "",
    "coordinates": {
      "lat": 43.733333333333334,
      "lon": 15.783333333333333
    },
    "remarks": ""
  },
  {
    "change": "",
    "country": "HR",
    "location": "PCA",
    "name": "Pucisca",
    "nameWoDiacritics": "Pucisca",
    "subdivision": "",
    "status": 0,
    "function": [
      0,
      2
    ],
    "date": "0607",
    "iata": "",
    "coordinates": {
      "lat": 43.36666666666667,
      "lon": 16.75
    },
    "remarks": ""
  },
  {
    "change": "",
    "country": "HR",
    "location": "PUY",
    "name": "Pula",
    "nameWoDiacritics": "Pula",
    "subdivision": "18",
    "status": 3,
    "function": [
      0,
      1,
      2,
      3
    ],
    "date": "0401",
    "iata": "",
    "coordinates": {
      "lat": 44.86666666666667,
      "lon": 13.833333333333334
    },
    "remarks": ""
  },
  {
    "change": "",
    "country": "HR",
    "location": "PNT",
    "name": "Punat",
    "nameWoDiacritics": "Punat",
    "subdivision": "",
    "status": 7,
    "function": [
      0,
      2
    ],
    "date": "0601",
    "iata": "",
    "coordinates": {
      "lat": 45.016666666666666,
      "lon": 14.633333333333333
    },
    "remarks": ""
  },
  {
    "change": "",
    "country": "HR",
    "location": "RAB",
    "name": "Rab",
    "nameWoDiacritics": "Rab",
    "subdivision": "",
    "status": 7,
    "function": [
      0,
      2
    ],
    "date": "0307",
    "iata": "",
    "coordinates": {
      "lat": 44.75,
      "lon": 14.75
    },
    "remarks": ""
  },
  {
    "change": "",
    "country": "HR",
    "location": "RBC",
    "name": "Rabac",
    "nameWoDiacritics": "Rabac",
    "subdivision": "",
    "status": 7,
    "function": [
      0,
      2
    ],
    "date": "0601",
    "iata": "",
    "coordinates": {
      "lat": 45.083333333333336,
      "lon": 14.166666666666666
    },
    "remarks": ""
  },
  {
    "change": "",
    "country": "HR",
    "location": "RAS",
    "name": "Rasa",
    "nameWoDiacritics": "Rasa",
    "subdivision": "18",
    "status": 7,
    "function": [
      0,
      1,
      2
    ],
    "date": "0401",
    "iata": "",
    "coordinates": {
      "lat": 45.06666666666667,
      "lon": 14.066666666666666
    },
    "remarks": ""
  },
  {
    "change": "",
    "country": "HR",
    "location": "RSA",
    "name": "Rasinja",
    "nameWoDiacritics": "Rasinja",
    "subdivision": "06",
    "status": 7,
    "function": [
      1,
      2
    ],
    "date": "0701",
    "iata": "",
    "coordinates": {
      "lat": 46.18333333333333,
      "lon": 16.7
    },
    "remarks": ""
  },
  {
    "change": "",
    "country": "HR",
    "location": "RGO",
    "name": "Ravna Gora",
    "nameWoDiacritics": "Ravna Gora",
    "subdivision": "08",
    "status": 7,
    "function": [
      1,
      2
    ],
    "date": "0407",
    "iata": "",
    "coordinates": {
      "lat": 45.36666666666667,
      "lon": 14.933333333333334
    },
    "remarks": ""
  },
  {
    "change": "",
    "country": "HR",
    "location": "RJK",
    "name": "Rijeka",
    "nameWoDiacritics": "Rijeka",
    "subdivision": "08",
    "status": 3,
    "function": [
      0,
      1,
      2,
      3
    ],
    "date": "0307",
    "iata": "",
    "coordinates": {
      "lat": 45.333333333333336,
      "lon": 14.4
    },
    "remarks": ""
  },
  {
    "change": "",
    "country": "HR",
    "location": "XXX",
    "name": "RIS Inland waterways",
    "nameWoDiacritics": "RIS Inland waterways",
    "subdivision": "",
    "status": 3,
    "function": [
      0
    ],
    "date": "1101",
    "iata": "",
    "coordinates": null,
    "remarks": ""
  },
  {
    "change": "",
    "country": "HR",
    "location": "RGC",
    "name": "Rogac",
    "nameWoDiacritics": "Rogac",
    "subdivision": "",
    "status": 7,
    "function": [
      0,
      2
    ],
    "date": "0601",
    "iata": "",
    "coordinates": {
      "lat": 43.4,
      "lon": 16.3
    },
    "remarks": ""
  },
  {
    "change": "",
    "country": "HR",
    "location": "ROG",
    "name": "Rogotin",
    "nameWoDiacritics": "Rogotin",
    "subdivision": "",
    "status": 7,
    "function": [
      1,
      2
    ],
    "date": "0307",
    "iata": "",
    "coordinates": {
      "lat": 43.03333333333333,
      "lon": 17.466666666666665
    },
    "remarks": ""
  },
  {
    "change": "",
    "country": "HR",
    "location": "RGN",
    "name": "Rogoznica",
    "nameWoDiacritics": "Rogoznica",
    "subdivision": "",
    "status": 7,
    "function": [
      0,
      2
    ],
    "date": "0601",
    "iata": "",
    "coordinates": {
      "lat": 43.53333333333333,
      "lon": 15.966666666666667
    },
    "remarks": ""
  },
  {
    "change": "",
    "country": "HR",
    "location": "ROV",
    "name": "Rovinj",
    "nameWoDiacritics": "Rovinj",
    "subdivision": "18",
    "status": 7,
    "function": [
      0,
      2
    ],
    "date": "0401",
    "iata": "",
    "coordinates": {
      "lat": 45.083333333333336,
      "lon": 13.633333333333333
    },
    "remarks": ""
  },
  {
    "change": "",
    "country": "HR",
    "location": "RVC",
    "name": "Rugvica",
    "nameWoDiacritics": "Rugvica",
    "subdivision": "",
    "status": 7,
    "function": [
      0,
      5
    ],
    "date": "1201",
    "iata": "",
    "coordinates": {
      "lat": 45.733333333333334,
      "lon": 16.233333333333334
    },
    "remarks": ""
  },
  {
    "change": "",
    "country": "HR",
    "location": "RUP",
    "name": "Rupa",
    "nameWoDiacritics": "Rupa",
    "subdivision": "08",
    "status": 9,
    "function": [
      2
    ],
    "date": "0907",
    "iata": "",
    "coordinates": {
      "lat": 45.8,
      "lon": 14.466666666666667
    },
    "remarks": ""
  },
  {
    "change": "",
    "country": "HR",
    "location": "SAL",
    "name": "Sali",
    "nameWoDiacritics": "Sali",
    "subdivision": "",
    "status": 7,
    "function": [
      0,
      2
    ],
    "date": "0601",
    "iata": "",
    "coordinates": {
      "lat": 43.93333333333333,
      "lon": 15.166666666666666
    },
    "remarks": ""
  },
  {
    "change": "",
    "country": "HR",
    "location": "SMB",
    "name": "Samobor",
    "nameWoDiacritics": "Samobor",
    "subdivision": "01",
    "status": 7,
    "function": [
      2
    ],
    "date": "1301",
    "iata": "",
    "coordinates": {
      "lat": 45.8,
      "lon": 15.716666666666667
    },
    "remarks": ""
  },
  {
    "change": "",
    "country": "HR",
    "location": "SRG",
    "name": "Sarengrad",
    "nameWoDiacritics": "Sarengrad",
    "subdivision": "",
    "status": 7,
    "function": [
      0,
      2
    ],
    "date": "0701",
    "iata": "",
    "coordinates": {
      "lat": 45.233333333333334,
      "lon": 19.283333333333335
    },
    "remarks": ""
  },
  {
    "change": "",
    "country": "HR",
    "location": "SDA",
    "name": "Satnica Dakovac?ka",
    "nameWoDiacritics": "Satnica Dakovac?ka",
    "subdivision": "",
    "status": 7,
    "function": [
      2
    ],
    "date": "0407",
    "iata": "",
    "coordinates": {
      "lat": 45.35,
      "lon": 18.366666666666667
    },
    "remarks": ""
  },