[
  {
    "country": "HT",
    "name": ".HAITI",
    "function": [],
    "coordinates": {
      "lat": 0,
      "lon": 0
    }
  },
  {
    "country": "HT",
    "location": "SMC",
    "name": "Baie de Saint-Marc",
    "nameWoDiacritics": "Baie de Saint-Marc",
    "subdivision": "AR",
    "status": "RL",
    "function": [
      0
    ],
    "date": 1307,
    "coordinates": {
      "lat": 19.116666666666667,
      "lon": 7.4
    }
  },
  {
    "country": "HT",
    "location": "CAP",
    "name": "Cap-HaÔtien",
    "nameWoDiacritics": "Cap-Haitien",
    "status": "AI",
    "function": [
      0,
      3
    ],
    "date": 212,
    "coordinates": {
      "lat": 19.75,
      "lon": 7.35
    }
  },
  {
    "country": "HT",
    "location": "CRC",
    "name": "Caracol",
    "nameWoDiacritics": "Caracol",
    "status": "RL",
    "function": [
      0,
      2,
      5
    ],
    "date": 607,
    "coordinates": {
      "lat": 19.683333333333334,
      "lon": 7.333333333333333
    }
  },
  {
    "country": "HT",
    "location": "OOU",
    "name": "Carrefour",
    "nameWoDiacritics": "Carrefour",
    "subdivision": "OU",
    "status": "RL",
    "function": [
      2
    ],
    "date": 1307,
    "coordinates": {
      "lat": 18.533333333333335,
      "lon": 7.366666666666666
    }
  },
  {
    "country": "HT",
    "location": "CDB",
    "name": "Croix des Bouquets",
    "nameWoDiacritics": "Croix des Bouquets",
    "subdivision": "OU",
    "status": "RL",
    "function": [
      2
    ],
    "date": 1501,
    "coordinates": {
      "lat": 18.566666666666666,
      "lon": 7.35
    }
  },
  {
    "country": "HT",
    "location": "FOM",
    "name": "Fond Mombin",
    "nameWoDiacritics": "Fond Mombin",
    "subdivision": "OU",
    "status": "RQ",
    "function": [
      0
    ],
    "date": 1307,
    "coordinates": {
      "lat": 0,
      "lon": 0
    }
  },
  {
    "country": "HT",
    "location": "FDB",
    "name": "Fond-des-Blancs",
    "nameWoDiacritics": "Fond-des-Blancs",
    "subdivision": "SD",
    "status": "RL",
    "function": [
      2
    ],
    "date": 1801,
    "coordinates": {
      "lat": 18.283333333333335,
      "lon": 7.5
    }
  },
  {
    "country": "HT",
    "location": "FLI",
    "name": "Fort Liberte",
    "nameWoDiacritics": "Fort Liberte",
    "subdivision": "NE",
    "status": "QQ",
    "function": [
      0
    ],
    "date": 1307,
    "coordinates": {
      "lat": 0,
      "lon": 0
    }
  },
  {
    "country": "HT",
    "location": "GVS",
    "name": "GonaÔves",
    "nameWoDiacritics": "Gonaives",
    "subdivision": "AR",
    "status": "AI",
    "function": [
      0
    ],
    "date": 1307,
    "coordinates": {
      "lat": 0,
      "lon": 0
    }
  },
  {
    "country": "HT",
    "location": "HI5",
    "name": "Hincha",
    "nameWoDiacritics": "Hincha",
    "subdivision": "CE",
    "status": "RL",
    "function": [
      2
    ],
    "date": 1601,
    "coordinates": {
      "lat": 19.15,
      "lon": 7.333333333333333
    }
  },
  {
    "country": "HT",
    "location": "JAK",
    "name": "Jacmel",
    "nameWoDiacritics": "Jacmel",
    "subdivision": "SE",
    "status": "RQ",
    "function": [
      0,
      3
    ],
    "date": 1307,
    "coordinates": {
      "lat": 0,
      "lon": 0
    }
  },
  {
    "country": "HT",
    "location": "JEE",
    "name": "JÈrÈmie",
    "nameWoDiacritics": "Jeremie",
    "subdivision": "GA",
    "status": "AI",
    "function": [
      0,
      3
    ],
    "date": 1307,
    "coordinates": {
      "lat": 0,
      "lon": 0
    }
  },
  {
    "country": "HT",
    "location": "LAB",
    "name": "Labadie",
    "nameWoDiacritics": "Labadie",
    "subdivision": "AR",
    "status": "RL",
    "function": [
      2
    ],
    "date": 901,
    "coordinates": {
      "lat": 19.516666666666666,
      "lon": 7.366666666666666
    }
  },
  {
    "country": "HT",
    "location": "LFF",
    "name": "Lafiteau",
    "nameWoDiacritics": "Lafiteau",
    "subdivision": "OU",
    "status": "AI",
    "function": [
      0,
      2
    ],
    "date": 2101,
    "coordinates": {
      "lat": 18.683333333333334,
      "lon": 7.366666666666666
    }
  },
  {
    "country": "HT",
    "location": "PLH",
    "name": "Lafito Port",
    "nameWoDiacritics": "Lafito Port",
    "subdivision": "OU",
    "status": "RL",
    "function": [
      0
    ],
    "date": 1801,
    "coordinates": {
      "lat": 18.683333333333334,
      "lon": 7.366666666666666
    }
  },
  {
    "country": "HT",
    "location": "LEO",
    "name": "Leogane",
    "nameWoDiacritics": "Leogane",
    "subdivision": "OU",
    "status": "RQ",
    "function": [
      5
    ],
    "date": 1001,
    "coordinates": {
      "lat": 18.5,
      "lon": 7.383333333333334
    }
  },
  {
    "country": "HT",
    "location": "ACA",
    "name": "Les Cayes",
    "nameWoDiacritics": "Les Cayes",
    "subdivision": "SD",
    "status": "AI",
    "function": [
      0
    ],
    "date": 1307,
    "coordinates": {
      "lat": 0,
      "lon": 0
    }
  },
  {
    "country": "HT",
    "location": "MAR",
    "name": "Martinique",
    "nameWoDiacritics": "Martinique",
    "subdivision": "ND",
    "status": "RL",
    "function": [
      2
    ],
    "date": 1401,
    "coordinates": {
      "lat": 19.816666666666666,
      "lon": 7.383333333333334
    }
  },
  {
    "country": "HT",
    "location": "MIR",
    "name": "Miragoane",
    "nameWoDiacritics": "Miragoane",
    "subdivision": "NI",
    "status": "QQ",
    "function": [
      0
    ],
    "date": 1307,
    "coordinates": {
      "lat": 0,
      "lon": 0
    }
  },
  {
    "country": "HT",
    "location": "PET",
    "name": "PÈtion-Ville",
    "nameWoDiacritics": "Petion-Ville",
    "subdivision": "NE",
    "status": "RL",
    "function": [
      2
    ],
    "date": 1801,
    "coordinates": {
      "lat": 18.516666666666666,
      "lon": 7.35
    }
  },
  {
    "country": "HT",
    "location": "PEG",
    "name": "Petit Go‚ve",
    "nameWoDiacritics": "Petit Goave",
    "subdivision": "OU",
    "status": "RL",
    "function": [
      0
    ],
    "date": 1307,
    "coordinates": {
      "lat": 18.433333333333334,
      "lon": 7.416666666666667
    }
  },
  {
    "country": "HT",
    "location": "PDP",
    "name": "Port de Paix",
    "nameWoDiacritics": "Port de Paix",
    "subdivision": "NO",
    "status": "RQ",
    "function": [
      2
    ],
    "date": 1307,
    "coordinates": {
      "lat": 0,
      "lon": 0
    }
  },
  {
    "country": "HT",
    "location": "PAP",
    "name": "Port-au-Prince",
    "nameWoDiacritics": "Port-au-Prince",
    "subdivision": "OU",
    "status": "AI",
    "function": [
      0,
      3,
      4
    ],
    "date": 1307,
    "coordinates": {
      "lat": 0,
      "lon": 0
    }
  },
  {
    "country": "HT",
    "location": "PTY",
    "name": "Poty",
    "nameWoDiacritics": "Poty",
    "subdivision": "SD",
    "status": "RL",
    "function": [
      2
    ],
    "date": 1307,
    "coordinates": {
      "lat": 18.333333333333332,
      "lon": 7.666666666666667
    }
  },
  {
    "country": "HT",
    "location": "STO",
    "name": "Santo",
    "nameWoDiacritics": "Santo",
    "subdivision": "OU",
    "status": "RL",
    "function": [
      5
    ],
    "date": 1001,
    "coordinates": {
      "lat": 18.483333333333334,
      "lon": 7.366666666666666
    }
  },
  {
    "country": "HT",
    "location": "TAB",
    "name": "Tabarre",
    "nameWoDiacritics": "Tabarre",
    "subdivision": "OU",
    "status": "RL",
    "function": [
      2
    ],
    "date": 901,
    "coordinates": {
      "lat": 18.583333333333332,
      "lon": 7.35
    }
  },
  {
    "country": "HT",
    "location": "TTY",
    "name": "Ti Tanyin",
    "nameWoDiacritics": "Ti Tanyin",
    "subdivision": "OU",
    "status": "RL",
    "function": [
      2
    ],
    "date": 1101,
    "coordinates": {
      "lat": 18.716666666666665,
      "lon": 7.366666666666666
    }
  },
  {
    "country": "HT",
    "location": "TRG",
    "name": "Turgeau",
    "nameWoDiacritics": "Turgeau",
    "subdivision": "OU",
    "status": "RQ",
    "function": [
      5
    ],
    "date": 1001,
    "coordinates": {
      "lat": 18.533333333333335,
      "lon": 7.35
    }
  }
]