[
  {
    "country": "HU",
    "name": ".HUNGARY",
    "status": null,
    "function": [],
    "coordinates": {
      "lat": 0,
      "lon": 0
    }
  },
  {
    "country": "HU",
    "location": "ABA",
    "name": "Aba",
    "nameWoDiacritics": "Aba",
    "subdivision": "FE",
    "status": 9,
    "function": [
      2
    ],
    "date": 1001,
    "coordinates": {
      "lat": 47.03333333333333,
      "lon": 18.516666666666666
    }
  },
  {
    "country": "HU",
    "location": "ABK",
    "name": "Abadszalok",
    "nameWoDiacritics": "Abadszalok",
    "subdivision": "JN",
    "status": 9,
    "function": [
      5
    ],
    "date": 1001,
    "coordinates": {
      "lat": 47.46666666666667,
      "lon": 20.616666666666667
    }
  },
  {
    "country": "HU",
    "location": "ABB",
    "name": "Abas·r",
    "nameWoDiacritics": "Abasar",
    "subdivision": "HE",
    "status": 7,
    "function": [
      2
    ],
    "date": 1601,
    "coordinates": {
      "lat": 47.8,
      "lon": 20
    }
  },
  {
    "country": "HU",
    "location": "HAM",
    "name": "Aba˙jsz·ntÛ",
    "nameWoDiacritics": "Abaujszanto",
    "subdivision": "BZ",
    "status": 7,
    "function": [
      5
    ],
    "date": 901,
    "coordinates": {
      "lat": 48.28333333333333,
      "lon": 21.2
    }
  },
  {
    "country": "HU",
    "location": "GSA",
    "name": "Abda",
    "nameWoDiacritics": "Abda",
    "subdivision": "GS",
    "status": 9,
    "function": [
      5
    ],
    "date": 1007,
    "coordinates": {
      "lat": 47.7,
      "lon": 173.5
    }
  },
  {
    "country": "HU",
    "location": "ABD",
    "name": "Abod",
    "nameWoDiacritics": "Abod",
    "subdivision": "BZ",
    "status": 7,
    "function": [
      2
    ],
    "date": 1301,
    "coordinates": {
      "lat": 48.38333333333333,
      "lon": 20.783333333333335
    }
  },
  {
    "country": "HU",
    "location": "ABO",
    "name": "Abony",
    "nameWoDiacritics": "Abony",
    "subdivision": "PE",
    "status": 7,
    "function": [
      1
    ],
    "date": 207,
    "coordinates": {
      "lat": 47.18333333333333,
      "lon": 20
    }
  },
  {
    "country": "HU",
    "location": "HAY",
    "name": "Acs",
    "nameWoDiacritics": "Acs",
    "subdivision": "KE",
    "status": 7,
    "function": [
      5
    ],
    "date": 901,
    "coordinates": {
      "lat": 47.7,
      "lon": 18.016666666666666
    }
  },
  {
    "country": "HU",
    "location": "ADY",
    "name": "Adony",
    "nameWoDiacritics": "Adony",
    "subdivision": "FE",
    "status": 7,
    "function": [
      0,
      1,
      2
    ],
    "date": 212,
    "coordinates": {
      "lat": 47.11666666666667,
      "lon": 18.866666666666667
    }
  },
  {
    "country": "HU",
    "location": "AGE",
    "name": "Agerdomajor",
    "nameWoDiacritics": "Agerdomajor",
    "status": 12,
    "function": [
      1
    ],
    "date": 8202,
    "coordinates": {
      "lat": 0,
      "lon": 0
    }
  },
  {
    "country": "HU",
    "location": "AGF",
    "name": "Agfalva",
    "nameWoDiacritics": "Agfalva",
    "status": 7,
    "function": [
      1
    ],
    "date": 212,
    "coordinates": {
      "lat": 47.68333333333333,
      "lon": 16.516666666666666
    }
  },
  {
    "country": "HU",
    "location": "AGG",
    "name": "Aggtelek",
    "nameWoDiacritics": "Aggtelek",
    "status": 12,
    "function": [
      2
    ],
    "date": 8202,
    "coordinates": {
      "lat": 0,
      "lon": 0
    }
  },
  {
    "country": "HU",
    "location": "AJK",
    "name": "Ajka",
    "nameWoDiacritics": "Ajka",
    "status": 7,
    "function": [
      1,
      2
    ],
    "date": 601,
    "coordinates": {
      "lat": 47.1,
      "lon": 17.566666666666666
    }
  },
  {
    "country": "HU",
    "location": "ATO",
    "name": "AkasztÛ",
    "nameWoDiacritics": "Akaszto",
    "subdivision": "BK",
    "status": 7,
    "function": [
      2
    ],
    "date": 701,
    "coordinates": {
      "lat": 46.68333333333333,
      "lon": 19.2
    }
  },
  {
    "country": "HU",
    "location": "ALA",
    "name": "Alatty·n",
    "nameWoDiacritics": "Alattyan",
    "subdivision": "JN",
    "status": 7,
    "function": [
      2,
      5
    ],
    "date": 501,
    "coordinates": {
      "lat": 47.43333333333333,
      "lon": 20.05
    }
  },
  {
    "country": "HU",
    "location": "ALB",
    "name": "Albertirsa",
    "nameWoDiacritics": "Albertirsa",
    "subdivision": "PE",
    "status": 7,
    "function": [
      1
    ],
    "date": 207,
    "coordinates": {
      "lat": 47.233333333333334,
      "lon": 19.6
    }
  },
  {
    "country": "HU",
    "location": "ALG",
    "name": "Algyo",
    "nameWoDiacritics": "Algyo",
    "subdivision": "CS",
    "status": 9,
    "function": [
      2
    ],
    "date": 901,
    "coordinates": {
      "lat": 0,
      "lon": 0
    }
  },
  {
    "country": "HU",
    "location": "AFU",
    "name": "Alm·sf¸zitÛ",
    "nameWoDiacritics": "Almasfuzito",
    "subdivision": "KE",
    "status": 7,
    "function": [
      0,
      1,
      2
    ],
    "date": 212,
    "coordinates": {
      "lat": 47.7,
      "lon": 18.266666666666666
    }
  },
  {
    "country": "HU",
    "location": "AMS",
    "name": "Alsomocsolad",
    "nameWoDiacritics": "Alsomocsolad",
    "subdivision": "BA",
    "status": 7,
    "function": [
      2
    ],
    "date": 1301,
    "coordinates": {
      "lat": 46.31666666666667,
      "lon": 18.25
    }
  },
  {
    "country": "HU",
    "location": "SNM",
    "name": "AlsÛnÈmedi",
    "nameWoDiacritics": "Alsonemedi",
    "subdivision": "PE",
    "status": 7,
    "function": [
      2
    ],
    "date": 907,
    "coordinates": {
      "lat": 47.31666666666667,
      "lon": 19.183333333333334
    }
  },
  {
    "country": "HU",
    "location": "ALS",
    "name": "AlsÛˆrs",
    "nameWoDiacritics": "Alsoors",
    "status": 7,
    "function": [
      0,
      1,
      2
    ],
    "date": 601,
    "coordinates": {
      "lat": 46.983333333333334,
      "lon": 17.983333333333334
    }
  },
  {
    "country": "HU",
    "location": "ASZ",
    "name": "Alsozsolca",
    "nameWoDiacritics": "Alsozsolca",
    "subdivision": "BZ",
    "status": 7,
    "function": [
      0,
      2
    ],
    "date": 1401,
    "coordinates": {
      "lat": 48.06666666666667,
      "lon": 20.883333333333333
    }
  },
  {
    "country": "HU",
    "location": "ANA",
    "name": "Anarcs",
    "nameWoDiacritics": "Anarcs",
    "subdivision": "SZ",
    "status": 7,
    "function": [
      2
    ],
    "date": 1501,
    "coordinates": {
      "lat": 48.166666666666664,
      "lon": 22.1
    }
  },
  {
    "country": "HU",
    "location": "AND",
    "name": "Andocs",
    "nameWoDiacritics": "Andocs",
    "subdivision": "SO",
    "status": 9,
    "function": [
      2
    ],
    "date": 1007,
    "coordinates": {
      "lat": 47.06666666666667,
      "lon": 179.33333333333334
    }
  },
  {
    "country": "HU",
    "location": "AKT",
    "name": "Andornakt·lya",
    "nameWoDiacritics": "Andornaktalya",
    "status": 7,
    "function": [
      0,
      1,
      2
    ],
    "date": 601,
    "coordinates": {
      "lat": 47.833333333333336,
      "lon": 20.416666666666668
    }
  },
  {
    "country": "HU",
    "location": "ADF",
    "name": "Andr·sfa",
    "nameWoDiacritics": "Andrasfa",
    "subdivision": "VA",
    "status": 7,
    "function": [
      2
    ],
    "date": 1301,
    "coordinates": {
      "lat": 46.95,
      "lon": 16.783333333333335
    }
  },
  {
    "country": "HU",
    "location": "A8Y",
    "name": "Annavolgy",
    "nameWoDiacritics": "Annavolgy",
    "subdivision": "KE",
    "status": 7,
    "function": [
      2
    ],
    "date": 1501,
    "coordinates": {
      "lat": 47.7,
      "lon": 18.666666666666668
    }
  },
  {
    "country": "HU",
    "location": "APO",
    "name": "¡porka",
    "nameWoDiacritics": "Aporka",
    "subdivision": "PE",
    "status": 7,
    "function": [
      2
    ],
    "date": 1301,
    "coordinates": {
      "lat": 47.233333333333334,
      "lon": 19.016666666666666
    }
  },
  {
    "country": "HU",
    "location": "APG",
    "name": "Apostag",
    "nameWoDiacritics": "Apostag",
    "status": 9,
    "function": [
      2
    ],
    "date": 101,
    "coordinates": {
      "lat": 0,
      "lon": 0
    }
  },
  {
    "country": "HU",
    "location": "ART",
    "name": "Art·nd",
    "nameWoDiacritics": "Artand",
    "status": 7,
    "function": [
      2
    ],
    "date": 212,
    "coordinates": {
      "lat": 47.11666666666667,
      "lon": 21.766666666666666
    }
  },
  {
    "country": "HU",
    "location": "ZAR",
    "name": "Aszar",
    "nameWoDiacritics": "Aszar",
    "subdivision": "BK",
    "status": 9,
    "function": [
      0
    ],
    "date": 901,
    "coordinates": {
      "lat": 0,
      "lon": 0
    }
  },
  {
    "country": "HU",
    "location": "AZD",
    "name": "AszÛd",
    "nameWoDiacritics": "Aszod",
    "subdivision": "PE",
    "status": 7,
    "function": [
      2
    ],
    "date": 901,
    "coordinates": {
      "lat": 47.65,
      "lon": 19.5
    }
  },
  {
    "country": "HU",
    "location": "BAB",
    "name": "B·bolna",
    "nameWoDiacritics": "Babolna",
    "subdivision": "KE",
    "status": 7,
    "function": [
      2
    ],
    "date": 212,
    "coordinates": {
      "lat": 47.63333333333333,
      "lon": 17.966666666666665
    }
  },
  {
    "country": "HU",
    "location": "BCS",
    "name": "B·csalm·s",
    "nameWoDiacritics": "Bacsalmas",
    "subdivision": "BK",
    "status": 7,
    "function": [
      2
    ],
    "date": 1601,
    "coordinates": {
      "lat": 46.11666666666667,
      "lon": 19.333333333333332
    }
  },
  {
    "country": "HU",
    "location": "BAC",
    "name": "B·csbokod",
    "nameWoDiacritics": "Bacsbokod",
    "subdivision": "BK",
    "status": 7,
    "function": [
      2
    ],
    "date": 901,
    "coordinates": {
      "lat": 46.11666666666667,
      "lon": 19.166666666666668
    }
  },
  {
    "country": "HU",
    "location": "BRS",
    "name": "Badacsonyˆrs",
    "nameWoDiacritics": "Badacsonyors",
    "subdivision": "VE",
    "status": 7,
    "function": [
      0,
      5
    ],
    "date": 901,
    "coordinates": {
      "lat": 46.8,
      "lon": 17.533333333333335
    }
  },
  {
    "country": "HU",
    "location": "BGO",
    "name": "Bagod",
    "nameWoDiacritics": "Bagod",
    "subdivision": "ZA",
    "status": 7,
    "function": [
      1,
      2,
      5
    ],
    "date": 507,
    "coordinates": {
      "lat": 46.86666666666667,
      "lon": 16.733333333333334
    }
  },
  {
    "country": "HU",
    "location": "KZB",
    "name": "Baj",
    "nameWoDiacritics": "Baj",
    "subdivision": "KE",
    "status": 7,
    "function": [
      2
    ],
    "date": 901,
    "coordinates": {
      "lat": 47.65,
      "lon": 18.366666666666667
    }
  },
  {
    "country": "HU",
    "location": "BAA",
    "name": "Baja",
    "nameWoDiacritics": "Baja",
    "subdivision": "BK",
    "status": 7,
    "function": [
      1,
      2
    ],
    "date": 307,
    "coordinates": {
      "lat": 46.18333333333333,
      "lon": 18.966666666666665
    }
  },
  {
    "country": "HU",
    "location": "BAJ",
    "name": "Baj·nsenye",
    "nameWoDiacritics": "Bajansenye",
    "status": 7,
    "function": [
      2
    ],
    "date": 212,
    "coordinates": {
      "lat": 46.8,
      "lon": 16.383333333333333
    }
  },
  {
    "country": "HU",
    "location": "BJA",
    "name": "Bajna",
    "nameWoDiacritics": "Bajna",
    "subdivision": "KE",
    "status": 7,
    "function": [
      2
    ],
    "date": 1801,
    "coordinates": {
      "lat": 47.65,
      "lon": 18.6
    }
  },
  {
    "country": "HU",
    "location": "BAO",
    "name": "Bajot",
    "nameWoDiacritics": "Bajot",
    "subdivision": "KE",
    "status": 9,
    "function": [
      2
    ],
    "date": 1007,
    "coordinates": {
      "lat": 48.2,
      "lon": 18.916666666666668
    }
  },
  {
    "country": "HU",
    "location": "BAK",
    "name": "Bakonys·rk·ny",
    "nameWoDiacritics": "Bakonysarkany",
    "subdivision": "KE",
    "status": 7,
    "function": [
      2
    ],
    "date": 1601,
    "coordinates": {
      "lat": 47.45,
      "lon": 18.1
    }
  },
  {
    "country": "HU",
    "location": "BAL",
    "name": "Balassagyarmat",
    "nameWoDiacritics": "Balassagyarmat",
    "status": 12,
    "function": [
      2
    ],
    "date": 8202,
    "coordinates": {
      "lat": 0,
      "lon": 0
    }
  },
  {
    "country": "HU",
    "location": "BTN",
    "name": "Balaton",
    "nameWoDiacritics": "Balaton",
    "subdivision": "HE",
    "status": 9,
    "function": [
      2
    ],
    "date": 907,
    "coordinates": {
      "lat": 48.1,
      "lon": 20.316666666666666
    }
  },
  {
    "country": "HU",
    "location": "BAD",
    "name": "Balatonalmadi",
    "nameWoDiacritics": "Balatonalmadi",
    "subdivision": "VE",
    "status": 7,
    "function": [
      2
    ],
    "date": 1301,
    "coordinates": {
      "lat": 47.03333333333333,
      "lon": 18.016666666666666
    }
  },
  {
    "country": "HU",
    "location": "BLT",
    "name": "Balatonbogl·r",
    "nameWoDiacritics": "Balatonboglar",
    "status": 7,
    "function": [
      2
    ],
    "date": 212,
    "coordinates": {
      "lat": 46.766666666666666,
      "lon": 17.666666666666668
    }
  },
  {
    "country": "HU",
    "location": "BUO",
    "name": "Balatonfuzfo",
    "nameWoDiacritics": "Balatonfuzfo",
    "subdivision": "VE",
    "status": 7,
    "function": [
      5
    ],
    "date": 1107,
    "coordinates": {
      "lat": 47.06666666666667,
      "lon": 18.05
    }
  },
  {
    "country": "HU",
    "location": "BLA",
    "name": "Balatonf?zf?",
    "nameWoDiacritics": "Balatonf?zf?",
    "subdivision": "VE",
    "status": 7,
    "function": [
      2
    ],
    "date": 901,
    "coordinates": {
      "lat": 47.06666666666667,
      "lon": 18.05
    }
  },
  {
    "country": "HU",
    "location": "BAE",
    "name": "Balatonlelle",
    "nameWoDiacritics": "Balatonlelle",
    "subdivision": "SO",
    "status": 9,
    "function": [
      2
    ],
    "date": 1001,
    "coordinates": {
      "lat": 46.78333333333333,
      "lon": 17.683333333333334
    }
  },
  {
    "country": "HU",
    "location": "BZD",
    "name": "Balatonoszˆd",
    "nameWoDiacritics": "Balatonoszod",
    "subdivision": "SO",
    "status": 7,
    "function": [
      2
    ],
    "date": 1601,
    "coordinates": {
      "lat": 46.8,
      "lon": 17.8
    }
  },
  {
    "country": "HU",
    "location": "BZO",
    "name": "Balatonsz·rszÛ",
    "nameWoDiacritics": "Balatonszarszo",
    "subdivision": "SO",
    "status": 7,
    "function": [
      0,
      5
    ],
    "date": 1201,
    "coordinates": {
      "lat": 46.833333333333336,
      "lon": 17.833333333333332
    }
  },
  {
    "country": "HU",
    "location": "BLF",
    "name": "Balf",
    "nameWoDiacritics": "Balf",
    "subdivision": "SN",
    "status": 7,
    "function": [
      2
    ],
    "date": 1601,
    "coordinates": {
      "lat": 47.65,
      "lon": 16.666666666666668
    }
  },
  {
    "country": "HU",
    "location": "BZS",
    "name": "Balmaz˙jv·ros",
    "nameWoDiacritics": "Balmazujvaros",
    "subdivision": "HB",
    "status": 7,
    "function": [
      2
    ],
    "date": 701,
    "coordinates": {
      "lat": 47.6,
      "lon": 21.333333333333332
    }
  },
  {
    "country": "HU",
    "location": "BND",
    "name": "Bank",
    "nameWoDiacritics": "Bank",
    "subdivision": "NO",
    "status": 7,
    "function": [
      2
    ],
    "date": 1207,
    "coordinates": {
      "lat": 47.93333333333333,
      "lon": 19.183333333333334
    }
  },
  {
    "country": "HU",
    "location": "BAN",
    "name": "B·nrÈve",
    "nameWoDiacritics": "Banreve",
    "status": 7,
    "function": [
      2
    ],
    "date": 212,
    "coordinates": {
      "lat": 48.3,
      "lon": 20.366666666666667
    }
  },
  {
    "country": "HU",
    "location": "QW2",
    "name": "Baracska",
    "nameWoDiacritics": "Baracska",
    "subdivision": "FE",
    "status": 7,
    "function": [
      2
    ],
    "date": 1501,
    "coordinates": {
      "lat": 47.28333333333333,
      "lon": 18.766666666666666
    }
  },
  {
    "country": "HU",
    "location": "HAQ",
    "name": "Barand",
    "nameWoDiacritics": "Barand",
    "subdivision": "HB",
    "status": 7,
    "function": [
      5
    ],
    "date": 901,
    "coordinates": {
      "lat": 47.3,
      "lon": 21.233333333333334
    }
  },
  {
    "country": "HU",
    "location": "HAN",
    "name": "Barcs",
    "nameWoDiacritics": "Barcs",
    "subdivision": "SO",
    "status": 7,
    "function": [
      5
    ],
    "date": 901,
    "coordinates": {
      "lat": 45.95,
      "lon": 17.45
    }
  },
  {
    "country": "HU",
    "location": "RVK",
    "name": "B·rdudvarnok",
    "nameWoDiacritics": "Bardudvarnok",
    "subdivision": "SO",
    "status": 7,
    "function": [
      2
    ],
    "date": 901,
    "coordinates": {
      "lat": 46.333333333333336,
      "lon": 17.683333333333334
    }
  },
  {
    "country": "HU",
    "location": "BAI",
    "name": "Bataapati",
    "nameWoDiacritics": "Bataapati",
    "subdivision": "TO",
    "status": 7,
    "function": [
      5
    ],
    "date": 901,
    "coordinates": {
      "lat": 46.21666666666667,
      "lon": 72.06666666666666
    }
  },
  {
    "country": "HU",
    "location": "BTY",
    "name": "B·tonyterenye",
    "nameWoDiacritics": "Batonyterenye",
    "subdivision": "NO",
    "status": 7,
    "function": [
      2
    ],
    "date": 901,
    "coordinates": {
      "lat": 47.96666666666667,
      "lon": 19.833333333333332
    }
  },
  {
    "country": "HU",
    "location": "BAT",
    "name": "Battonya",
    "nameWoDiacritics": "Battonya",
    "subdivision": "BE",
    "status": 7,
    "function": [
      2
    ],
    "date": 1607,
    "coordinates": {
      "lat": 46.28333333333333,
      "lon": 21.016666666666666
    }
  },
  {
    "country": "HU",
    "location": "BFA",
    "name": "Becefa",
    "nameWoDiacritics": "Becefa",
    "subdivision": "BA",
    "status": 7,
    "function": [
      2
    ],
    "date": 1401,
    "coordinates": {
      "lat": 46.06666666666667,
      "lon": 17.85
    }
  },
  {
    "country": "HU",
    "location": "BKS",
    "name": "Bekecs",
    "nameWoDiacritics": "Bekecs",
    "subdivision": "BZ",
    "status": 7,
    "function": [
      2
    ],
    "date": 1601,
    "coordinates": {
      "lat": 48.15,
      "lon": 21.183333333333334
    }
  },
  {
    "country": "HU",
    "location": "BES",
    "name": "BÈkÈs",
    "nameWoDiacritics": "Bekes",
    "subdivision": "BE",
    "status": 7,
    "function": [
      1
    ],
    "date": 212,
    "coordinates": {
      "lat": 46.75,
      "lon": 21.116666666666667
    }
  },
  {
    "country": "HU",
    "location": "BEK",
    "name": "BÈkÈscsaba",
    "nameWoDiacritics": "Bekescsaba",
    "status": 7,
    "function": [
      2
    ],
    "date": 212,
    "coordinates": {
      "lat": 46.68333333333333,
      "lon": 21.1
    }
  },
  {
    "country": "HU",
    "location": "HAP",
    "name": "Bekesszentandras",
    "nameWoDiacritics": "Bekesszentandras",
    "subdivision": "BE",
    "status": 7,
    "function": [
      5
    ],
    "date": 901,
    "coordinates": {
      "lat": 46.86666666666667,
      "lon": 20.483333333333334
    }
  },
  {
    "country": "HU",
    "location": "BET",
    "name": "BÈkÈsszentandr·s",
    "nameWoDiacritics": "Bekesszentandras",
    "subdivision": "BE",
    "status": 7,
    "function": [
      2
    ],
    "date": 1801,
    "coordinates": {
      "lat": 46.86666666666667,
      "lon": 20.483333333333334
    }
  },
  {
    "country": "HU",
    "location": "BPF",
    "name": "BÈlap·tfalva",
    "nameWoDiacritics": "Belapatfalva",
    "subdivision": "HE",
    "status": 7,
    "function": [
      2
    ],
    "date": 1301,
    "coordinates": {
      "lat": 48.05,
      "lon": 20.366666666666667
    }
  },
  {
    "country": "HU",
    "location": "BEL",
    "name": "Beled",
    "nameWoDiacritics": "Beled",
    "subdivision": "GY",
    "status": 7,
    "function": [
      2
    ],
    "date": 1301,
    "coordinates": {
      "lat": 47.45,
      "lon": 17.083333333333332
    }
  },
  {
    "country": "HU",
    "location": "BRC",
    "name": "Bercel",
    "nameWoDiacritics": "Bercel",
    "subdivision": "NO",
    "status": 9,
    "function": [
      1,
      2
    ],
    "date": 1001,
    "coordinates": {
      "lat": 47.86666666666667,
      "lon": -19.416666666666668
    }
  },
  {
    "country": "HU",
    "location": "BKF",
    "name": "Berekf¸rdo",
    "nameWoDiacritics": "Berekfurdo",
    "subdivision": "JN",
    "status": 7,
    "function": [
      2
    ],
    "date": 1101,
    "coordinates": {
      "lat": 47.38333333333333,
      "lon": 20.85
    }
  },
  {
    "country": "HU",
    "location": "BED",
    "name": "Beremend",
    "nameWoDiacritics": "Beremend",
    "subdivision": "BA",
    "status": 7,
    "function": [
      2
    ],
    "date": 1707,
    "coordinates": {
      "lat": 45.78333333333333,
      "lon": 18.433333333333334
    }
  },
  {
    "country": "HU",
    "location": "BTF",
    "name": "BerettyÛ˙jfalu",
    "nameWoDiacritics": "Berettyoujfalu",
    "subdivision": "HB",
    "status": 7,
    "function": [
      1,
      2
    ],
    "date": 1801,
    "coordinates": {
      "lat": 47.21666666666667,
      "lon": 21.533333333333335
    }
  },
  {
    "country": "HU",
    "location": "BDA",
    "name": "Berhida",
    "nameWoDiacritics": "Berhida",
    "subdivision": "VE",
    "status": 7,
    "function": [
      0,
      5
    ],
    "date": 901,
    "coordinates": {
      "lat": 48.166666666666664,
      "lon": 18.133333333333333
    }
  },
  {
    "country": "HU",
    "location": "BZE",
    "name": "Berzence",
    "nameWoDiacritics": "Berzence",
    "status": 7,
    "function": [
      0,
      1,
      2
    ],
    "date": 601,
    "coordinates": {
      "lat": 46.2,
      "lon": 17.15
    }
  },
  {
    "country": "HU",
    "location": "BYK",
    "name": "Besenyotelek",
    "nameWoDiacritics": "Besenyotelek",
    "subdivision": "HE",
    "status": 7,
    "function": [
      2
    ],
    "date": 1601,
    "coordinates": {
      "lat": 47.7,
      "lon": 20.433333333333334
    }
  },
  {
    "country": "HU",
    "location": "BEZ",
    "name": "BezerÈd",
    "nameWoDiacritics": "Bezered",
    "subdivision": "ZA",
    "status": 7,
    "function": [
      2
    ],
    "date": 1301,
    "coordinates": {
      "lat": 46.86666666666667,
      "lon": 17
    }
  },
  {
    "country": "HU",
    "location": "BTB",
    "name": "Biatorb·gy",
    "nameWoDiacritics": "Biatorbagy",
    "subdivision": "PE",
    "status": 7,
    "function": [
      1,
      2
    ],
    "date": 501,
    "coordinates": {
      "lat": 47.46666666666667,
      "lon": 18.816666666666666
    }
  },
  {
    "country": "HU",
    "location": "BIC",
    "name": "Bicske",
    "nameWoDiacritics": "Bicske",
    "status": 7,
    "function": [
      1,
      2
    ],
    "date": 601,
    "coordinates": {
      "lat": 47.46666666666667,
      "lon": 18.633333333333333
    }
  },
  {
    "country": "HU",
    "location": "BIH",
    "name": "Biharkeresztes",
    "nameWoDiacritics": "Biharkeresztes",
    "subdivision": "HB",
    "status": 7,
    "function": [
      1,
      2
    ],
    "date": 212,
    "coordinates": {
      "lat": 47.13333333333333,
      "lon": 21.716666666666665
    }
  },
  {
    "country": "HU",
    "location": "BGB",
    "name": "Biharnagybajom",
    "nameWoDiacritics": "Biharnagybajom",
    "subdivision": "HB",
    "status": 7,
    "function": [
      2
    ],
    "date": 1307,
    "coordinates": {
      "lat": 47.21666666666667,
      "lon": 21.233333333333334
    }
  },
  {
    "country": "HU",
    "location": "BRI",
    "name": "Biri",
    "nameWoDiacritics": "Biri",
    "subdivision": "SZ",
    "status": 7,
    "function": [
      5
    ],
    "date": 901,
    "coordinates": {
      "lat": 47.81666666666667,
      "lon": 21.85
    }
  },
  {
    "country": "HU",
    "location": "HAO",
    "name": "Birjan",
    "nameWoDiacritics": "Birjan",
    "subdivision": "BA",
    "status": 7,
    "function": [
      5
    ],
    "date": 901,
    "coordinates": {
      "lat": 45.983333333333334,
      "lon": 18.366666666666667
    }
  },
  {
    "country": "HU",
    "location": "BOS",
    "name": "Bocs",
    "nameWoDiacritics": "Bocs",
    "subdivision": "BZ",
    "status": 9,
    "function": [
      5
    ],
    "date": 1001,
    "coordinates": {
      "lat": 48.03333333333333,
      "lon": 20.95
    }
  },
  {
    "country": "HU",
    "location": "BOC",
    "name": "Bocsa",
    "nameWoDiacritics": "Bocsa",
    "subdivision": "BK",
    "status": 9,
    "function": [
      2
    ],
    "date": 907,
    "coordinates": {
      "lat": 46.6,
      "lon": 19.5
    }
  },
  {
    "country": "HU",
    "location": "BJK",
    "name": "Bodajk",
    "nameWoDiacritics": "Bodajk",
    "subdivision": "FE",
    "status": 7,
    "function": [
      2
    ],
    "date": 901,
    "coordinates": {
      "lat": 47.31666666666667,
      "lon": 18.233333333333334
    }
  },
  {
    "country": "HU",
    "location": "BGZ",
    "name": "Bodrogkereszt˙r",
    "nameWoDiacritics": "Bodrogkeresztur",
    "subdivision": "BZ",
    "status": 7,
    "function": [
      2
    ],
    "date": 1301,
    "coordinates": {
      "lat": 48.166666666666664,
      "lon": 21.366666666666667
    }
  },
  {
    "country": "HU",
    "location": "RRV",
    "name": "Bodrogkisfalud",
    "nameWoDiacritics": "Bodrogkisfalud",
    "subdivision": "BZ",
    "status": 7,
    "function": [
      2
    ],
    "date": 901,
    "coordinates": {
      "lat": 48.18333333333333,
      "lon": 21.366666666666667
    }
  },
  {
    "country": "HU",
    "location": "HAI",
    "name": "Bokros",
    "nameWoDiacritics": "Bokros",
    "subdivision": "CS",
    "status": 7,
    "function": [
      5
    ],
    "date": 901,
    "coordinates": {
      "lat": 46.75,
      "lon": 20.033333333333335
    }
  },
  {
    "country": "HU",
    "location": "BCE",
    "name": "Bˆlcske",
    "nameWoDiacritics": "Bolcske",
    "subdivision": "TO",
    "status": 7,
    "function": [
      2
    ],
    "date": 1707,
    "coordinates": {
      "lat": 46.733333333333334,
      "lon": 18.966666666666665
    }
  },
  {
    "country": "HU",
    "location": "BOL",
    "name": "BÛly",
    "nameWoDiacritics": "Boly",
    "subdivision": "BA",
    "status": 7,
    "function": [
      2
    ],
    "date": 212,
    "coordinates": {
      "lat": 45.96666666666667,
      "lon": 18.516666666666666
    }
  },
  {
    "country": "HU",
    "location": "BOY",
    "name": "B?ny",
    "nameWoDiacritics": "B?ny",
    "subdivision": "GS",
    "status": 7,
    "function": [
      2
    ],
    "date": 1301,
    "coordinates": {
      "lat": 47.65,
      "lon": 17.866666666666667
    }
  },
  {
    "country": "HU",
    "location": "BON",
    "name": "Bonyh·d",
    "nameWoDiacritics": "Bonyhad",
    "status": 7,
    "function": [
      2
    ],
    "date": 212,
    "coordinates": {
      "lat": 46.3,
      "lon": 18.533333333333335
    }
  },
  {
    "country": "HU",
    "location": "BOH",
    "name": "Bˆrcs",
    "nameWoDiacritics": "Borcs",
    "subdivision": "GS",
    "status": 7,
    "function": [
      2
    ],
    "date": 1301,
    "coordinates": {
      "lat": 47.68333333333333,
      "lon": 17.5
    }
  },
  {
    "country": "HU",
    "location": "BOJ",
    "name": "Borjad",
    "nameWoDiacritics": "Borjad",
    "subdivision": "BA",
    "status": 7,
    "function": [
      2
    ],
    "date": 2001,
    "coordinates": {
      "lat": 45.93333333333333,
      "lon": 18.466666666666665
    }
  },
  {
    "country": "HU",
    "location": "BOD",
    "name": "Borsod",
    "nameWoDiacritics": "Borsod",
    "subdivision": "BZ",
    "status": 7,
    "function": [
      2
    ],
    "date": 901,
    "coordinates": {
      "lat": 48.31666666666667,
      "lon": 20.75
    }
  },
  {
    "country": "HU",
    "location": "BOR",
    "name": "Borsodn·dasd",
    "nameWoDiacritics": "Borsodnadasd",
    "subdivision": "BZ",
    "status": 7,
    "function": [
      2
    ],
    "date": 701,
    "coordinates": {
      "lat": 48.11666666666667,
      "lon": 20.216666666666665
    }
  },
  {
    "country": "HU",
    "location": "BSK",
    "name": "Borsodszir·k",
    "nameWoDiacritics": "Borsodszirak",
    "subdivision": "BZ",
    "status": 7,
    "function": [
      2
    ],
    "date": 1207,
    "coordinates": {
      "lat": 48.266666666666666,
      "lon": 20.766666666666666
    }
  },
  {
    "country": "HU",
    "location": "BOK",
    "name": "Bos·rk·ny",
    "nameWoDiacritics": "Bosarkany",
    "subdivision": "GS",
    "status": 7,
    "function": [
      2
    ],
    "date": 1901,
    "coordinates": {
      "lat": 47.68333333333333,
      "lon": 17.25
    }
  },
  {
    "country": "HU",
    "location": "BOT",
    "name": "Botykapeterd",
    "nameWoDiacritics": "Botykapeterd",
    "subdivision": "BA",
    "status": 7,
    "function": [
      5
    ],
    "date": 901,
    "coordinates": {
      "lat": 46.05,
      "lon": 17.866666666666667
    }
  },
  {
    "country": "HU",
    "location": "BUC",
    "name": "Bucsu",
    "nameWoDiacritics": "Bucsu",
    "status": 12,
    "function": [
      2
    ],
    "date": 8202,
    "coordinates": {
      "lat": 0,
      "lon": 0
    }
  },
  {
    "country": "HU",
    "location": "BKL",
    "name": "Budakal·sz",
    "nameWoDiacritics": "Budakalasz",
    "subdivision": "PE",
    "status": 7,
    "function": [
      5
    ],
    "date": 901,
    "coordinates": {
      "lat": 47.61666666666667,
      "lon": 19.05
    }
  },
  {
    "country": "HU",
    "location": "ESZ",
    "name": "Budakeszi",
    "nameWoDiacritics": "Budakeszi",
    "subdivision": "PE",
    "status": 9,
    "function": [
      5
    ],
    "date": 907,
    "coordinates": {
      "lat": 47.516666666666666,
      "lon": 18.933333333333334
    }
  },
  {
    "country": "HU",
    "location": "BUA",
    "name": "Budaˆrs",
    "nameWoDiacritics": "Budaors",
    "status": 7,
    "function": [
      1,
      2
    ],
    "date": 207,
    "coordinates": {
      "lat": 47.45,
      "lon": 18.95
    }
  },
  {
    "country": "HU",
    "location": "BUD",
    "name": "Budapest",
    "nameWoDiacritics": "Budapest",
    "subdivision": "BU",
    "status": 3,
    "function": [
      0,
      1,
      3,
      4
    ],
    "date": 2007,
    "coordinates": {
      "lat": 47.5,
      "lon": 19.083333333333332
    }
  },
  {
    "country": "HU",
    "location": "HAD",
    "name": "Bugyi",
    "nameWoDiacritics": "Bugyi",
    "subdivision": "PE",
    "status": 7,
    "function": [
      5
    ],
    "date": 901,
    "coordinates": {
      "lat": 47.21666666666667,
      "lon": 19.15
    }
  },
  {
    "country": "HU",
    "location": "BUE",
    "name": "B¸k",
    "nameWoDiacritics": "Buk",
    "subdivision": "VA",
    "status": 7,
    "function": [
      2
    ],
    "date": 1301,
    "coordinates": {
      "lat": 47.38333333333333,
      "lon": 16.75
    }
  },
  {
    "country": "HU",
    "location": "BUK",
    "name": "B¸k",
    "nameWoDiacritics": "Buk",
    "subdivision": "VA",
    "status": 7,
    "function": [
      2
    ],
    "date": 212,
    "coordinates": {
      "lat": 47.38333333333333,
      "lon": 16.733333333333334
    }
  },
  {
    "country": "HU",
    "location": "BU2",
    "name": "B¸kkˆsd",
    "nameWoDiacritics": "Bukkosd",
    "subdivision": "BA",
    "status": 7,
    "function": [
      2
    ],
    "date": 1601,
    "coordinates": {
      "lat": 46.1,
      "lon": 17.983333333333334
    }
  },
  {
    "country": "HU",
    "location": "CEG",
    "name": "CeglÈd",
    "nameWoDiacritics": "Cegled",
    "status": 7,
    "function": [
      2
    ],
    "date": 212,
    "coordinates": {
      "lat": 47.166666666666664,
      "lon": 19.8
    }
  },
  {
    "country": "HU",
    "location": "CEL",
    "name": "Celldˆmˆlk",
    "nameWoDiacritics": "Celldomolk",
    "subdivision": "VA",
    "status": 7,
    "function": [
      1,
      2
    ],
    "date": 901,
    "coordinates": {
      "lat": 47.25,
      "lon": 17.15
    }
  },
  {
    "country": "HU",
    "location": "2NJ",
    "name": "Cibakh·za",
    "nameWoDiacritics": "Cibakhaza",
    "subdivision": "JN",
    "status": 7,
    "function": [
      2
    ],
    "date": 1607,
    "coordinates": {
      "lat": 46.96666666666667,
      "lon": 20.2
    }
  },
  {
    "country": "HU",
    "location": "CDP",
    "name": "Csanadapaca",
    "nameWoDiacritics": "Csanadapaca",
    "subdivision": "BE",
    "status": 7,
    "function": [
      2
    ],
    "date": 2001,
    "coordinates": {
      "lat": 46.55,
      "lon": 20.883333333333333
    }
  },
  {
    "country": "HU",
    "location": "CSA",
    "name": "Csaszar",
    "nameWoDiacritics": "Csaszar",
    "subdivision": "KE",
    "status": 9,
    "function": [
      2
    ],
    "date": 907,
    "coordinates": {
      "lat": 47.5,
      "lon": 18.15
    }
  },
  {
    "country": "HU",
    "location": "CST",
    "name": "Cs·sz·rtˆltÈs",
    "nameWoDiacritics": "Csaszartoltes",
    "subdivision": "BK",
    "status": 7,
    "function": [
      2
    ],
    "date": 1707,
    "coordinates": {
      "lat": 46.416666666666664,
      "lon": 19.183333333333334
    }
  },
  {
    "country": "HU",
    "location": "CVY",
    "name": "Cs·voly",
    "nameWoDiacritics": "Csavoly",
    "subdivision": "BK",
    "status": 7,
    "function": [
      2
    ],
    "date": 701,
    "coordinates": {
      "lat": 46.18333333333333,
      "lon": 19.133333333333333
    }
  },
  {
    "country": "HU",
    "location": "CDE",
    "name": "Csegold",
    "nameWoDiacritics": "Csegold",
    "subdivision": "SZ",
    "status": 7,
    "function": [
      2
    ],
    "date": 1601,
    "coordinates": {
      "lat": 47.9,
      "lon": 22.683333333333334
    }
  },
  {
    "country": "HU",
    "location": "CSB",
    "name": "Csehb·nya",
    "nameWoDiacritics": "Csehbanya",
    "subdivision": "VM",
    "status": 7,
    "function": [
      2
    ],
    "date": 2001,
    "coordinates": {
      "lat": 47.18333333333333,
      "lon": 17.683333333333334
    }
  },
  {
    "country": "HU",
    "location": "HAS",
    "name": "Csem?",
    "nameWoDiacritics": "Csem?",
    "subdivision": "PE",
    "status": 7,
    "function": [
      5
    ],
    "date": 901,
    "coordinates": {
      "lat": 47.11666666666667,
      "lon": 19.7
    }
  },
  {
    "country": "HU",
    "location": "CGE",
    "name": "Csenger",
    "nameWoDiacritics": "Csenger",
    "status": 7,
    "function": [
      1,
      2,
      5
    ],
    "date": 601,
    "coordinates": {
      "lat": 47.833333333333336,
      "lon": 22.683333333333334
    }
  },
  {
    "country": "HU",
    "location": "CSE",
    "name": "Csengersima",
    "nameWoDiacritics": "Csengersima",
    "status": 12,
    "function": [
      2
    ],
    "date": 8202,
    "coordinates": {
      "lat": 0,
      "lon": 0
    }
  },
  {
    "country": "HU",
    "location": "CND",
    "name": "Csengod",
    "nameWoDiacritics": "Csengod",
    "subdivision": "BK",
    "status": 7,
    "function": [
      2
    ],
    "date": 1601,
    "coordinates": {
      "lat": 46.71666666666667,
      "lon": 19.266666666666666
    }
  },
  {
    "country": "HU",
    "location": "CPE",
    "name": "Csepel",
    "nameWoDiacritics": "Csepel",
    "subdivision": "PE",
    "status": 7,
    "function": [
      0,
      2
    ],
    "date": 212,
    "coordinates": {
      "lat": 47.416666666666664,
      "lon": 19.066666666666666
    }
  },
  {
    "country": "HU",
    "location": "CSP",
    "name": "Csepreg",
    "nameWoDiacritics": "Csepreg",
    "subdivision": "VA",
    "status": 7,
    "function": [
      1,
      2
    ],
    "date": 1201,
    "coordinates": {
      "lat": 47.4,
      "lon": 16.716666666666665
    }
  },
  {
    "country": "HU",
    "location": "CSD",
    "name": "Cserszegtomaj",
    "nameWoDiacritics": "Cserszegtomaj",
    "status": 7,
    "function": [
      2
    ],
    "date": 601,
    "coordinates": {
      "lat": 46.8,
      "lon": 17.216666666666665
    }
  },
  {
    "country": "HU",
    "location": "CSZ",
    "name": "Csesztreg",
    "nameWoDiacritics": "Csesztreg",
    "subdivision": "ZA",
    "status": 9,
    "function": [
      5
    ],
    "date": 1001,
    "coordinates": {
      "lat": 47.166666666666664,
      "lon": 16.866666666666667
    }
  },
  {
    "country": "HU",
    "location": "HAR",
    "name": "CsÈvharaszt",
    "nameWoDiacritics": "Csevharaszt",
    "subdivision": "PE",
    "status": 7,
    "function": [
      5
    ],
    "date": 901,
    "coordinates": {
      "lat": 47.3,
      "lon": 19.433333333333334
    }
  },
  {
    "country": "HU",
    "location": "CKY",
    "name": "Csokvaomany",
    "nameWoDiacritics": "Csokvaomany",
    "subdivision": "BZ",
    "status": 7,
    "function": [
      2
    ],
    "date": 1501,
    "coordinates": {
      "lat": 48.166666666666664,
      "lon": 20.383333333333333
    }
  },
  {
    "country": "HU",
    "location": "CSY",
    "name": "CsÛlyosp·los",
    "nameWoDiacritics": "Csolyospalos",
    "subdivision": "BK",
    "status": 7,
    "function": [
      2
    ],
    "date": 1801,
    "coordinates": {
      "lat": 46.416666666666664,
      "lon": 19.833333333333332
    }
  },
  {
    "country": "HU",
    "location": "CMD",
    "name": "Csom·d",
    "nameWoDiacritics": "Csomad",
    "subdivision": "PE",
    "status": 7,
    "function": [
      2
    ],
    "date": 1207,
    "coordinates": {
      "lat": 47.666666666666664,
      "lon": 19.233333333333334
    }
  },
  {
    "country": "HU",
    "location": "CMR",
    "name": "Csˆmˆr",
    "nameWoDiacritics": "Csomor",
    "subdivision": "PE",
    "status": 7,
    "function": [
      0,
      1,
      2
    ],
    "date": 307,
    "coordinates": {
      "lat": 47.55,
      "lon": 19.233333333333334
    }
  },
  {
    "country": "HU",
    "location": "CGD",
    "name": "Csongrad",
    "nameWoDiacritics": "Csongrad",
    "status": 7,
    "function": [
      2
    ],
    "date": 2,
    "coordinates": {
      "lat": 0,
      "lon": 0
    }
  },
  {
    "country": "HU",
    "location": "CSO",
    "name": "Csorna",
    "nameWoDiacritics": "Csorna",
    "subdivision": "GS",
    "status": 7,
    "function": [
      1,
      2
    ],
    "date": 207,
    "coordinates": {
      "lat": 47.6,
      "lon": 17.233333333333334
    }
  },
  {
    "country": "HU",
    "location": "CSV",
    "name": "Csorvas",
    "nameWoDiacritics": "Csorvas",
    "status": 7,
    "function": [
      2
    ],
    "date": 701,
    "coordinates": {
      "lat": 46.61666666666667,
      "lon": 20.8
    }
  },
  {
    "country": "HU",
    "location": "8TW",
    "name": "CsÛt",
    "nameWoDiacritics": "Csot",
    "subdivision": "VE",
    "status": 7,
    "function": [
      2
    ],
    "date": 1407,
    "coordinates": {
      "lat": 47.36666666666667,
      "lon": 17.616666666666667
    }
  },
  {
    "country": "HU",
    "location": "C4S",
    "name": "Csov·r",
    "nameWoDiacritics": "Csovar",
    "subdivision": "PE",
    "status": 7,
    "function": [
      2
    ],
    "date": 1407,
    "coordinates": {
      "lat": 47.81666666666667,
      "lon": 19.333333333333332
    }
  },
  {
    "country": "HU",
    "location": "CSU",
    "name": "Csurgo",
    "nameWoDiacritics": "Csurgo",
    "subdivision": "SO",
    "status": 7,
    "function": [
      1,
      2
    ],
    "date": 207,
    "coordinates": {
      "lat": 46.266666666666666,
      "lon": 17.083333333333332
    }
  },
  {
    "country": "HU",
    "location": "HAC",
    "name": "Dabas",
    "nameWoDiacritics": "Dabas",
    "subdivision": "PE",
    "status": 7,
    "function": [
      5
    ],
    "date": 901,
    "coordinates": {
      "lat": 47.18333333333333,
      "lon": 19.316666666666666
    }
  },
  {
    "country": "HU",
    "location": "DZT",
    "name": "D·nszentmiklÛs",
    "nameWoDiacritics": "Danszentmiklos",
    "subdivision": "PE",
    "status": 7,
    "function": [
      2
    ],
    "date": 1601,
    "coordinates": {
      "lat": 47.21666666666667,
      "lon": 19.55
    }
  },
  {
    "country": "HU",
    "location": "DAY",
    "name": "D·ny",
    "nameWoDiacritics": "Dany",
    "subdivision": "PE",
    "status": 7,
    "function": [
      2
    ],
    "date": 1701,
    "coordinates": {
      "lat": 47.516666666666666,
      "lon": 19.55
    }
  },
  {
    "country": "HU",
    "location": "DEB",
    "name": "Debrecen",
    "nameWoDiacritics": "Debrecen",
    "status": 3,
    "function": [
      0,
      3
    ],
    "date": 9601,
    "coordinates": {
      "lat": 0,
      "lon": 0
    }
  },
  {
    "country": "HU",
    "location": "DES",
    "name": "Decs",
    "nameWoDiacritics": "Decs",
    "subdivision": "TO",
    "status": 7,
    "function": [
      2
    ],
    "date": 1801,
    "coordinates": {
      "lat": 46.46666666666667,
      "lon": 18.116666666666667
    }
  },
  {
    "country": "HU",
    "location": "DZK",
    "name": "Deszk",
    "nameWoDiacritics": "Deszk",
    "subdivision": "CS",
    "status": 7,
    "function": [
      2
    ],
    "date": 701,
    "coordinates": {
      "lat": 46.21666666666667,
      "lon": 20.25
    }
  },
  {
    "country": "HU",
    "location": "DVV",
    "name": "Devavanya",
    "nameWoDiacritics": "Devavanya",
    "subdivision": "BE",
    "status": 7,
    "function": [
      5
    ],
    "date": 1107,
    "coordinates": {
      "lat": 47.03333333333333,
      "lon": 20.966666666666665
    }
  },
  {
    "country": "HU",
    "location": "DEV",
    "name": "Devecser",
    "nameWoDiacritics": "Devecser",
    "subdivision": "VE",
    "status": 7,
    "function": [
      2
    ],
    "date": 1707,
    "coordinates": {
      "lat": 47.1,
      "lon": 17.433333333333334
    }
  },
  {
    "country": "HU",
    "location": "DIO",
    "name": "DiÛsd",
    "nameWoDiacritics": "Diosd",
    "subdivision": "PE",
    "status": 7,
    "function": [
      2
    ],
    "date": 901,
    "coordinates": {
      "lat": 47.4,
      "lon": 18.95
    }
  },
  {
    "country": "HU",
    "location": "DOB",
    "name": "DombÛv·r",
    "nameWoDiacritics": "Dombovar",
    "subdivision": "TO",
    "status": 7,
    "function": [
      1,
      2
    ],
    "date": 212,
    "coordinates": {
      "lat": 46.36666666666667,
      "lon": 18.133333333333333
    }
  },
  {
    "country": "HU",
    "location": "DRG",
    "name": "Dorog",
    "nameWoDiacritics": "Dorog",
    "subdivision": "KE",
    "status": 7,
    "function": [
      2
    ],
    "date": 701,
    "coordinates": {
      "lat": 47.71666666666667,
      "lon": 18.733333333333334
    }
  },
  {
    "country": "HU",
    "location": "DRA",
    "name": "Dr·vaszabolcs",
    "nameWoDiacritics": "Dravaszabolcs",
    "status": 7,
    "function": [
      2
    ],
    "date": 212,
    "coordinates": {
      "lat": 45.8,
      "lon": 18.216666666666665
    }
  },
  {
    "country": "HU",
    "location": "DGP",
    "name": "DrÈgelypal·nk",
    "nameWoDiacritics": "Dregelypalank",
    "subdivision": "NO",
    "status": 7,
    "function": [
      5
    ],
    "date": 901,
    "coordinates": {
      "lat": 48.05,
      "lon": 19.05
    }
  },
  {
    "country": "HU",
    "location": "DDA",
    "name": "Dudar",
    "nameWoDiacritics": "Dudar",
    "status": 9,
    "function": [
      2,
      5
    ],
    "date": 607,
    "coordinates": {
      "lat": 47.31666666666667,
      "lon": 17.933333333333334
    }
  },
  {
    "country": "HU",
    "location": "DKE",
    "name": "Dunaalm·s",
    "nameWoDiacritics": "Dunaalmas",
    "subdivision": "KE",
    "status": 7,
    "function": [
      2
    ],
    "date": 1807,
    "coordinates": {
      "lat": 47.733333333333334,
      "lon": 18.333333333333332
    }
  },
  {
    "country": "HU",
    "location": "BOG",
    "name": "Dunabogd·ny",
    "nameWoDiacritics": "Dunabogdany",
    "subdivision": "PE",
    "status": 7,
    "function": [
      2
    ],
    "date": 1301,
    "coordinates": {
      "lat": 47.78333333333333,
      "lon": 19.033333333333335
    }
  },
  {
    "country": "HU",
    "location": "DFV",
    "name": "Dunafˆldv·r",
    "nameWoDiacritics": "Dunafoldvar",
    "subdivision": "TO",
    "status": 7,
    "function": [
      2
    ],
    "date": 1301,
    "coordinates": {
      "lat": 46.8,
      "lon": 18.916666666666668
    }
  },
  {
    "country": "HU",
    "location": "DSZ",
    "name": "Dunaharaszti",
    "nameWoDiacritics": "Dunaharaszti",
    "status": 12,
    "function": [
      0
    ],
    "coordinates": {
      "lat": 0,
      "lon": 0
    }
  },
  {
    "country": "HU",
    "location": "DKZ",
    "name": "Dunakeszi",
    "nameWoDiacritics": "Dunakeszi",
    "status": 12,
    "function": [
      0
    ],
    "coordinates": {
      "lat": 0,
      "lon": 0
    }
  },
  {
    "country": "HU",
    "location": "DKI",
    "name": "Dunakiliti",
    "nameWoDiacritics": "Dunakiliti",
    "subdivision": "GS",
    "status": 7,
    "function": [
      2
    ],
    "date": 907,
    "coordinates": {
      "lat": 47.96666666666667,
      "lon": 17.283333333333335
    }
  },
  {
    "country": "HU",
    "location": "DPA",
    "name": "Dunapataj",
    "nameWoDiacritics": "Dunapataj",
    "subdivision": "BK",
    "status": 7,
    "function": [
      0,
      1,
      2
    ],
    "date": 212,
    "coordinates": {
      "lat": 46.61666666666667,
      "lon": 18.983333333333334
    }
  },
  {
    "country": "HU",
    "location": "DRE",
    "name": "Dunaremete",
    "nameWoDiacritics": "Dunaremete",
    "subdivision": "GS",
    "status": 7,
    "function": [
      0,
      2
    ],
    "date": 212,
    "coordinates": {
      "lat": 47.88333333333333,
      "lon": 17.433333333333334
    }
  },
  {
    "country": "HU",
    "location": "DUS",
    "name": "Dunaszentbenedek",
    "nameWoDiacritics": "Dunaszentbenedek",
    "subdivision": "BK",
    "status": 7,
    "function": [
      2
    ],
    "date": 1301,
    "coordinates": {
      "lat": 46.583333333333336,
      "lon": 18.883333333333333
    }
  },
  {
    "country": "HU",
    "location": "DUZ",
    "name": "DunaszentmiklÛs",
    "nameWoDiacritics": "Dunaszentmiklos",
    "subdivision": "KE",
    "status": 7,
    "function": [
      2
    ],
    "date": 212,
    "coordinates": {
      "lat": 47.7,
      "lon": 18.366666666666667
    }
  },
  {
    "country": "HU",
    "location": "DUU",
    "name": "Duna˙jv·ros",
    "nameWoDiacritics": "Dunaujvaros",
    "subdivision": "FE",
    "status": 7,
    "function": [
      0,
      1,
      2
    ],
    "date": 507,
    "coordinates": {
      "lat": 46.96666666666667,
      "lon": 18.933333333333334
    }
  },
  {
    "country": "HU",
    "location": "DUK",
    "name": "Dunavars·ny",
    "nameWoDiacritics": "Dunavarsany",
    "status": 7,
    "function": [
      1,
      2
    ],
    "date": 601,
    "coordinates": {
      "lat": 47.28333333333333,
      "lon": 19.083333333333332
    }
  },
  {
    "country": "HU",
    "location": "DVE",
    "name": "Dunavecse",
    "nameWoDiacritics": "Dunavecse",
    "subdivision": "BK",
    "status": 7,
    "function": [
      0,
      1,
      2
    ],
    "date": 212,
    "coordinates": {
      "lat": 46.916666666666664,
      "lon": 18.966666666666665
    }
  },
  {
    "country": "HU",
    "location": "DUO",
    "name": "Dusnok",
    "nameWoDiacritics": "Dusnok",
    "subdivision": "ZA",
    "status": 7,
    "function": [
      2
    ],
    "date": 1301,
    "coordinates": {
      "lat": 46.583333333333336,
      "lon": 16.95
    }
  },
  {
    "country": "HU",
    "location": "EBS",
    "name": "Ebes",
    "nameWoDiacritics": "Ebes",
    "subdivision": "HB",
    "status": 9,
    "function": [
      0
    ],
    "date": 907,
    "coordinates": {
      "lat": 47.46666666666667,
      "lon": 21.5
    }
  },
  {
    "country": "HU",
    "location": "ECR",
    "name": "Ecser",
    "nameWoDiacritics": "Ecser",
    "subdivision": "PE",
    "status": 7,
    "function": [
      2
    ],
    "date": 901,
    "coordinates": {
      "lat": 47.45,
      "lon": 19.333333333333332
    }
  },
  {
    "country": "HU",
    "location": "EGR",
    "name": "Eger",
    "nameWoDiacritics": "Eger",
    "status": 12,
    "function": [
      0
    ],
    "coordinates": {
      "lat": 0,
      "lon": 0
    }
  },
  {
    "country": "HU",
    "location": "EGE",
    "name": "Egerszalok",
    "nameWoDiacritics": "Egerszalok",
    "subdivision": "HE",
    "status": 7,
    "function": [
      2
    ],
    "date": 1601,
    "coordinates": {
      "lat": 47.86666666666667,
      "lon": 20.333333333333332
    }
  },
  {
    "country": "HU",
    "location": "EGY",
    "name": "Egyh·zasdengeleg",
    "nameWoDiacritics": "Egyhazasdengeleg",
    "subdivision": "NO",
    "status": 7,
    "function": [
      2
    ],
    "date": 1707,
    "coordinates": {
      "lat": 47.8,
      "lon": 19.566666666666666
    }
  },
  {
    "country": "HU",
    "location": "ELK",
    "name": "Elek",
    "nameWoDiacritics": "Elek",
    "status": 9,
    "function": [
      2
    ],
    "date": 607,
    "coordinates": {
      "lat": 46.516666666666666,
      "lon": 21.233333333333334
    }
  },
  {
    "country": "HU",
    "location": "ENC",
    "name": "Encs",
    "nameWoDiacritics": "Encs",
    "subdivision": "BZ",
    "status": 7,
    "function": [
      1
    ],
    "date": 207,
    "coordinates": {
      "lat": 48.333333333333336,
      "lon": 21.116666666666667
    }
  },
  {
    "country": "HU",
    "location": "EDF",
    "name": "Endrefalva",
    "nameWoDiacritics": "Endrefalva",
    "subdivision": "NO",
    "status": 7,
    "function": [
      1,
      2
    ],
    "date": 307,
    "coordinates": {
      "lat": 48.13333333333333,
      "lon": 19.583333333333332
    }
  },
  {
    "country": "HU",
    "location": "ENY",
    "name": "Enying",
    "nameWoDiacritics": "Enying",
    "subdivision": "FE",
    "status": 7,
    "function": [
      5
    ],
    "date": 901,
    "coordinates": {
      "lat": 46.93333333333333,
      "lon": 18.25
    }
  },
  {
    "country": "HU",
    "location": "EPE",
    "name": "Eperjeske",
    "nameWoDiacritics": "Eperjeske",
    "status": 12,
    "function": [
      1
    ],
    "date": 8202,
    "coordinates": {
      "lat": 0,
      "lon": 0
    }
  },
  {
    "country": "HU",
    "location": "ERC",
    "name": "Ercsi",
    "nameWoDiacritics": "Ercsi",
    "subdivision": "FE",
    "status": 9,
    "function": [
      0
    ],
    "date": 901,
    "coordinates": {
      "lat": 0,
      "lon": 0
    }
  },
  {
    "country": "HU",
    "location": "HAA",
    "name": "Erd",
    "nameWoDiacritics": "Erd",
    "subdivision": "PE",
    "status": 7,
    "function": [
      5
    ],
    "date": 901,
    "coordinates": {
      "lat": 47.36666666666667,
      "lon": 18.933333333333334
    }
  },
  {
    "country": "HU",
    "location": "ERD",
    "name": "Erdobenye",
    "nameWoDiacritics": "Erdobenye",
    "subdivision": "BZ",
    "status": 7,
    "function": [
      0,
      5
    ],
    "date": 1107,
    "coordinates": {
      "lat": 48.266666666666666,
      "lon": 21.366666666666667
    }
  },
  {
    "country": "HU",
    "location": "RDE",
    "name": "Erdokertes",
    "nameWoDiacritics": "Erdokertes",
    "subdivision": "PE",
    "status": 7,
    "function": [
      2
    ],
    "date": 212,
    "coordinates": {
      "lat": 47.666666666666664,
      "lon": 19.316666666666666
    }
  },
  {
    "country": "HU",
    "location": "EEK",
    "name": "Erdotelek",
    "nameWoDiacritics": "Erdotelek",
    "subdivision": "HE",
    "status": 7,
    "function": [
      2
    ],
    "date": 1801,
    "coordinates": {
      "lat": 47.68333333333333,
      "lon": 20.316666666666666
    }
  },
  {
    "country": "HU",
    "location": "ESD",
    "name": "Ersekcsanad",
    "nameWoDiacritics": "Ersekcsanad",
    "subdivision": "BK",
    "status": 9,
    "function": [
      2
    ],
    "date": 1601,
    "coordinates": {
      "lat": 45.25,
      "lon": 18.983333333333334
    }
  },
  {
    "country": "HU",
    "location": "EXH",
    "name": "…rsekhalma",
    "nameWoDiacritics": "Ersekhalma",
    "subdivision": "BK",
    "status": 7,
    "function": [
      2
    ],
    "date": 1301,
    "coordinates": {
      "lat": 46.35,
      "lon": 19.116666666666667
    }
  },
  {
    "country": "HU",
    "location": "EST",
    "name": "Esztergom",
    "nameWoDiacritics": "Esztergom",
    "status": 12,
    "function": [
      0
    ],
    "date": 8202,
    "coordinates": {
      "lat": 0,
      "lon": 0
    }
  },
  {
    "country": "HU",
    "location": "ETY",
    "name": "Etyek",
    "nameWoDiacritics": "Etyek",
    "subdivision": "FE",
    "status": 7,
    "function": [
      2
    ],
    "date": 1801,
    "coordinates": {
      "lat": 47.45,
      "lon": 18.75
    }
  },
  {
    "country": "HU",
    "location": "FAC",
    "name": "F·c·nkert",
    "nameWoDiacritics": "Facankert",
    "status": 7,
    "function": [
      1,
      2
    ],
    "date": 601,
    "coordinates": {
      "lat": 46.45,
      "lon": 18.733333333333334
    }
  },
  {
    "country": "HU",
    "location": "FKY",
    "name": "Farkaslyuk",
    "nameWoDiacritics": "Farkaslyuk",
    "subdivision": "BZ",
    "status": 7,
    "function": [
      2
    ],
    "date": 1301,
    "coordinates": {
      "lat": 48.18333333333333,
      "lon": 20.316666666666666
    }
  },
  {
    "country": "HU",
    "location": "HAV",
    "name": "Farmos",
    "nameWoDiacritics": "Farmos",
    "subdivision": "PE",
    "status": 7,
    "function": [
      5
    ],
    "date": 901,
    "coordinates": {
      "lat": 47.36666666666667,
      "lon": 19.85
    }
  },
  {
    "country": "HU",
    "location": "FGA",
    "name": "FehÈrgyarmat",
    "nameWoDiacritics": "Fehergyarmat",
    "subdivision": "SZ",
    "status": 7,
    "function": [
      2
    ],
    "date": 701,
    "coordinates": {
      "lat": 47.983333333333334,
      "lon": 22.516666666666666
    }
  },
  {
    "country": "HU",
    "location": "HAU",
    "name": "Felcsut",
    "nameWoDiacritics": "Felcsut",
    "subdivision": "FE",
    "status": 7,
    "function": [
      5
    ],
    "date": 901,
    "coordinates": {
      "lat": 47.45,
      "lon": 18.583333333333332
    }
  },
  {
    "country": "HU",
    "location": "FEL",
    "name": "Fels?lajos",
    "nameWoDiacritics": "Fels?lajos",
    "subdivision": "BK",
    "status": 7,
    "function": [
      2
    ],
    "date": 1301,
    "coordinates": {
      "lat": 47.06666666666667,
      "lon": 19.516666666666666
    }
  },
  {
    "country": "HU",
    "location": "FNY",
    "name": "FelsˆnyÈk",
    "nameWoDiacritics": "Felsonyek",
    "status": 7,
    "function": [
      1,
      2,
      5
    ],
    "date": 601,
    "coordinates": {
      "lat": 46.78333333333333,
      "lon": 18.283333333333335
    }
  },
  {
    "country": "HU",
    "location": "HAE",
    "name": "Felsopakony",
    "nameWoDiacritics": "Felsopakony",
    "subdivision": "PE",
    "status": 7,
    "function": [
      5
    ],
    "date": 901,
    "coordinates": {
      "lat": 47.35,
      "lon": 19.25
    }
  },
  {
    "country": "HU",
    "location": "FOS",
    "name": "FelsoszenterzsÈbet",
    "nameWoDiacritics": "Felsoszenterzsebet",
    "subdivision": "ZA",
    "status": 7,
    "function": [
      2
    ],
    "date": 1601,
    "coordinates": {
      "lat": 46.75,
      "lon": 16.45
    }
  },
  {
    "country": "HU",
    "location": "FTK",
    "name": "Felsotarkany",
    "nameWoDiacritics": "Felsotarkany",
    "subdivision": "HE",
    "status": 7,
    "function": [
      2
    ],
    "date": 1601,
    "coordinates": {
      "lat": 47.96666666666667,
      "lon": 20.416666666666668
    }
  },
  {
    "country": "HU",
    "location": "FZC",
    "name": "Felsozsolca",
    "nameWoDiacritics": "Felsozsolca",
    "status": 9,
    "function": [
      2
    ],
    "date": 907,
    "coordinates": {
      "lat": 48.1,
      "lon": 20.866666666666667
    }
  },
  {
    "country": "HU",
    "location": "FKE",
    "name": "Fenyeslitke",
    "nameWoDiacritics": "Fenyeslitke",
    "subdivision": "SZ",
    "status": 7,
    "function": [
      2
    ],
    "date": 1601,
    "coordinates": {
      "lat": 48.266666666666666,
      "lon": 22.1
    }
  },
  {
    "country": "HU",
    "location": "FVS",
    "name": "Ferencvaros",
    "nameWoDiacritics": "Ferencvaros",
    "subdivision": "PE",
    "status": 9,
    "function": [
      0,
      2
    ],
    "date": 901,
    "coordinates": {
      "lat": 47.46666666666667,
      "lon": 19.083333333333332
    }
  },
  {
    "country": "HU",
    "location": "FEO",
    "name": "Fertˆd",
    "nameWoDiacritics": "Fertod",
    "subdivision": "GS",
    "status": 7,
    "function": [
      2
    ],
    "date": 207,
    "coordinates": {
      "lat": 47.56666666666667,
      "lon": 16.883333333333333
    }
  },
  {
    "country": "HU",
    "location": "FZS",
    "name": "Fert?szentmiklÛs",
    "nameWoDiacritics": "Fert?szentmiklos",
    "subdivision": "GS",
    "status": 7,
    "function": [
      2
    ],
    "date": 1307,
    "coordinates": {
      "lat": 47.583333333333336,
      "lon": 16.883333333333333
    }
  },
  {
    "country": "HU",
    "location": "FER",
    "name": "Fertˆ˙jlak",
    "nameWoDiacritics": "Fertoujlak",
    "status": 7,
    "function": [
      1,
      2
    ],
    "date": 207,
    "coordinates": {
      "lat": 47.68333333333333,
      "lon": 16.866666666666667
    }
  },
  {
    "country": "HU",
    "location": "FEZ",
    "name": "FertrszentmiklÛs",
    "nameWoDiacritics": "Fertrszentmiklos",
    "subdivision": "GS",
    "status": 9,
    "function": [
      2
    ],
    "date": 501,
    "coordinates": {
      "lat": 47.56666666666667,
      "lon": 16.883333333333333
    }
  },
  {
    "country": "HU",
    "location": "FKT",
    "name": "Fokto",
    "nameWoDiacritics": "Fokto",
    "subdivision": "BK",
    "status": 7,
    "function": [
      2
    ],
    "date": 1601,
    "coordinates": {
      "lat": 46.516666666666666,
      "lon": 18.916666666666668
    }
  },
  {
    "country": "HU",
    "location": "FON",
    "name": "FonyÛd",
    "nameWoDiacritics": "Fonyod",
    "subdivision": "SO",
    "status": 7,
    "function": [
      2
    ],
    "date": 1607,
    "coordinates": {
      "lat": 46.733333333333334,
      "lon": 17.55
    }
  },
  {
    "country": "HU",
    "location": "FRR",
    "name": "Forr·sk˙t",
    "nameWoDiacritics": "Forraskut",
    "subdivision": "CS",
    "status": 7,
    "function": [
      2
    ],
    "date": 1801,
    "coordinates": {
      "lat": 46.36666666666667,
      "lon": 19.916666666666668
    }
  },
  {
    "country": "HU",
    "location": "FOT",
    "name": "FÛt",
    "nameWoDiacritics": "Fot",
    "subdivision": "PE",
    "status": 7,
    "function": [
      1,
      2
    ],
    "date": 501,
    "coordinates": {
      "lat": 47.61666666666667,
      "lon": 19.2
    }
  },
  {
    "country": "HU",
    "location": "FUY",
    "name": "Fuezesabony",
    "nameWoDiacritics": "Fuezesabony",
    "subdivision": "HE",
    "status": 9,
    "function": [
      5
    ],
    "date": 1001,
    "coordinates": {
      "lat": 48.25,
      "lon": 20.666666666666668
    }
  },
  {
    "country": "HU",
    "location": "FUO",
    "name": "F¸gˆd",
    "nameWoDiacritics": "Fugod",
    "subdivision": "BZ",
    "status": 7,
    "function": [
      2
    ],
    "date": 207,
    "coordinates": {
      "lat": 48.3,
      "lon": 21.1
    }
  },
  {
    "country": "HU",
    "location": "SBY",
    "name": "Fuzesabony",
    "nameWoDiacritics": "Fuzesabony",
    "subdivision": "KE",
    "status": 7,
    "function": [
      5
    ],
    "date": 1107,
    "coordinates": {
      "lat": 47.75,
      "lon": 20.416666666666668
    }
  },
  {
    "country": "HU",
    "location": "FYZ",
    "name": "F¸zesgyarmat",
    "nameWoDiacritics": "Fuzesgyarmat",
    "subdivision": "BE",
    "status": 7,
    "function": [
      1,
      2
    ],
    "date": 1201,
    "coordinates": {
      "lat": 47.1,
      "lon": 21.216666666666665
    }
  },
  {
    "country": "HU",
    "location": "FYT",
    "name": "F¸zfˆgy·rtelep",
    "nameWoDiacritics": "Fuzfogyartelep",
    "subdivision": "VE",
    "status": 7,
    "function": [
      2
    ],
    "date": 907,
    "coordinates": {
      "lat": 47.083333333333336,
      "lon": 18.033333333333335
    }
  },
  {
    "country": "HU",
    "location": "GDY",
    "name": "G·rdony",
    "nameWoDiacritics": "Gardony",
    "subdivision": "FE",
    "status": 7,
    "function": [
      2
    ],
    "date": 901,
    "coordinates": {
      "lat": 47.2,
      "lon": 18.65
    }
  },
  {
    "country": "HU",
    "location": "VCS",
    "name": "G·vavencsell?",
    "nameWoDiacritics": "Gavavencsell?",
    "subdivision": "SZ",
    "status": 7,
    "function": [
      2
    ],
    "date": 1801,
    "coordinates": {
      "lat": 48.166666666666664,
      "lon": 21.6
    }
  },
  {
    "country": "HU",
    "location": "GCS",
    "name": "Gecse",
    "nameWoDiacritics": "Gecse",
    "subdivision": "VM",
    "status": 7,
    "function": [
      2
    ],
    "date": 901,
    "coordinates": {
      "lat": 47.45,
      "lon": 17.533333333333335
    }
  },
  {
    "country": "HU",
    "location": "HAW",
    "name": "Gelej",
    "nameWoDiacritics": "Gelej",
    "subdivision": "BZ",
    "status": 7,
    "function": [
      5
    ],
    "date": 901,
    "coordinates": {
      "lat": 47.833333333333336,
      "lon": 20.783333333333335
    }
  },
  {
    "country": "HU",
    "location": "GER",
    "name": "Gerend·s",
    "nameWoDiacritics": "Gerendas",
    "subdivision": "BE",
    "status": 7,
    "function": [
      2
    ],
    "date": 907,
    "coordinates": {
      "lat": 0,
      "lon": 0
    }
  },
  {
    "country": "HU",
    "location": "GRL",
    "name": "Gerla",
    "nameWoDiacritics": "Gerla",
    "subdivision": "BE",
    "status": 7,
    "function": [
      2
    ],
    "date": 207,
    "coordinates": {
      "lat": 46.7,
      "lon": 21.183333333333334
    }
  },
  {
    "country": "HU",
    "location": "OOD",
    "name": "Gˆd",
    "nameWoDiacritics": "God",
    "subdivision": "PE",
    "status": 7,
    "function": [
      0,
      2
    ],
    "date": 901,
    "coordinates": {
      "lat": 47.7,
      "lon": 19.133333333333333
    }
  },
  {
    "country": "HU",
    "location": "GDL",
    "name": "Gˆdˆllˆ",
    "nameWoDiacritics": "Godollo",
    "subdivision": "PE",
    "status": 7,
    "function": [
      2
    ],
    "date": 1101,
    "coordinates": {
      "lat": 47.6,
      "lon": 19.366666666666667
    }
  },
  {
    "country": "HU",
    "location": "GOA",
    "name": "GÛg·nfa",
    "nameWoDiacritics": "Goganfa",
    "subdivision": "VE",
    "status": 7,
    "function": [
      1,
      2,
      5
    ],
    "date": 507,
    "coordinates": {
      "lat": 47.016666666666666,
      "lon": 17.183333333333334
    }
  },
  {
    "country": "HU",
    "location": "GOM",
    "name": "Gomba",
    "nameWoDiacritics": "Gomba",
    "subdivision": "PE",
    "status": 7,
    "function": [
      2
    ],
    "date": 1407,
    "coordinates": {
      "lat": 47.36666666666667,
      "lon": 19.533333333333335
    }
  },
  {
    "country": "HU",
    "location": "GNY",
    "name": "GÛny˙",
    "nameWoDiacritics": "Gonyu",
    "subdivision": "GS",
    "status": 7,
    "function": [
      0,
      2
    ],
    "date": 212,
    "coordinates": {
      "lat": 47.733333333333334,
      "lon": 17.833333333333332
    }
  },
  {
    "country": "HU",
    "location": "GOR",
    "name": "Gˆrbeh·za",
    "nameWoDiacritics": "Gorbehaza",
    "subdivision": "HB",
    "status": 7,
    "function": [
      2
    ],
    "date": 1301,
    "coordinates": {
      "lat": 47.81666666666667,
      "lon": 21.233333333333334
    }
  },
  {
    "country": "HU",
    "location": "GRG",
    "name": "Gˆrgeteg",
    "nameWoDiacritics": "Gorgeteg",
    "subdivision": "SO",
    "status": 7,
    "function": [
      2
    ],
    "date": 1501,
    "coordinates": {
      "lat": 46.15,
      "lon": 17.433333333333334
    }
  },
  {
    "country": "HU",
    "location": "GYL",
    "name": "Gy·l",
    "nameWoDiacritics": "Gyal",
    "subdivision": "PE",
    "status": 7,
    "function": [
      1,
      2
    ],
    "date": 212,
    "coordinates": {
      "lat": 47.38333333333333,
      "lon": 19.2
    }
  },
  {
    "country": "HU",
    "location": "GYE",
    "name": "Gyekenyes",
    "nameWoDiacritics": "Gyekenyes",
    "status": 12,
    "function": [
      1
    ],
    "date": 8202,
    "coordinates": {
      "lat": 0,
      "lon": 0
    }
  },
  {
    "country": "HU",
    "location": "GYH",
    "name": "Gyomaendrod",
    "nameWoDiacritics": "Gyomaendrod",
    "status": 9,
    "function": [
      2
    ],
    "date": 9501,
    "coordinates": {
      "lat": 0,
      "lon": 0
    }
  },
  {
    "country": "HU",
    "location": "GYR",
    "name": "Gyˆmrˆ",
    "nameWoDiacritics": "Gyomro",
    "subdivision": "PE",
    "status": 7,
    "function": [
      1
    ],
    "date": 207,
    "coordinates": {
      "lat": 47.416666666666664,
      "lon": 19.4
    }
  },
  {
    "country": "HU",
    "location": "GGY",
    "name": "Gyˆngyˆs",
    "nameWoDiacritics": "Gyongyos",
    "subdivision": "HE",
    "status": 7,
    "function": [
      1,
      2
    ],
    "date": 607,
    "coordinates": {
      "lat": 47.78333333333333,
      "lon": 19.916666666666668
    }
  },
  {
    "country": "HU",
    "location": "GGZ",
    "name": "Gyˆngyˆshal·sz",
    "nameWoDiacritics": "Gyongyoshalasz",
    "subdivision": "HE",
    "status": 7,
    "function": [
      2
    ],
    "date": 1807,
    "coordinates": {
      "lat": 47.733333333333334,
      "lon": 19.933333333333334
    }
  },
  {
    "country": "HU",
    "location": "GLM",
    "name": "Gyongyossolymos",
    "nameWoDiacritics": "Gyongyossolymos",
    "subdivision": "HE",
    "status": 7,
    "function": [
      2
    ],
    "date": 1601,
    "coordinates": {
      "lat": 47.81666666666667,
      "lon": 19.933333333333334
    }
  },
  {
    "country": "HU",
    "location": "GYJ",
    "name": "Gyˆngyˆst·rjan",
    "nameWoDiacritics": "Gyongyostarjan",
    "status": 7,
    "function": [
      2
    ],
    "date": 607,
    "coordinates": {
      "lat": 47.8,
      "lon": 19.866666666666667
    }
  },
  {
    "country": "HU",
    "location": "GYO",
    "name": "Gyor",
    "nameWoDiacritics": "Gyor",
    "subdivision": "GS",
    "status": 7,
    "function": [
      0,
      1
    ],
    "date": 2007,
    "coordinates": {
      "lat": 47.68333333333333,
      "lon": 17.633333333333333
    }
  },
  {
    "country": "HU",
    "location": "GYD",
    "name": "GyˆrladamÈr",
    "nameWoDiacritics": "Gyorladamer",
    "subdivision": "GS",
    "status": 7,
    "function": [
      2
    ],
    "date": 1201,
    "coordinates": {
      "lat": 47.75,
      "lon": 17.566666666666666
    }
  },
  {
    "country": "HU",
    "location": "GYZ",
    "name": "Gyorszemere",
    "nameWoDiacritics": "Gyorszemere",
    "subdivision": "GS",
    "status": 7,
    "function": [
      2
    ],
    "date": 1707,
    "coordinates": {
      "lat": 47.55,
      "lon": 17.566666666666666
    }
  },
  {
    "country": "HU",
    "location": "GYU",
    "name": "Gyula",
    "nameWoDiacritics": "Gyula",
    "status": 12,
    "function": [
      2
    ],
    "date": 8202,
    "coordinates": {
      "lat": 0,
      "lon": 0
    }
  },
  {
    "country": "HU",
    "location": "HAJ",
    "name": "Hajd˙bˆszˆrmÈny",
    "nameWoDiacritics": "Hajduboszormeny",
    "subdivision": "HB",
    "status": 7,
    "function": [
      2
    ],
    "date": 212,
    "coordinates": {
      "lat": 47.666666666666664,
      "lon": 21.516666666666666
    }
  },
  {
    "country": "HU",
    "location": "HDR",
    "name": "Hajd˙n·n·s",
    "nameWoDiacritics": "Hajdunanas",
    "subdivision": "HB",
    "status": 7,
    "function": [
      2
    ],
    "date": 1301,
    "coordinates": {
      "lat": 47.85,
      "lon": 21.433333333333334
    }
  },
  {
    "country": "HU",
    "location": "HJS",
    "name": "Hajd˙s·mson",
    "nameWoDiacritics": "Hajdusamson",
    "subdivision": "HB",
    "status": 7,
    "function": [
      2
    ],
    "date": 1307,
    "coordinates": {
      "lat": 47.6,
      "lon": 21.766666666666666
    }
  },
  {
    "country": "HU",
    "location": "HSZ",
    "name": "Hajd˙szoboszlÛ",
    "nameWoDiacritics": "Hajduszoboszlo",
    "subdivision": "HB",
    "status": 7,
    "function": [
      2
    ],
    "date": 1607,
    "coordinates": {
      "lat": 47.45,
      "lon": 21.4
    }
  },
  {
    "country": "HU",
    "location": "HJM",
    "name": "Hajm·skÈr",
    "nameWoDiacritics": "Hajmasker",
    "subdivision": "VE",
    "status": 7,
    "function": [
      2
    ],
    "date": 1601,
    "coordinates": {
      "lat": 47.15,
      "lon": 18.016666666666666
    }
  },
  {
    "country": "HU",
    "location": "AJS",
    "name": "Hajos",
    "nameWoDiacritics": "Hajos",
    "subdivision": "BK",
    "status": 7,
    "function": [
      2
    ],
    "date": 1601,
    "coordinates": {
      "lat": 46.38333333333333,
      "lon": 19.116666666666667
    }
  },
  {
    "country": "HU",
    "location": "GHH",
    "name": "Hal·szi",
    "nameWoDiacritics": "Halaszi",
    "subdivision": "GS",
    "status": 7,
    "function": [
      2
    ],
    "date": 1607,
    "coordinates": {
      "lat": 47.88333333333333,
      "lon": 17.333333333333332
    }
  },
  {
    "country": "HU",
    "location": "HAB",
    "name": "Hal·sztelek",
    "nameWoDiacritics": "Halasztelek",
    "subdivision": "BK",
    "status": 7,
    "function": [
      2
    ],
    "date": 307,
    "coordinates": {
      "lat": 47.016666666666666,
      "lon": 19.033333333333335
    }
  },
  {
    "country": "HU",
    "location": "HAL",
    "name": "Hal·sztelek",
    "nameWoDiacritics": "Halasztelek",
    "subdivision": "PE",
    "status": 7,
    "function": [
      0,
      2
    ],
    "date": 307,
    "coordinates": {
      "lat": 47.36666666666667,
      "lon": 18.983333333333334
    }
  },
  {
    "country": "HU",
    "location": "HKY",
    "name": "Harkany",
    "nameWoDiacritics": "Harkany",
    "subdivision": "BA",
    "status": 4,
    "function": [
      2
    ],
    "date": 2201,
    "coordinates": {
      "lat": 45.833333333333336,
      "lon": 18.233333333333334
    }
  },
  {
    "country": "HU",
    "location": "HRT",
    "name": "Harta",
    "nameWoDiacritics": "Harta",
    "subdivision": "BK",
    "status": 7,
    "function": [
      0
    ],
    "date": 1401,
    "coordinates": {
      "lat": 46.68333333333333,
      "lon": 19.016666666666666
    }
  },
  {
    "country": "HU",
    "location": "HRY",
    "name": "Hater",
    "nameWoDiacritics": "Hater",
    "status": 7,
    "function": [
      2
    ],
    "date": 9805,
    "coordinates": {
      "lat": 0,
      "lon": 0
    }
  },
  {
    "country": "HU",
    "location": "HAT",
    "name": "Hatvan",
    "nameWoDiacritics": "Hatvan",
    "status": 9,
    "function": [
      0
    ],
    "date": 9307,
    "coordinates": {
      "lat": 0,
      "lon": 0
    }
  },
  {
    "country": "HU",
    "location": "HEG",
    "name": "Hegyeshalom",
    "nameWoDiacritics": "Hegyeshalom",
    "status": 12,
    "function": [
      1,
      2
    ],
    "date": 8202,
    "coordinates": {
      "lat": 0,
      "lon": 0
    }
  },
  {
    "country": "HU",
    "location": "HYF",
    "name": "Hegyfalu",
    "nameWoDiacritics": "Hegyfalu",
    "subdivision": "VA",
    "status": 7,
    "function": [
      0,
      5
    ],
    "date": 1107,
    "coordinates": {
      "lat": 47.35,
      "lon": 16.883333333333333
    }
  },
  {
    "country": "HU",
    "location": "HE5",
    "name": "Hegymagas",
    "nameWoDiacritics": "Hegymagas",
    "subdivision": "VE",
    "status": 7,
    "function": [
      2
    ],
    "date": 1807,
    "coordinates": {
      "lat": 46.833333333333336,
      "lon": 17.433333333333334
    }
  },
  {
    "country": "HU",
    "location": "HJB",
    "name": "Hejob·ba",
    "nameWoDiacritics": "Hejobaba",
    "subdivision": "BZ",
    "status": 7,
    "function": [
      2
    ],
    "date": 1301,
    "coordinates": {
      "lat": 47.9,
      "lon": 20.95
    }
  },
  {
    "country": "HU",
    "location": "HAX",
    "name": "Hejokurt",
    "nameWoDiacritics": "Hejokurt",
    "subdivision": "BZ",
    "status": 7,
    "function": [
      5
    ],
    "date": 901,
    "coordinates": {
      "lat": 47.86666666666667,
      "lon": 21
    }
  },
  {
    "country": "HU",
    "location": "HCD",
    "name": "Hencida",
    "nameWoDiacritics": "Hencida",
    "subdivision": "HB",
    "status": 7,
    "function": [
      2
    ],
    "date": 1301,
    "coordinates": {
      "lat": 47.25,
      "lon": 21.7
    }
  },
  {
    "country": "HU",
    "location": "HGO",
    "name": "Herceghalom",
    "nameWoDiacritics": "Herceghalom",
    "subdivision": "PE",
    "status": 7,
    "function": [
      2
    ],
    "date": 701,
    "coordinates": {
      "lat": 47.5,
      "lon": 18.75
    }
  },
  {
    "country": "HU",
    "location": "HER",
    "name": "Hercegsz·ntÛ",
    "nameWoDiacritics": "Hercegszanto",
    "status": 7,
    "function": [
      2
    ],
    "date": 212,
    "coordinates": {
      "lat": 45.95,
      "lon": 18.933333333333334
    }
  },
  {
    "country": "HU",
    "location": "HGN",
    "name": "Hern·d",
    "nameWoDiacritics": "Hernad",
    "subdivision": "PE",
    "status": 7,
    "function": [
      2
    ],
    "date": 1701,
    "coordinates": {
      "lat": 47.166666666666664,
      "lon": 19.433333333333334
    }
  },
  {
    "country": "HU",
    "location": "HEV",
    "name": "Heves",
    "nameWoDiacritics": "Heves",
    "subdivision": "HE",
    "status": 7,
    "function": [
      1,
      2,
      5
    ],
    "date": 501,
    "coordinates": {
      "lat": 47.6,
      "lon": 20.283333333333335
    }
  },
  {
    "country": "HU",
    "location": "HEZ",
    "name": "Heviz",
    "nameWoDiacritics": "Heviz",
    "subdivision": "ZA",
    "status": 7,
    "function": [
      2
    ],
    "date": 1301,
    "coordinates": {
      "lat": 46.78333333333333,
      "lon": 17.183333333333334
    }
  },
  {
    "country": "HU",
    "location": "HIS",
    "name": "HidasnÈmeti",
    "nameWoDiacritics": "Hidasnemeti",
    "status": 7,
    "function": [
      1
    ],
    "date": 212,
    "coordinates": {
      "lat": 48.5,
      "lon": 21.233333333333334
    }
  },
  {
    "country": "HU",
    "location": "HDM",
    "name": "HÛdmezov·s·rhely",
    "nameWoDiacritics": "Hodmezovasarhely",
    "subdivision": "CS",
    "status": 7,
    "function": [
      1,
      2
    ],
    "date": 907,
    "coordinates": {
      "lat": 46.416666666666664,
      "lon": 20.333333333333332
    }
  },
  {
    "country": "HU",
    "location": "HRZ",
    "name": "Hort",
    "nameWoDiacritics": "Hort",
    "subdivision": "HE",
    "status": 7,
    "function": [
      2
    ],
    "date": 1407,
    "coordinates": {
      "lat": 47.7,
      "lon": 19.783333333333335
    }
  },
  {
    "country": "HU",
    "location": "HOS",
    "name": "Hossz˙pereszteg",
    "nameWoDiacritics": "Hosszupereszteg",
    "subdivision": "VA",
    "status": 7,
    "function": [
      2
    ],
    "date": 1301,
    "coordinates": {
      "lat": 47.1,
      "lon": 17.016666666666666
    }
  },
  {
    "country": "HU",
    "location": "BRY",
    "name": "Ibr·ny",
    "nameWoDiacritics": "Ibrany",
    "subdivision": "SZ",
    "status": 7,
    "function": [
      2
    ],
    "date": 1301,
    "coordinates": {
      "lat": 48.13333333333333,
      "lon": 21.716666666666665
    }
  },
  {
    "country": "HU",
    "location": "IGA",
    "name": "Igal",
    "nameWoDiacritics": "Igal",
    "subdivision": "SO",
    "status": 7,
    "function": [
      2
    ],
    "date": 2001,
    "coordinates": {
      "lat": 46.53333333333333,
      "lon": 17.95
    }
  },
  {
    "country": "HU",
    "location": "IGI",
    "name": "Igrici",
    "nameWoDiacritics": "Igrici",
    "subdivision": "BZ",
    "status": 7,
    "function": [
      2
    ],
    "date": 1701,
    "coordinates": {
      "lat": 47.86666666666667,
      "lon": 20.883333333333333
    }
  },
  {
    "country": "HU",
    "location": "ILD",
    "name": "Iklad",
    "nameWoDiacritics": "Iklad",
    "subdivision": "PE",
    "status": 7,
    "function": [
      5
    ],
    "date": 901,
    "coordinates": {
      "lat": 47.666666666666664,
      "lon": 19.45
    }
  },
  {
    "country": "HU",
    "location": "IGY",
    "name": "Imrehegy",
    "nameWoDiacritics": "Imrehegy",
    "subdivision": "BK",
    "status": 7,
    "function": [
      2
    ],
    "date": 1707,
    "coordinates": {
      "lat": 46.483333333333334,
      "lon": 19.316666666666666
    }
  },
  {
    "country": "HU",
    "location": "INA",
    "name": "In·rcs",
    "nameWoDiacritics": "Inarcs",
    "subdivision": "PE",
    "status": 7,
    "function": [
      2
    ],
    "date": 1601,
    "coordinates": {
      "lat": 47.266666666666666,
      "lon": 19.333333333333332
    }
  },
  {
    "country": "HU",
    "location": "IPO",
    "name": "IpolytarnÛc",
    "nameWoDiacritics": "Ipolytarnoc",
    "status": 7,
    "function": [
      1,
      2
    ],
    "date": 212,
    "coordinates": {
      "lat": 48.233333333333334,
      "lon": 19.633333333333333
    }
  },
  {
    "country": "HU",
    "location": "IPS",
    "name": "Ipolytˆlgyes",
    "nameWoDiacritics": "Ipolytolgyes",
    "subdivision": "PE",
    "status": 7,
    "function": [
      2
    ],
    "date": 207,
    "coordinates": {
      "lat": 47.916666666666664,
      "lon": 18.766666666666666
    }
  },
  {
    "country": "HU",
    "location": "SPE",
    "name": "Isaszeg",
    "nameWoDiacritics": "Isaszeg",
    "subdivision": "PE",
    "status": 7,
    "function": [
      2
    ],
    "date": 1207,
    "coordinates": {
      "lat": 47.53333333333333,
      "lon": 19.4
    }
  },
  {
    "country": "HU",
    "location": "IZY",
    "name": "Iszkaszentgyˆrgy",
    "nameWoDiacritics": "Iszkaszentgyorgy",
    "subdivision": "FE",
    "status": 7,
    "function": [
      5
    ],
    "date": 901,
    "coordinates": {
      "lat": 47.233333333333334,
      "lon": 18.3
    }
  },
  {
    "country": "HU",
    "location": "IVA",
    "name": "Ivan",
    "nameWoDiacritics": "Ivan",
    "subdivision": "GS",
    "status": 9,
    "function": [
      2
    ],
    "date": 901,
    "coordinates": {
      "lat": 47.45,
      "lon": 16.916666666666668
    }
  },
  {
    "country": "HU",
    "location": "IVS",
    "name": "Iv·ncsa",
    "nameWoDiacritics": "Ivancsa",
    "subdivision": "FE",
    "status": 7,
    "function": [
      2
    ],
    "date": 1607,
    "coordinates": {
      "lat": 47.15,
      "lon": 18.816666666666666
    }
  },
  {
    "country": "HU",
    "location": "IZK",
    "name": "Izs·k",
    "nameWoDiacritics": "Izsak",
    "subdivision": "BK",
    "status": 7,
    "function": [
      2
    ],
    "date": 701,
    "coordinates": {
      "lat": 46.8,
      "lon": 19.35
    }
  },
  {
    "country": "HU",
    "location": "BZI",
    "name": "Izsofalva",
    "nameWoDiacritics": "Izsofalva",
    "subdivision": "BZ",
    "status": 9,
    "function": [
      5
    ],
    "date": 907,
    "coordinates": {
      "lat": 48.3,
      "lon": 20.666666666666668
    }
  },
  {
    "country": "HU",
    "location": "VJA",
    "name": "J·kfa",
    "nameWoDiacritics": "Jakfa",
    "subdivision": "VA",
    "status": 7,
    "function": [
      2
    ],
    "date": 1801,
    "coordinates": {
      "lat": 47.333333333333336,
      "lon": 16.966666666666665
    }
  },
  {
    "country": "HU",
    "location": "JAO",
    "name": "J·noshalma",
    "nameWoDiacritics": "Janoshalma",
    "subdivision": "BK",
    "status": 7,
    "function": [
      2
    ],
    "date": 212,
    "coordinates": {
      "lat": 46.3,
      "lon": 19.316666666666666
    }
  },
  {
    "country": "HU",
    "location": "JHA",
    "name": "J·nosh·za",
    "nameWoDiacritics": "Janoshaza",
    "status": 7,
    "function": [
      1,
      2
    ],
    "date": 607,
    "coordinates": {
      "lat": 47.11666666666667,
      "lon": 17.166666666666668
    }
  },
  {
    "country": "HU",
    "location": "JAN",
    "name": "J·nossomorja",
    "nameWoDiacritics": "Janossomorja",
    "subdivision": "GS",
    "status": 7,
    "function": [
      1,
      2
    ],
    "date": 401,
    "coordinates": {
      "lat": 47.8,
      "lon": 17.116666666666667
    }
  },
  {
    "country": "HU",
    "location": "JSZ",
    "name": "J·szap·ti",
    "nameWoDiacritics": "Jaszapati",
    "status": 7,
    "function": [
      1,
      2
    ],
    "date": 601,
    "coordinates": {
      "lat": 47.5,
      "lon": 20.15
    }
  },
  {
    "country": "HU",
    "location": "JKZ",
    "name": "J·sz·roksz·ll·s",
    "nameWoDiacritics": "Jaszarokszallas",
    "status": 7,
    "function": [
      0,
      1,
      2
    ],
    "date": 601,
    "coordinates": {
      "lat": 47.63333333333333,
      "lon": 19.966666666666665
    }
  },
  {
    "country": "HU",
    "location": "JAS",
    "name": "J·szberÈny",
    "nameWoDiacritics": "Jaszbereny",
    "status": 7,
    "function": [
      1,
      2
    ],
    "date": 507,
    "coordinates": {
      "lat": 47.483333333333334,
      "lon": 19.9
    }
  },
  {
    "country": "HU",
    "location": "JAF",
    "name": "J·szfÈnyszaru",
    "nameWoDiacritics": "Jaszfenyszaru",
    "subdivision": "JN",
    "status": 7,
    "function": [
      1,
      2
    ],
    "date": 212,
    "coordinates": {
      "lat": 47.56666666666667,
      "lon": 19.716666666666665
    }
  },
  {
    "country": "HU",
    "location": "LEK",
    "name": "J·sztelek",
    "nameWoDiacritics": "Jasztelek",
    "subdivision": "JN",
    "status": 7,
    "function": [
      2
    ],
    "date": 1801,
    "coordinates": {
      "lat": 47.483333333333334,
      "lon": 20
    }
  },
  {
    "country": "HU",
    "location": "KAB",
    "name": "Kaba",
    "nameWoDiacritics": "Kaba",
    "subdivision": "HB",
    "status": 7,
    "function": [
      1,
      2
    ],
    "date": 507,
    "coordinates": {
      "lat": 47.35,
      "lon": 21.283333333333335
    }
  },
  {
    "country": "HU",
    "location": "KDK",
    "name": "Kadarkut",
    "nameWoDiacritics": "Kadarkut",
    "subdivision": "SO",
    "status": 4,
    "function": [
      2
    ],
    "date": 2201,
    "coordinates": {
      "lat": 46.233333333333334,
      "lon": 17.633333333333333
    }
  },
  {
    "country": "HU",
    "location": "KJZ",
    "name": "Kajaszo",
    "nameWoDiacritics": "Kajaszo",
    "subdivision": "FE",
    "status": 9,
    "function": [
      2
    ],
    "date": 907,
    "coordinates": {
      "lat": 47.31666666666667,
      "lon": 18.733333333333334
    }
  },
  {
    "country": "HU",
    "location": "KAL",
    "name": "K·l",
    "nameWoDiacritics": "Kal",
    "subdivision": "HE",
    "status": 7,
    "function": [
      2
    ],
    "date": 1301,
    "coordinates": {
      "lat": 47.71666666666667,
      "lon": 20.25
    }
  },
  {
    "country": "HU",
    "location": "KCO",
    "name": "Kalocsa",
    "nameWoDiacritics": "Kalocsa",
    "subdivision": "BK",
    "status": 7,
    "function": [
      0,
      1,
      2
    ],
    "date": 212,
    "coordinates": {
      "lat": 46.516666666666666,
      "lon": 19
    }
  },
  {
    "country": "HU",
    "location": "KAP",
    "name": "Kaposfo",
    "nameWoDiacritics": "Kaposfo",
    "subdivision": "SO",
    "status": 7,
    "function": [
      2
    ],
    "date": 1301,
    "coordinates": {
      "lat": 46.35,
      "lon": 17.65
    }
  },
  {
    "country": "HU",
    "location": "KPK",
    "name": "Kapos˙jlak",
    "nameWoDiacritics": "Kaposujlak",
    "subdivision": "SO",
    "status": 7,
    "function": [
      2
    ],
    "date": 1601,
    "coordinates": {
      "lat": 46.36666666666667,
      "lon": 17.733333333333334
    }
  },
  {
    "country": "HU",
    "location": "KPS",
    "name": "Kaposv·r",
    "nameWoDiacritics": "Kaposvar",
    "status": 7,
    "function": [
      2
    ],
    "date": 212,
    "coordinates": {
      "lat": 46.36666666666667,
      "lon": 17.8
    }
  },
  {
    "country": "HU",
    "location": "KPT",
    "name": "K·ptalantÛti",
    "nameWoDiacritics": "Kaptalantoti",
    "subdivision": "VE",
    "status": 7,
    "function": [
      2
    ],
    "date": 1707,
    "coordinates": {
      "lat": 46.85,
      "lon": 17.516666666666666
    }
  },
  {
    "country": "HU",
    "location": "KVP",
    "name": "Kapuv·r",
    "nameWoDiacritics": "Kapuvar",
    "status": 7,
    "function": [
      2
    ],
    "date": 212,
    "coordinates": {
      "lat": 47.6,
      "lon": 17.033333333333335
    }
  },
  {
    "country": "HU",
    "location": "KAR",
    "name": "Karcag",
    "nameWoDiacritics": "Karcag",
    "subdivision": "JN",
    "status": 7,
    "function": [
      0,
      1,
      2
    ],
    "date": 207,
    "coordinates": {
      "lat": 47.3,
      "lon": 20.916666666666668
    }
  },
  {
    "country": "HU",
    "location": "KAT",
    "name": "Kartal",
    "nameWoDiacritics": "Kartal",
    "subdivision": "PE",
    "status": 7,
    "function": [
      2
    ],
    "date": 1301,
    "coordinates": {
      "lat": 47.666666666666664,
      "lon": 19.55
    }
  },
  {
    "country": "HU",
    "location": "CSK",
    "name": "Kaszok",
    "nameWoDiacritics": "Kaszok",
    "subdivision": "BK",
    "status": 9,
    "function": [
      2
    ],
    "date": 901,
    "coordinates": {
      "lat": 0,
      "lon": 0
    }
  },
  {
    "country": "HU",
    "location": "KAZ",
    "name": "Kazincbarcika",
    "nameWoDiacritics": "Kazincbarcika",
    "subdivision": "BZ",
    "status": 7,
    "function": [
      1,
      2
    ],
    "date": 207,
    "coordinates": {
      "lat": 48.25,
      "lon": 20.65
    }
  },
  {
    "country": "HU",
    "location": "XEL",
    "name": "Kecel",
    "nameWoDiacritics": "Kecel",
    "subdivision": "BK",
    "status": 7,
    "function": [
      0,
      5
    ],
    "date": 1107,
    "coordinates": {
      "lat": 0,
      "lon": 0
    }
  },
  {
    "country": "HU",
    "location": "CKS",
    "name": "KecskÈd",
    "nameWoDiacritics": "Kecsked",
    "subdivision": "KE",
    "status": 7,
    "function": [
      2
    ],
    "date": 1407,
    "coordinates": {
      "lat": 47.516666666666666,
      "lon": 18.316666666666666
    }
  },
  {
    "country": "HU",
    "location": "KCS",
    "name": "Kecskemet",
    "nameWoDiacritics": "Kecskemet",
    "status": 12,
    "function": [
      0
    ],
    "coordinates": {
      "lat": 0,
      "lon": 0
    }
  },
  {
    "country": "HU",
    "location": "KKU",
    "name": "Kekkut",
    "nameWoDiacritics": "Kekkut",
    "subdivision": "VE",
    "status": 7,
    "function": [
      0,
      5
    ],
    "date": 901,
    "coordinates": {
      "lat": 46.85,
      "lon": 17.566666666666666
    }
  },
  {
    "country": "HU",
    "location": "KEL",
    "name": "Kelebia",
    "nameWoDiacritics": "Kelebia",
    "status": 12,
    "function": [
      1
    ],
    "date": 8202,
    "coordinates": {
      "lat": 0,
      "lon": 0
    }
  },
  {
    "country": "HU",
    "location": "VES",
    "name": "Kemenesh?gyÈsz",
    "nameWoDiacritics": "Kemenesh?gyesz",
    "subdivision": "VE",
    "status": 7,
    "function": [
      2
    ],
    "date": 1307,
    "coordinates": {
      "lat": 47.35,
      "lon": 17.3
    }
  },
  {
    "country": "HU",
    "location": "KEM",
    "name": "Kemenesk·polna",
    "nameWoDiacritics": "Kemeneskapolna",
    "subdivision": "VA",
    "status": 7,
    "function": [
      2
    ],
    "date": 1301,
    "coordinates": {
      "lat": 47.2,
      "lon": 17.116666666666667
    }
  },
  {
    "country": "HU",
    "location": "KMS",
    "name": "KemenessˆmjÈn",
    "nameWoDiacritics": "Kemenessomjen",
    "subdivision": "VA",
    "status": 7,
    "function": [
      2
    ],
    "date": 1901,
    "coordinates": {
      "lat": 47.3,
      "lon": 17.133333333333333
    }
  },
  {
    "country": "HU",
    "location": "KGY",
    "name": "Kerekegyh·za",
    "nameWoDiacritics": "Kerekegyhaza",
    "status": 9,
    "function": [
      2
    ],
    "date": 607,
    "coordinates": {
      "lat": 46.93333333333333,
      "lon": 19.483333333333334
    }
  },
  {
    "country": "HU",
    "location": "KRK",
    "name": "Kereki",
    "nameWoDiacritics": "Kereki",
    "status": 9,
    "function": [
      2
    ],
    "date": 607,
    "coordinates": {
      "lat": 47.333333333333336,
      "lon": 18.516666666666666
    }
  },
  {
    "country": "HU",
    "location": "KRS",
    "name": "Kerepes",
    "nameWoDiacritics": "Kerepes",
    "subdivision": "PE",
    "status": 9,
    "function": [
      5
    ],
    "date": 1001,
    "coordinates": {
      "lat": 47.53333333333333,
      "lon": 19.266666666666666
    }
  },
  {
    "country": "HU",
    "location": "KPE",
    "name": "Kerepestarcsa",
    "nameWoDiacritics": "Kerepestarcsa",
    "subdivision": "PE",
    "status": 7,
    "function": [
      2
    ],
    "date": 701,
    "coordinates": {
      "lat": 47.56666666666667,
      "lon": 19.266666666666666
    }
  },
  {
    "country": "HU",
    "location": "KER",
    "name": "Kernye",
    "nameWoDiacritics": "Kernye",
    "status": 7,
    "function": [
      2
    ],
    "date": 201,
    "coordinates": {
      "lat": 47.016666666666666,
      "lon": 21.166666666666668
    }
  },
  {
    "country": "HU",
    "location": "KEZ",
    "name": "Keszthely",
    "nameWoDiacritics": "Keszthely",
    "subdivision": "ZA",
    "status": 7,
    "function": [
      1,
      2
    ],
    "date": 207,
    "coordinates": {
      "lat": 46.766666666666666,
      "lon": 17.25
    }
  },
  {
    "country": "HU",
    "location": "KET",
    "name": "Ketegyhaza",
    "nameWoDiacritics": "Ketegyhaza",
    "subdivision": "BE",
    "status": 9,
    "function": [
      0,
      2
    ],
    "date": 901,
    "coordinates": {
      "lat": 0,
      "lon": 0
    }
  },
  {
    "country": "HU",
    "location": "KHY",
    "name": "KÈthely",
    "nameWoDiacritics": "Kethely",
    "subdivision": "SO",
    "status": 7,
    "function": [
      2
    ],
    "date": 701,
    "coordinates": {
      "lat": 46.65,
      "lon": 17.383333333333333
    }
  },
  {
    "country": "HU",
    "location": "KVE",
    "name": "Kevermes",
    "nameWoDiacritics": "Kevermes",
    "subdivision": "BE",
    "status": 7,
    "function": [
      2
    ],
    "date": 207,
    "coordinates": {
      "lat": 46.4,
      "lon": 21.183333333333334
    }
  },
  {
    "country": "HU",
    "location": "KIM",
    "name": "Kimle",
    "nameWoDiacritics": "Kimle",
    "subdivision": "GS",
    "status": 7,
    "function": [
      2
    ],
    "date": 1407,
    "coordinates": {
      "lat": 47.833333333333336,
      "lon": 17.366666666666667
    }
  },
  {
    "country": "HU",
    "location": "KIR",
    "name": "Kir·ld",
    "nameWoDiacritics": "Kirald",
    "subdivision": "BZ",
    "status": 7,
    "function": [
      1,
      2
    ],
    "date": 1201,
    "coordinates": {
      "lat": 48.25,
      "lon": 20.4
    }
  },
  {
    "country": "HU",
    "location": "KBJ",
    "name": "Kisbajcs",
    "nameWoDiacritics": "Kisbajcs",
    "subdivision": "GS",
    "status": 7,
    "function": [
      2
    ],
    "date": 1407,
    "coordinates": {
      "lat": 47.75,
      "lon": 17.683333333333334
    }
  },
  {
    "country": "HU",
    "location": "KBO",
    "name": "Kisbajom",
    "nameWoDiacritics": "Kisbajom",
    "subdivision": "SO",
    "status": 7,
    "function": [
      2
    ],
    "date": 1801,
    "coordinates": {
      "lat": 46.3,
      "lon": 17.5
    }
  },
  {
    "country": "HU",
    "location": "KBR",
    "name": "Kisber",
    "nameWoDiacritics": "Kisber",
    "subdivision": "KE",
    "status": 9,
    "function": [
      5
    ],
    "date": 1001,
    "coordinates": {
      "lat": 47.5,
      "lon": 18.033333333333335
    }
  },
  {
    "country": "HU",
    "location": "KGD",
    "name": "Kisigm·nd",
    "nameWoDiacritics": "Kisigmand",
    "subdivision": "KE",
    "status": 7,
    "function": [
      2
    ],
    "date": 1607,
    "coordinates": {
      "lat": 47.65,
      "lon": 18.1
    }
  },
  {
    "country": "HU",
    "location": "KKS",
    "name": "Kiskırˆs",
    "nameWoDiacritics": "Kiskoros",
    "subdivision": "BK",
    "status": 7,
    "function": [
      1,
      2
    ],
    "date": 907,
    "coordinates": {
      "lat": 46.61666666666667,
      "lon": 19.283333333333335
    }
  },
  {
    "country": "HU",
    "location": "KPD",
    "name": "Kiskorp·d",
    "nameWoDiacritics": "Kiskorpad",
    "subdivision": "SO",
    "status": 7,
    "function": [
      2
    ],
    "date": 1701,
    "coordinates": {
      "lat": 46.35,
      "lon": 17.616666666666667
    }
  },
  {
    "country": "HU",
    "location": "KIS",
    "name": "KiskunfÈlegyh·za",
    "nameWoDiacritics": "Kiskunfelegyhaza",
    "status": 7,
    "function": [
      2
    ],
    "date": 212,
    "coordinates": {
      "lat": 46.71666666666667,
      "lon": 19.85
    }
  },
  {
    "country": "HU",
    "location": "KSK",
    "name": "Kiskunhalas",
    "nameWoDiacritics": "Kiskunhalas",
    "status": 12,
    "function": [
      0
    ],
    "coordinates": {
      "lat": 0,
      "lon": 0
    }
  },
  {
    "country": "HU",
    "location": "ZHA",
    "name": "Kiskunlach·za",
    "nameWoDiacritics": "Kiskunlachaza",
    "subdivision": "PE",
    "status": 9,
    "function": [
      5
    ],
    "date": 907,
    "coordinates": {
      "lat": 47.2,
      "lon": 19.016666666666666
    }
  },
  {
    "country": "HU",
    "location": "ZHK",
    "name": "Kiskunlach·za",
    "nameWoDiacritics": "Kiskunlachaza",
    "subdivision": "PE",
    "status": 7,
    "function": [
      2
    ],
    "date": 1307,
    "coordinates": {
      "lat": 47.2,
      "lon": 19.016666666666666
    }
  },
  {
    "country": "HU",
    "location": "KMJ",
    "name": "Kiskunmajsa",
    "nameWoDiacritics": "Kiskunmajsa",
    "status": 9,
    "function": [
      2,
      5
    ],
    "date": 607,
    "coordinates": {
      "lat": 46.483333333333334,
      "lon": 13.733333333333333
    }
  },
  {
    "country": "HU",
    "location": "KSJ",
    "name": "Kismarj",
    "nameWoDiacritics": "Kismarj",
    "subdivision": "HB",
    "status": 7,
    "function": [
      2
    ],
    "date": 1501,
    "coordinates": {
      "lat": 47.25,
      "lon": 21.833333333333332
    }
  },
  {
    "country": "HU",
    "location": "KIT",
    "name": "Kistarcsa",
    "nameWoDiacritics": "Kistarcsa",
    "subdivision": "KE",
    "status": 7,
    "function": [
      2
    ],
    "date": 407,
    "coordinates": {
      "lat": 47.53333333333333,
      "lon": 17.933333333333334
    }
  },
  {
    "country": "HU",
    "location": "KLK",
    "name": "Kistelek",
    "nameWoDiacritics": "Kistelek",
    "subdivision": "CS",
    "status": 7,
    "function": [
      1,
      2
    ],
    "date": 207,
    "coordinates": {
      "lat": 46.46666666666667,
      "lon": 19.966666666666665
    }
  },
  {
    "country": "HU",
    "location": "KTJ",
    "name": "Kistokaj",
    "nameWoDiacritics": "Kistokaj",
    "subdivision": "BZ",
    "status": 7,
    "function": [
      2
    ],
    "date": 1707,
    "coordinates": {
      "lat": 48.05,
      "lon": 20.85
    }
  },
  {
    "country": "HU",
    "location": "KJA",
    "name": "Kis˙jsz·ll·s",
    "nameWoDiacritics": "Kisujszallas",
    "subdivision": "JN",
    "status": 7,
    "function": [
      2
    ],
    "date": 1301,
    "coordinates": {
      "lat": 47.21666666666667,
      "lon": 20.766666666666666
    }
  },
  {
    "country": "HU",
    "location": "KIA",
    "name": "Kisv·rda",
    "nameWoDiacritics": "Kisvarda",
    "subdivision": "SZ",
    "status": 7,
    "function": [
      0,
      1,
      2
    ],
    "date": 212,
    "coordinates": {
      "lat": 48.21666666666667,
      "lon": 22.066666666666666
    }
  },
  {
    "country": "HU",
    "location": "KZR",
    "name": "Kiszombor",
    "nameWoDiacritics": "Kiszombor",
    "subdivision": "CS",
    "status": 9,
    "function": [
      5
    ],
    "date": 1001,
    "coordinates": {
      "lat": 46.18333333333333,
      "lon": 20.433333333333334
    }
  },
  {
    "country": "HU",
    "location": "KSR",
    "name": "KocsÈr",
    "nameWoDiacritics": "Kocser",
    "subdivision": "PE",
    "status": 9,
    "function": [
      5
    ],
    "date": 1001,
    "coordinates": {
      "lat": 47,
      "lon": 19.9
    }
  },
  {
    "country": "HU",
    "location": "KOK",
    "name": "KÛka",
    "nameWoDiacritics": "Koka",
    "subdivision": "PE",
    "status": 7,
    "function": [
      2
    ],
    "date": 1301,
    "coordinates": {
      "lat": 47.483333333333334,
      "lon": 19.583333333333332
    }
  },
  {
    "country": "HU",
    "location": "KOM",
    "name": "Kom·rom",
    "nameWoDiacritics": "Komarom",
    "status": 7,
    "function": [
      0,
      1,
      2
    ],
    "date": 212,
    "coordinates": {
      "lat": 47.733333333333334,
      "lon": 18.116666666666667
    }
  },
  {
    "country": "HU",
    "location": "KLO",
    "name": "KomlÛ",
    "nameWoDiacritics": "Komlo",
    "subdivision": "BA",
    "status": 7,
    "function": [
      2
    ],
    "date": 1607,
    "coordinates": {
      "lat": 46.2,
      "lon": 18.266666666666666
    }
  },
  {
    "country": "HU",
    "location": "KML",
    "name": "Kˆmlo",
    "nameWoDiacritics": "Komlo",
    "subdivision": "HE",
    "status": 7,
    "function": [
      2
    ],
    "date": 1607,
    "coordinates": {
      "lat": 47.6,
      "lon": 20.45
    }
  },
  {
    "country": "HU",
    "location": "KLM",
    "name": "KomlÛska",
    "nameWoDiacritics": "Komloska",
    "subdivision": "BZ",
    "status": 7,
    "function": [
      2
    ],
    "date": 1601,
    "coordinates": {
      "lat": 48.333333333333336,
      "lon": 21.466666666666665
    }
  },
  {
    "country": "HU",
    "location": "KMO",
    "name": "KomorÛ",
    "nameWoDiacritics": "Komoro",
    "subdivision": "SZ",
    "status": 7,
    "function": [
      2
    ],
    "date": 1301,
    "coordinates": {
      "lat": 48.3,
      "lon": 22.116666666666667
    }
  },
  {
    "country": "HU",
    "location": "KZA",
    "name": "KÛph·za",
    "nameWoDiacritics": "Kophaza",
    "subdivision": "GS",
    "status": 7,
    "function": [
      2
    ],
    "date": 701,
    "coordinates": {
      "lat": 47.63333333333333,
      "lon": 16.65
    }
  },
  {
    "country": "HU",
    "location": "KOR",
    "name": "Kˆrmend",
    "nameWoDiacritics": "Kormend",
    "subdivision": "VA",
    "status": 7,
    "function": [
      0,
      1,
      2
    ],
    "date": 407,
    "coordinates": {
      "lat": 47.016666666666666,
      "lon": 16.6
    }
  },
  {
    "country": "HU",
    "location": "HAG",
    "name": "Kˆrnye",
    "nameWoDiacritics": "Kornye",
    "subdivision": "KE",
    "status": 7,
    "function": [
      2,
      5
    ],
    "date": 901,
    "coordinates": {
      "lat": 47.55,
      "lon": 18.333333333333332
    }
  },
  {
    "country": "HU",
    "location": "KRO",
    "name": "KoroncÛ",
    "nameWoDiacritics": "Koronco",
    "subdivision": "GS",
    "status": 7,
    "function": [
      2
    ],
    "date": 701,
    "coordinates": {
      "lat": 47.6,
      "lon": 17.533333333333335
    }
  },