[
  {
    "change": "",
    "country": "JE",
    "location": "",
    "name": ".JERSEY",
    "nameWoDiacritics": "",
    "subdivision": "",
    "status": null,
    "function": [],
    "date": "",
    "iata": "",
    "coordinates": {
      "lat": 0,
      "lon": 0
    },
    "remarks": ""
  },
  {
    "change": "",
    "country": "JE",
    "location": "LAF",
    "name": "La Fosse",
    "nameWoDiacritics": "La Fosse",
    "subdivision": "",
    "status": 7,
    "function": [
      2
    ],
    "date": "1601",
    "iata": "",
    "coordinates": {
      "lat": 49.166666666666664,
      "lon": -2.1666666666666665
    },
    "remarks": ""
  },
  {
    "change": "",
    "country": "JE",
    "location": "SAB",
    "name": "Saint Aubin",
    "nameWoDiacritics": "Saint Aubin",
    "subdivision": "",
    "status": 7,
    "function": [
      0,
      2
    ],
    "date": "1201",
    "iata": "",
    "coordinates": {
      "lat": 49.18333333333333,
      "lon": -2.1666666666666665
    },
    "remarks": ""
  },
  {
    "change": "",
    "country": "JE",
    "location": "SCJ",
    "name": "Saint Clement",
    "nameWoDiacritics": "Saint Clement",
    "subdivision": "",
    "status": 7,
    "function": [
      0,
      6
    ],
    "date": "1307",
    "iata": "",
    "coordinates": {
      "lat": 49.166666666666664,
      "lon": -2.066666666666667
    },
    "remarks": ""
  },
  {
    "change": "",
    "country": "JE",
    "location": "STH",
    "name": "Saint Hï¿½lier",
    "nameWoDiacritics": "Saint Helier",
    "subdivision": "",
    "status": 2,
    "function": [
      0,
      2
    ],
    "date": "1101",
    "iata": "",
    "coordinates": {
      "lat": 49.18333333333333,
      "lon": -2.1
    },
    "remarks": "ex GB STH"
  },
  {
    "change": "",
    "country": "JE",
    "location": "SJN",
    "name": "Saint Johns",
    "nameWoDiacritics": "Saint Johns",
    "subdivision": "",
    "status": 7,
    "function": [
      5
    ],
    "date": "1307",
    "iata": "",
    "coordinates": {
      "lat": 49.25,
      "lon": -2.1333333333333333
    },
    "remarks": ""
  },
  {
    "change": "",
    "country": "JE",
    "location": "SPT",
    "name": "Saint Peter",
    "nameWoDiacritics": "Saint Peter",
    "subdivision": "",
    "status": 7,
    "function": [
      2
    ],
    "date": "1201",
    "iata": "",
    "coordinates": {
      "lat": 49.21666666666667,
      "lon": -2.183333333333333
    },
    "remarks": ""
  },
  {
    "change": "",
    "country": "JE",
    "location": "SSV",
    "name": "Saint Saviour",
    "nameWoDiacritics": "Saint Saviour",
    "subdivision": "",
    "status": 7,
    "function": [
      5
    ],
    "date": "1307",
    "iata": "",
    "coordinates": {
      "lat": 49.18333333333333,
      "lon": -2.066666666666667
    },
    "remarks": ""
  },
  {
    "change": "",
    "country": "JE",
    "location": "JER",
    "name": "\"States Apt",
    "nameWoDiacritics": " Jersey\"",
    "subdivision": "\"States Apt",
    "status": null,
    "function": [],
    "date": "AF",
    "iata": "---4----",
    "coordinates": {
      "lat": 6.116666666666666,
      "lon": null
    },
    "remarks": ""
  },
  {
    "change": "",
    "country": "JE",
    "location": "TTY",
    "name": "Trinity",
    "nameWoDiacritics": "Trinity",
    "subdivision": "",
    "status": 7,
    "function": [
      2
    ],
    "date": "0607",
    "iata": "",
    "coordinates": {
      "lat": 49.233333333333334,
      "lon": -2.0833333333333335
    },
    "remarks": "ex GB TTY"
  }
]