[
  {
    "change": "",
    "country": "QA",
    "location": "",
    "name": ".QATAR",
    "nameWoDiacritics": "",
    "subdivision": "",
    "status": null,
    "function": [],
    "date": "",
    "iata": "",
    "coordinates": {
      "lat": 0,
      "lon": 0
    },
    "remarks": ""
  },
  {
    "change": "",
    "country": "QA",
    "location": "ABH",
    "name": "Abu Hamur",
    "nameWoDiacritics": "Abu Hamur",
    "subdivision": "RA",
    "status": 7,
    "function": [
      2
    ],
    "date": "1607",
    "iata": "",
    "coordinates": {
      "lat": 25.233333333333334,
      "lon": 51.483333333333334
    },
    "remarks": ""
  },
  {
    "change": "",
    "country": "QA",
    "location": "ABS",
    "name": "Abu Samra",
    "nameWoDiacritics": "Abu Samra",
    "subdivision": "RA",
    "status": 7,
    "function": [
      2
    ],
    "date": "1707",
    "iata": "",
    "coordinates": {
      "lat": 24.733333333333334,
      "lon": 50.81666666666667
    },
    "remarks": ""
  },
  {
    "change": "",
    "country": "QA",
    "location": "ALK",
    "name": "Al Karaana",
    "nameWoDiacritics": "Al Karaana",
    "subdivision": "RA",
    "status": 7,
    "function": [
      2
    ],
    "date": "1707",
    "iata": "",
    "coordinates": {
      "lat": 25,
      "lon": 51.03333333333333
    },
    "remarks": ""
  },
  {
    "change": "",
    "country": "QA",
    "location": "KHR",
    "name": "Al Khor",
    "nameWoDiacritics": "Al Khor",
    "subdivision": "KH",
    "status": 7,
    "function": [
      2
    ],
    "date": "1407",
    "iata": "",
    "coordinates": {
      "lat": 25.683333333333334,
      "lon": 51.5
    },
    "remarks": ""
  },
  {
    "change": "",
    "country": "QA",
    "location": "RYN",
    "name": "Al Rayyan",
    "nameWoDiacritics": "Al Rayyan",
    "subdivision": "RA",
    "status": 7,
    "function": [
      2
    ],
    "date": "1407",
    "iata": "",
    "coordinates": {
      "lat": 25.316666666666666,
      "lon": 51.36666666666667
    },
    "remarks": ""
  },
  {
    "change": "",
    "country": "QA",
    "location": "RUS",
    "name": "Al Ruwais Qatar",
    "nameWoDiacritics": "Al Ruwais Qatar",
    "subdivision": "MS",
    "status": 0,
    "function": [
      0
    ],
    "date": "1801",
    "iata": "",
    "coordinates": {
      "lat": 26.233333333333334,
      "lon": 51.333333333333336
    },
    "remarks": ""
  },
  {
    "change": "",
    "country": "QA",
    "location": "ASH",
    "name": "Al Shahaniya",
    "nameWoDiacritics": "Al Shahaniya",
    "subdivision": "RA",
    "status": 7,
    "function": [
      2
    ],
    "date": "1707",
    "iata": "",
    "coordinates": {
      "lat": 25.366666666666667,
      "lon": 51.2
    },
    "remarks": ""
  },
  {
    "change": "",
    "country": "QA",
    "location": "ASN",
    "name": "Al Shaheen",
    "nameWoDiacritics": "Al Shaheen",
    "subdivision": "",
    "status": 8,
    "function": [
      0,
      6
    ],
    "date": "0401",
    "iata": "",
    "coordinates": {
      "lat": 26.55,
      "lon": 52.06666666666667
    },
    "remarks": ""
  },
  {
    "change": "",
    "country": "QA",
    "location": "ALS",
    "name": "Al Shamal City",
    "nameWoDiacritics": "Al Shamal City",
    "subdivision": "MS",
    "status": 7,
    "function": [
      2
    ],
    "date": "1607",
    "iata": "",
    "coordinates": {
      "lat": 26.116666666666667,
      "lon": 51.21666666666667
    },
    "remarks": ""
  },
  {
    "change": "",
    "country": "QA",
    "location": "ALU",
    "name": "Al Udeid",
    "nameWoDiacritics": "Al Udeid",
    "subdivision": "",
    "status": 9,
    "function": [
      2,
      3
    ],
    "date": "0401",
    "iata": "",
    "coordinates": {
      "lat": 25.1,
      "lon": 51.3
    },
    "remarks": ""
  },
  {
    "change": "",
    "country": "QA",
    "location": "ALW",
    "name": "Al Wa'b",
    "nameWoDiacritics": "Al Wa'b",
    "subdivision": "KH",
    "status": 7,
    "function": [
      2
    ],
    "date": "1607",
    "iata": "",
    "coordinates": {
      "lat": 25.833333333333332,
      "lon": 51.45
    },
    "remarks": ""
  },
  {
    "change": "",
    "country": "QA",
    "location": "WAK",
    "name": "Al Wakrah",
    "nameWoDiacritics": "Al Wakrah",
    "subdivision": "WA",
    "status": 7,
    "function": [
      2
    ],
    "date": "1407",
    "iata": "",
    "coordinates": {
      "lat": 25.166666666666668,
      "lon": 51.6
    },
    "remarks": ""
  },
  {
    "change": "",
    "country": "QA",
    "location": "ALZ",
    "name": "Al Zubarah",
    "nameWoDiacritics": "Al Zubarah",
    "subdivision": "DA",
    "status": 7,
    "function": [
      2
    ],
    "date": "1707",
    "iata": "",
    "coordinates": {
      "lat": 25.966666666666665,
      "lon": 51.016666666666666
    },
    "remarks": ""
  },
  {
    "change": "",
    "country": "QA",
    "location": "SLW",
    "name": "As Salwa",
    "nameWoDiacritics": "As Salwa",
    "subdivision": "RA",
    "status": 7,
    "function": [
      0
    ],
    "date": "1601",
    "iata": "",
    "coordinates": {
      "lat": 24.733333333333334,
      "lon": 50.75
    },
    "remarks": ""
  },
  {
    "change": "",
    "country": "QA",
    "location": "ASL",
    "name": "As Sayliyah",
    "nameWoDiacritics": "As Sayliyah",
    "subdivision": "DA",
    "status": 7,
    "function": [
      2
    ],
    "date": "1701",
    "iata": "",
    "coordinates": {
      "lat": 25.2,
      "lon": 51.36666666666667
    },
    "remarks": ""
  },
  {
    "change": "",
    "country": "QA",
    "location": "HMD",
    "name": "BGN/PCGN1956 - HAMAD",
    "nameWoDiacritics": "BGN/PCGN1956 - HAMAD",
    "subdivision": "WA",
    "status": 7,
    "function": [
      0
    ],
    "date": "1501",
    "iata": "",
    "coordinates": {
      "lat": 25,
      "lon": 51.61666666666667
    },
    "remarks": ""
  },
  {
    "change": "",
    "country": "QA",
    "location": "DOH",
    "name": "Doha",
    "nameWoDiacritics": "Doha",
    "subdivision": "DA",
    "status": 3,
    "function": [
      0,
      3,
      4
    ],
    "date": "1307",
    "iata": "",
    "coordinates": {
      "lat": 0,
      "lon": 0
    },
    "remarks": ""
  },
  {
    "change": "",
    "country": "QA",
    "location": "DHN",
    "name": "Dukhan",
    "nameWoDiacritics": "Dukhan",
    "subdivision": "",
    "status": 7,
    "function": [
      2
    ],
    "date": "1407",
    "iata": "",
    "coordinates": {
      "lat": 25.416666666666668,
      "lon": 50.78333333333333
    },
    "remarks": ""
  },
  {
    "change": "",
    "country": "QA",
    "location": "HAL",
    "name": "Halul",
    "nameWoDiacritics": "Halul",
    "subdivision": "",
    "status": 9,
    "function": [
      0,
      6
    ],
    "date": "2201",
    "iata": "",
    "coordinates": {
      "lat": 0,
      "lon": 0
    },
    "remarks": ""
  },
  {
    "change": "",
    "country": "QA",
    "location": "HNA",
    "name": "Hanna",
    "nameWoDiacritics": "Hanna",
    "subdivision": "",
    "status": 12,
    "function": [
      0
    ],
    "date": "8103",
    "iata": "",
    "coordinates": {
      "lat": 0,
      "lon": 0
    },
    "remarks": ""
  },
  {
    "change": "",
    "country": "QA",
    "location": "LSL",
    "name": "Lusail",
    "nameWoDiacritics": "Lusail",
    "subdivision": "DA",
    "status": 7,
    "function": [
      2
    ],
    "date": "1407",
    "iata": "",
    "coordinates": {
      "lat": 25.5,
      "lon": 51.483333333333334
    },
    "remarks": ""
  },
  {
    "change": "",
    "country": "QA",
    "location": "QAP",
    "name": "Qapco",
    "nameWoDiacritics": "Qapco",
    "subdivision": "US",
    "status": 9,
    "function": [
      0
    ],
    "date": "1707",
    "iata": "",
    "coordinates": {
      "lat": 24.916666666666668,
      "lon": 51.56666666666667
    },
    "remarks": ""
  },
  {
    "change": "",
    "country": "QA",
    "location": "QCH",
    "name": "Qchem",
    "nameWoDiacritics": "Qchem",
    "subdivision": "US",
    "status": 9,
    "function": [
      0
    ],
    "date": "1707",
    "iata": "",
    "coordinates": {
      "lat": 24.85,
      "lon": 51.53333333333333
    },
    "remarks": ""
  },
  {
    "change": "",
    "country": "QA",
    "location": "RLF",
    "name": "Ras Laffan",
    "nameWoDiacritics": "Ras Laffan",
    "subdivision": "KH",
    "status": 7,
    "function": [
      0
    ],
    "date": "1307",
    "iata": "",
    "coordinates": {
      "lat": 25.933333333333334,
      "lon": 51.53333333333333
    },
    "remarks": ""
  },
  {
    "change": "",
    "country": "QA",
    "location": "SIM",
    "name": "Simaisma",
    "nameWoDiacritics": "Simaisma",
    "subdivision": "DA",
    "status": 7,
    "function": [
      2
    ],
    "date": "1707",
    "iata": "",
    "coordinates": {
      "lat": 25.583333333333332,
      "lon": 51.483333333333334
    },
    "remarks": ""
  },
  {
    "change": "",
    "country": "QA",
    "location": "TPQ",
    "name": "The Pearl-Qatar",
    "nameWoDiacritics": "The Pearl-Qatar",
    "subdivision": "DA",
    "status": 7,
    "function": [
      2
    ],
    "date": "1707",
    "iata": "",
    "coordinates": {
      "lat": 25.366666666666667,
      "lon": 51.55
    },
    "remarks": ""
  },
  {
    "change": "",
    "country": "QA",
    "location": "MBB",
    "name": "Umm Bab",
    "nameWoDiacritics": "Umm Bab",
    "subdivision": "RA",
    "status": 7,
    "function": [
      2
    ],
    "date": "1407",
    "iata": "",
    "coordinates": {
      "lat": 25.216666666666665,
      "lon": 50.8
    },
    "remarks": ""
  },
  {
    "change": "",
    "country": "QA",
    "location": "UMQ",
    "name": "Umm Qarn",
    "nameWoDiacritics": "Umm Qarn",
    "subdivision": "ZA",
    "status": 9,
    "function": [
      5
    ],
    "date": "1307",
    "iata": "",
    "coordinates": {
      "lat": 25.533333333333335,
      "lon": 51.416666666666664
    },
    "remarks": ""
  },
  {
    "change": "",
    "country": "QA",
    "location": "UMS",
    "name": "Umm Sa'id (Mesaieed)",
    "nameWoDiacritics": "Umm Sa'id (Mesaieed)",
    "subdivision": "WA",
    "status": 3,
    "function": [
      0,
      2
    ],
    "date": "0501",
    "iata": "",
    "coordinates": {
      "lat": 24.983333333333334,
      "lon": 51.53333333333333
    },
    "remarks": ""
  }
]