[
  {
    "change": "",
    "country": "TT",
    "location": "",
    "name": ".TRINIDAD AND TOBAGO",
    "nameWoDiacritics": "",
    "subdivision": "",
    "status": null,
    "function": [],
    "date": "",
    "iata": "",
    "coordinates": {
      "lat": 0,
      "lon": 0
    },
    "remarks": ""
  },
  {
    "change": "",
    "country": "TT",
    "location": "ZAA",
    "name": "Arima",
    "nameWoDiacritics": "Arima",
    "subdivision": "ARI",
    "status": 7,
    "function": [
      2,
      5
    ],
    "date": "0901",
    "iata": "",
    "coordinates": {
      "lat": 10.633333333333333,
      "lon": -61.28333333333333
    },
    "remarks": ""
  },
  {
    "change": "",
    "country": "TT",
    "location": "ARA",
    "name": "Arouca",
    "nameWoDiacritics": "Arouca",
    "subdivision": "TUP",
    "status": 7,
    "function": [
      2
    ],
    "date": "1501",
    "iata": "",
    "coordinates": {
      "lat": 10.633333333333333,
      "lon": -61.333333333333336
    },
    "remarks": ""
  },
  {
    "change": "",
    "country": "TT",
    "location": "BAN",
    "name": "Balmain",
    "nameWoDiacritics": "Balmain",
    "subdivision": "CTT",
    "status": 7,
    "function": [
      2
    ],
    "date": "1501",
    "iata": "",
    "coordinates": {
      "lat": 10.416666666666666,
      "lon": -61.43333333333333
    },
    "remarks": ""
  },
  {
    "change": "",
    "country": "TT",
    "location": "4BT",
    "name": "Barataria",
    "nameWoDiacritics": "Barataria",
    "subdivision": "SJL",
    "status": 7,
    "function": [
      2
    ],
    "date": "1301",
    "iata": "",
    "coordinates": {
      "lat": 10.65,
      "lon": -61.46666666666667
    },
    "remarks": ""
  },
  {
    "change": "",
    "country": "TT",
    "location": "BAE",
    "name": "Barrackpore",
    "nameWoDiacritics": "Barrackpore",
    "subdivision": "PED",
    "status": 7,
    "function": [
      2
    ],
    "date": "1501",
    "iata": "",
    "coordinates": {
      "lat": 10.2,
      "lon": -61.4
    },
    "remarks": ""
  },
  {
    "change": "=",
    "country": "TT",
    "location": "",
    "name": "Brighton = La Brea",
    "nameWoDiacritics": "Brighton = La Brea",
    "subdivision": "",
    "status": null,
    "function": [],
    "date": "",
    "iata": "",
    "coordinates": {
      "lat": 0,
      "lon": 0
    },
    "remarks": ""
  },
  {
    "change": "",
    "country": "TT",
    "location": "CAA",
    "name": "Canaan",
    "nameWoDiacritics": "Canaan",
    "subdivision": "",
    "status": 7,
    "function": [
      5
    ],
    "date": "1107",
    "iata": "",
    "coordinates": {
      "lat": 11.15,
      "lon": -60.81666666666667
    },
    "remarks": ""
  },
  {
    "change": "",
    "country": "TT",
    "location": "CPC",
    "name": "Carapichaima",
    "nameWoDiacritics": "Carapichaima",
    "subdivision": "CTT",
    "status": 7,
    "function": [
      2
    ],
    "date": "1501",
    "iata": "",
    "coordinates": {
      "lat": 10.466666666666667,
      "lon": -61.45
    },
    "remarks": ""
  },
  {
    "change": "",
    "country": "TT",
    "location": "CRN",
    "name": "Carenage",
    "nameWoDiacritics": "Carenage",
    "subdivision": "",
    "status": 7,
    "function": [
      0,
      2
    ],
    "date": "0601",
    "iata": "",
    "coordinates": {
      "lat": 10.683333333333334,
      "lon": -61.6
    },
    "remarks": ""
  },
  {
    "change": "",
    "country": "TT",
    "location": "CAR",
    "name": "Caroni",
    "nameWoDiacritics": "Caroni",
    "subdivision": "ARI",
    "status": 7,
    "function": [
      2
    ],
    "date": "1207",
    "iata": "",
    "coordinates": {
      "lat": 10.65,
      "lon": -61.53333333333333
    },
    "remarks": ""
  },
  {
    "change": "",
    "country": "TT",
    "location": "CHG",
    "name": "Chaguanas",
    "nameWoDiacritics": "Chaguanas",
    "subdivision": "CHA",
    "status": 7,
    "function": [
      2
    ],
    "date": "1307",
    "iata": "",
    "coordinates": {
      "lat": 10.516666666666667,
      "lon": -61.416666666666664
    },
    "remarks": ""
  },
  {
    "change": "",
    "country": "TT",
    "location": "CHA",
    "name": "Chaguaramas",
    "nameWoDiacritics": "Chaguaramas",
    "subdivision": "",
    "status": 12,
    "function": [
      0
    ],
    "date": "8103",
    "iata": "",
    "coordinates": {
      "lat": 0,
      "lon": 0
    },
    "remarks": ""
  },
  {
    "change": "",
    "country": "TT",
    "location": "CHF",
    "name": "Champs Fleurs/Port-of-Spain",
    "nameWoDiacritics": "Champs Fleurs/Port-of-Spain",
    "subdivision": "POS",
    "status": 9,
    "function": [
      2
    ],
    "date": "0901",
    "iata": "",
    "coordinates": {
      "lat": 10.65,
      "lon": -61.516666666666666
    },
    "remarks": ""
  },
  {
    "change": "",
    "country": "TT",
    "location": "CHV",
    "name": "Charlotteville",
    "nameWoDiacritics": "Charlotteville",
    "subdivision": "ETO",
    "status": 7,
    "function": [
      0,
      2
    ],
    "date": "0901",
    "iata": "",
    "coordinates": {
      "lat": 11.316666666666666,
      "lon": -60.55
    },
    "remarks": ""
  },
  {
    "change": "",
    "country": "TT",
    "location": "CHE",
    "name": "Chase Village",
    "nameWoDiacritics": "Chase Village",
    "subdivision": "CTT",
    "status": 7,
    "function": [
      2
    ],
    "date": "1501",
    "iata": "",
    "coordinates": {
      "lat": 10.466666666666667,
      "lon": -61.416666666666664
    },
    "remarks": ""
  },
  {
    "change": "",
    "country": "TT",
    "location": "CLA",
    "name": "Claxton Bay",
    "nameWoDiacritics": "Claxton Bay",
    "subdivision": "CTT",
    "status": 7,
    "function": [
      0,
      2
    ],
    "date": "1101",
    "iata": "",
    "coordinates": {
      "lat": 10.35,
      "lon": -61.46666666666667
    },
    "remarks": ""
  },
  {
    "change": "",
    "country": "TT",
    "location": "CVA",
    "name": "Couva",
    "nameWoDiacritics": "Couva",
    "subdivision": "",
    "status": 7,
    "function": [
      0,
      2
    ],
    "date": "0901",
    "iata": "",
    "coordinates": {
      "lat": 10.416666666666666,
      "lon": -61.45
    },
    "remarks": ""
  },
  {
    "change": "",
    "country": "TT",
    "location": "CUN",
    "name": "Cunupia",
    "nameWoDiacritics": "Cunupia",
    "subdivision": "CHA",
    "status": 7,
    "function": [
      2
    ],
    "date": "1707",
    "iata": "",
    "coordinates": {
      "lat": 10.55,
      "lon": -61.36666666666667
    },
    "remarks": ""
  },
  {
    "change": "",
    "country": "TT",
    "location": "CUR",
    "name": "Curepe",
    "nameWoDiacritics": "Curepe",
    "subdivision": "TUP",
    "status": 7,
    "function": [
      2
    ],
    "date": "1307",
    "iata": "",
    "coordinates": {
      "lat": 10.633333333333333,
      "lon": -61.4
    },
    "remarks": ""
  },
  {
    "change": "",
    "country": "TT",
    "location": "7AD",
    "name": "Dabadie",
    "nameWoDiacritics": "Dabadie",
    "subdivision": "CTT",
    "status": 7,
    "function": [
      2
    ],
    "date": "1607",
    "iata": "",
    "coordinates": {
      "lat": 10.616666666666667,
      "lon": -61.31666666666667
    },
    "remarks": ""
  },
  {
    "change": "",
    "country": "TT",
    "location": "DAE",
    "name": "Dabadie",
    "nameWoDiacritics": "Dabadie",
    "subdivision": "TUP",
    "status": 7,
    "function": [
      2
    ],
    "date": "1501",
    "iata": "",
    "coordinates": {
      "lat": 10.616666666666667,
      "lon": -61.31666666666667
    },
    "remarks": ""
  },
  {
    "change": "",
    "country": "TT",
    "location": "DMT",
    "name": "Diego Martin",
    "nameWoDiacritics": "Diego Martin",
    "subdivision": "DMN",
    "status": 7,
    "function": [
      5
    ],
    "date": "1201",
    "iata": "",
    "coordinates": {
      "lat": 10.716666666666667,
      "lon": -61.56666666666667
    },
    "remarks": ""
  },
  {
    "change": "",
    "country": "TT",
    "location": "FRE",
    "name": "Freeport",
    "nameWoDiacritics": "Freeport",
    "subdivision": "CTT",
    "status": 4,
    "function": [
      0,
      2
    ],
    "date": "2107",
    "iata": "",
    "coordinates": {
      "lat": 10.45,
      "lon": -61.416666666666664
    },
    "remarks": ""
  },
  {
    "change": "",
    "country": "TT",
    "location": "FXD",
    "name": "Fyzabad",
    "nameWoDiacritics": "Fyzabad",
    "subdivision": "SIP",
    "status": 7,
    "function": [
      2
    ],
    "date": "1501",
    "iata": "",
    "coordinates": {
      "lat": 10.183333333333334,
      "lon": -61.55
    },
    "remarks": ""
  },
  {
    "change": "",
    "country": "TT",
    "location": "GSP",
    "name": "Gasparillo",
    "nameWoDiacritics": "Gasparillo",
    "subdivision": "",
    "status": 7,
    "function": [
      2
    ],
    "date": "1101",
    "iata": "",
    "coordinates": {
      "lat": 10.316666666666666,
      "lon": -61.416666666666664
    },
    "remarks": ""
  },
  {
    "change": "",
    "country": "TT",
    "location": "GNE",
    "name": "Glencoe",
    "nameWoDiacritics": "Glencoe",
    "subdivision": "DMN",
    "status": 7,
    "function": [
      2
    ],
    "date": "1801",
    "iata": "",
    "coordinates": {
      "lat": 10.666666666666666,
      "lon": -61.56666666666667
    },
    "remarks": ""
  },
  {
    "change": "",
    "country": "TT",
    "location": "GUO",
    "name": "Guapo",
    "nameWoDiacritics": "Guapo",
    "subdivision": "PTF",
    "status": 7,
    "function": [
      2
    ],
    "date": "1207",
    "iata": "",
    "coordinates": {
      "lat": 10.183333333333334,
      "lon": -61.65
    },
    "remarks": ""
  },
  {
    "change": "",
    "country": "TT",
    "location": "GUA",
    "name": "Guayaguayare",
    "nameWoDiacritics": "Guayaguayare",
    "subdivision": "",
    "status": 7,
    "function": [
      0,
      2
    ],
    "date": "0901",
    "iata": "",
    "coordinates": {
      "lat": 10.133333333333333,
      "lon": -61.03333333333333
    },
    "remarks": ""
  },
  {
    "change": "",
    "country": "TT",
    "location": "LAB",
    "name": "La Brea (Brighton)",
    "nameWoDiacritics": "La Brea (Brighton)",
    "subdivision": "",
    "status": 3,
    "function": [
      0
    ],
    "date": "9401",
    "iata": "",
    "coordinates": {
      "lat": 0,
      "lon": 0
    },
    "remarks": ""
  },
  {
    "change": "",
    "country": "TT",
    "location": "LLL",
    "name": "Laventille",
    "nameWoDiacritics": "Laventille",
    "subdivision": "",
    "status": 9,
    "function": [
      2,
      5
    ],
    "date": "0907",
    "iata": "",
    "coordinates": {
      "lat": 10.65,
      "lon": -61.483333333333334
    },
    "remarks": ""
  },
  {
    "change": "",
    "country": "TT",
    "location": "LOE",
    "name": "Longdenville",
    "nameWoDiacritics": "Longdenville",
    "subdivision": "CHA",
    "status": 7,
    "function": [
      2
    ],
    "date": "1501",
    "iata": "",
    "coordinates": {
      "lat": 10.516666666666667,
      "lon": -61.38333333333333
    },
    "remarks": ""
  },
  {
    "change": "",
    "country": "TT",
    "location": "MCY",
    "name": "Macoya",
    "nameWoDiacritics": "Macoya",
    "subdivision": "TUP",
    "status": 9,
    "function": [
      2
    ],
    "date": "1101",
    "iata": "",
    "coordinates": {
      "lat": 10.633333333333333,
      "lon": -61.38333333333333
    },
    "remarks": ""
  },
  {
    "change": "",
    "country": "TT",
    "location": "MAR",
    "name": "Marabella",
    "nameWoDiacritics": "Marabella",
    "subdivision": "",
    "status": 7,
    "function": [
      2
    ],
    "date": "0201",
    "iata": "",
    "coordinates": {
      "lat": 10.283333333333333,
      "lon": -61.45
    },
    "remarks": ""
  },
  {
    "change": "",
    "country": "TT",
    "location": "MVL",
    "name": "Maraval",
    "nameWoDiacritics": "Maraval",
    "subdivision": "DMN",
    "status": 7,
    "function": [
      2
    ],
    "date": "1501",
    "iata": "",
    "coordinates": {
      "lat": 10.7,
      "lon": -61.516666666666666
    },
    "remarks": ""
  },
  {
    "change": "",
    "country": "TT",
    "location": "MTS",
    "name": "Montrose",
    "nameWoDiacritics": "Montrose",
    "subdivision": "",
    "status": 7,
    "function": [
      5
    ],
    "date": "1201",
    "iata": "",
    "coordinates": {
      "lat": 11.2,
      "lon": -60.65
    },
    "remarks": ""
  },
  {
    "change": "",
    "country": "TT",
    "location": "MVT",
    "name": "Morvant/Port-of-Spain",
    "nameWoDiacritics": "Morvant/Port-of-Spain",
    "subdivision": "POS",
    "status": 7,
    "function": [
      2,
      5
    ],
    "date": "0901",
    "iata": "",
    "coordinates": {
      "lat": 10.65,
      "lon": -61.46666666666667
    },
    "remarks": ""
  },
  {
    "change": "",
    "country": "TT",
    "location": "MHP",
    "name": "Mount Hope",
    "nameWoDiacritics": "Mount Hope",
    "subdivision": "SJL",
    "status": 7,
    "function": [
      2
    ],
    "date": "1501",
    "iata": "",
    "coordinates": {
      "lat": 10.65,
      "lon": -61.43333333333333
    },
    "remarks": ""
  },
  {
    "change": "",
    "country": "TT",
    "location": "PNL",
    "name": "Penal",
    "nameWoDiacritics": "Penal",
    "subdivision": "SFO",
    "status": 7,
    "function": [
      2
    ],
    "date": "1607",
    "iata": "",
    "coordinates": {
      "lat": 10.166666666666666,
      "lon": -61.46666666666667
    },
    "remarks": ""
  },
  {
    "change": "",
    "country": "TT",
    "location": "PIA",
    "name": "Piarco",
    "nameWoDiacritics": "Piarco",
    "subdivision": "",
    "status": 3,
    "function": [
      4
    ],
    "date": "9805",
    "iata": "",
    "coordinates": {
      "lat": 0,
      "lon": 0
    },
    "remarks": ""
  },
  {
    "change": "",
    "country": "TT",
    "location": "PLY",
    "name": "Plymouth",
    "nameWoDiacritics": "Plymouth",
    "subdivision": "",
    "status": 9,
    "function": [
      0
    ],
    "date": "9506",
    "iata": "",
    "coordinates": {
      "lat": 0,
      "lon": 0
    },
    "remarks": ""
  },
  {
    "change": "",
    "country": "TT",
    "location": "PTF",
    "name": "Point Fortin",
    "nameWoDiacritics": "Point Fortin",
    "subdivision": "",
    "status": 12,
    "function": [
      0
    ],
    "date": "8103",
    "iata": "",
    "coordinates": {
      "lat": 0,
      "lon": 0
    },
    "remarks": ""
  },
  {
    "change": "",
    "country": "TT",
    "location": "PTG",
    "name": "Point Galeota",
    "nameWoDiacritics": "Point Galeota",
    "subdivision": "",
    "status": 12,
    "function": [
      0
    ],
    "date": "8103",
    "iata": "",
    "coordinates": {
      "lat": 0,
      "lon": 0
    },
    "remarks": ""
  },
  {
    "change": "",
    "country": "TT",
    "location": "PTS",
    "name": "Point Lisas",
    "nameWoDiacritics": "Point Lisas",
    "subdivision": "",
    "status": 3,
    "function": [
      0
    ],
    "date": "9401",
    "iata": "",
    "coordinates": {
      "lat": 0,
      "lon": 0
    },
    "remarks": ""
  },
  {
    "change": "",
    "country": "TT",
    "location": "PPL",
    "name": "Point Lizza",
    "nameWoDiacritics": "Point Lizza",
    "subdivision": "",
    "status": 9,
    "function": [
      2
    ],
    "date": "0307",
    "iata": "",
    "coordinates": {
      "lat": 10.433333333333334,
      "lon": -61.483333333333334
    },
    "remarks": ""
  },
  {
    "change": "",
    "country": "TT",
    "location": "PTP",
    "name": "Pointe a Pierre",
    "nameWoDiacritics": "Pointe a Pierre",
    "subdivision": "",
    "status": 12,
    "function": [
      0
    ],
    "date": "8103",
    "iata": "",
    "coordinates": {
      "lat": 0,
      "lon": 0
    },
    "remarks": ""
  },
  {
    "change": "",
    "country": "TT",
    "location": "POS",
    "name": "Port-of-Spain",
    "nameWoDiacritics": "Port-of-Spain",
    "subdivision": "POS",
    "status": 3,
    "function": [
      0,
      3,
      4
    ],
    "date": "0212",
    "iata": "",
    "coordinates": {
      "lat": 10.65,
      "lon": -61.516666666666666
    },
    "remarks": ""
  },
  {
    "change": "",
    "country": "TT",
    "location": "PTW",
    "name": "Princes Town",
    "nameWoDiacritics": "Princes Town",
    "subdivision": "",
    "status": 7,
    "function": [
      5
    ],
    "date": "1107",
    "iata": "",
    "coordinates": {
      "lat": 10.266666666666667,
      "lon": -61.38333333333333
    },
    "remarks": ""
  },
  {
    "change": "",
    "country": "TT",
    "location": "RCR",
    "name": "Rio Claro",
    "nameWoDiacritics": "Rio Claro",
    "subdivision": "RCM",
    "status": 7,
    "function": [
      2
    ],
    "date": "1501",
    "iata": "",
    "coordinates": {
      "lat": 10.3,
      "lon": -61.18333333333333
    },
    "remarks": ""
  },
  {
    "change": "",
    "country": "TT",
    "location": "PSC",
    "name": "Saint Clair",
    "nameWoDiacritics": "Saint Clair",
    "subdivision": "POS",
    "status": 9,
    "function": [
      2
    ],
    "date": "1101",
    "iata": "",
    "coordinates": {
      "lat": 10.666666666666666,
      "lon": -61.516666666666666
    },
    "remarks": ""
  },
  {
    "change": "",
    "country": "TT",
    "location": "FPT",
    "name": "Saint Mary's",
    "nameWoDiacritics": "Saint Mary's",
    "subdivision": "CTT",
    "status": 7,
    "function": [
      0,
      2
    ],
    "date": "1101",
    "iata": "",
    "coordinates": {
      "lat": 10.216666666666667,
      "lon": -61.53333333333333
    },
    "remarks": ""
  },
  {
    "change": "",
    "country": "TT",
    "location": "SFE",
    "name": "San Fernando",
    "nameWoDiacritics": "San Fernando",
    "subdivision": "",
    "status": 12,
    "function": [
      0
    ],
    "date": "8103",
    "iata": "",
    "coordinates": {
      "lat": 0,
      "lon": 0
    },
    "remarks": ""
  },
  {
    "change": "",
    "country": "TT",
    "location": "SAN",
    "name": "San Juan/Port-of-Spain",
    "nameWoDiacritics": "San Juan/Port-of-Spain",
    "subdivision": "POS",
    "status": 7,
    "function": [
      2
    ],
    "date": "0901",
    "iata": "",
    "coordinates": {
      "lat": 10.65,
      "lon": -61.45
    },
    "remarks": ""
  },
  {
    "change": "",
    "country": "TT",
    "location": "SAG",
    "name": "Sangre Grande",
    "nameWoDiacritics": "Sangre Grande",
    "subdivision": "SGE",
    "status": 7,
    "function": [
      2
    ],
    "date": "1501",
    "iata": "",
    "coordinates": {
      "lat": 10.583333333333334,
      "lon": -61.11666666666667
    },
    "remarks": ""
  },
  {
    "change": "",
    "country": "TT",
    "location": "SCR",
    "name": "Scarborough",
    "nameWoDiacritics": "Scarborough",
    "subdivision": "",
    "status": 7,
    "function": [
      2
    ],
    "date": "0207",
    "iata": "",
    "coordinates": {
      "lat": 11.166666666666666,
      "lon": -60.733333333333334
    },
    "remarks": ""
  },
  {
    "change": "",
    "country": "TT",
    "location": "SCA",
    "name": "Scarborough/Tobago",
    "nameWoDiacritics": "Scarborough/Tobago",
    "subdivision": "",
    "status": 12,
    "function": [
      0
    ],
    "date": "8103",
    "iata": "",
    "coordinates": {
      "lat": 0,
      "lon": 0
    },
    "remarks": ""
  },
  {
    "change": "",
    "country": "TT",
    "location": "SPR",
    "name": "Siparia",
    "nameWoDiacritics": "Siparia",
    "subdivision": "",
    "status": 7,
    "function": [
      5
    ],
    "date": "1007",
    "iata": "",
    "coordinates": {
      "lat": 10.133333333333333,
      "lon": -61.5
    },
    "remarks": ""
  },
  {
    "change": "",
    "country": "TT",
    "location": "SOO",
    "name": "South Oropouche",
    "nameWoDiacritics": "South Oropouche",
    "subdivision": "",
    "status": 7,
    "function": [
      5
    ],
    "date": "1201",
    "iata": "",
    "coordinates": {
      "lat": 10.216666666666667,
      "lon": -61.55
    },
    "remarks": ""
  },
  {
    "change": "",
    "country": "TT",
    "location": "TAA",
    "name": "Tacarigua",
    "nameWoDiacritics": "Tacarigua",
    "subdivision": "TUP",
    "status": 7,
    "function": [
      2
    ],
    "date": "1501",
    "iata": "",
    "coordinates": {
      "lat": 10.633333333333333,
      "lon": -61.36666666666667
    },
    "remarks": ""
  },
  {
    "change": "",
    "country": "TT",
    "location": "TEM",
    "name": "Tembladora",
    "nameWoDiacritics": "Tembladora",
    "subdivision": "",
    "status": 12,
    "function": [
      0,
      3
    ],
    "date": "8103",
    "iata": "",
    "coordinates": {
      "lat": 0,
      "lon": 0
    },
    "remarks": ""
  },
  {
    "change": "",
    "country": "TT",
    "location": "TAB",
    "name": "Tobago",
    "nameWoDiacritics": "Tobago",
    "subdivision": "",
    "status": 3,
    "function": [
      3
    ],
    "date": "9601",
    "iata": "",
    "coordinates": {
      "lat": 0,
      "lon": 0
    },
    "remarks": ""
  },
  {
    "change": "",
    "country": "TT",
    "location": "TOC",
    "name": "Toco",
    "nameWoDiacritics": "Toco",
    "subdivision": "POS",
    "status": 7,
    "function": [
      2
    ],
    "date": "2001",
    "iata": "",
    "coordinates": {
      "lat": 10.833333333333334,
      "lon": -60.95
    },
    "remarks": ""
  },
  {
    "change": "",
    "country": "TT",
    "location": "TCY",
    "name": "Trincity",
    "nameWoDiacritics": "Trincity",
    "subdivision": "TUP",
    "status": 7,
    "function": [
      1,
      2
    ],
    "date": "1601",
    "iata": "",
    "coordinates": {
      "lat": 10.633333333333333,
      "lon": -61.36666666666667
    },
    "remarks": ""
  },
  {
    "change": "",
    "country": "TT",
    "location": "TUN",
    "name": "Tunapuna",
    "nameWoDiacritics": "Tunapuna",
    "subdivision": "",
    "status": 7,
    "function": [
      2
    ],
    "date": "0002",
    "iata": "",
    "coordinates": {
      "lat": 0,
      "lon": 0
    },
    "remarks": ""
  },
  {
    "change": "",
    "country": "TT",
    "location": "VCA",
    "name": "Valencia",
    "nameWoDiacritics": "Valencia",
    "subdivision": "SGE",
    "status": 7,
    "function": [
      2
    ],
    "date": "1701",
    "iata": "",
    "coordinates": {
      "lat": 10.65,
      "lon": -61.2
    },
    "remarks": ""
  },
  {
    "change": "",
    "country": "TT",
    "location": "TOB",
    "name": "Valsayn",
    "nameWoDiacritics": "Valsayn",
    "subdivision": "TUP",
    "status": 7,
    "function": [
      2
    ],
    "date": "1601",
    "iata": "",
    "coordinates": {
      "lat": 10.65,
      "lon": -61.416666666666664
    },
    "remarks": ""
  },
  {
    "change": "",
    "country": "TT",
    "location": "VBL",
    "name": "Vista Bella",
    "nameWoDiacritics": "Vista Bella",
    "subdivision": "",
    "status": 7,
    "function": [
      2
    ],
    "date": "0201",
    "iata": "",
    "coordinates": {
      "lat": 10.283333333333333,
      "lon": -61.45
    },
    "remarks": ""
  },
  {
    "change": "",
    "country": "TT",
    "location": "WDK",
    "name": "Woodbrook",
    "nameWoDiacritics": "Woodbrook",
    "subdivision": "PTF",
    "status": 7,
    "function": [
      2
    ],
    "date": "1207",
    "iata": "",
    "coordinates": {
      "lat": 10.65,
      "lon": -61.53333333333333
    },
    "remarks": ""
  }
]