country,location,name,nameWoDiacritics,subdivision,status,function,iata,lat,lon,geocoded
EG,TRC,10th of Ramadan City,10th of Ramadan City,,RL,--3--6--,,30.3,31.75,
EG,SOC,6th October,6th October,GZ,RL,--3--6--,,29.816666666666666,31.05,
EG,AGN,Abu Ghosoun,Abu Ghosoun,,AA,1-3-----,,24.45,35.2,
EG,AKI,Abu Kir,Abu Kir,,RQ,1-------,,31.3203016,30.0641979,true
EG,AUE,Abu Rudeis,Abu Rudeis,,AI,1--4----,,30.56977,32.1146,true
EG,ABS,Abu Simbel,Abu Simbel,,AI,---4----,,22.3722279,31.613004177780176,true
EG,AZA,Abu Zenimah,Abu Zenimah,JS,RL,1-------,,29.05,33.1,
EG,AIS,Ain Sukhna,Ain Sukhna,,RQ,1-------,,29.1219626,25.4321749,true
EG,ADA,Al Adabiyah,Al Adabiyah,,RL,123-----,,29.866666666666667,32.46666666666667,
EG,DBB,Al Alamein International Apt/Daaba City,Al Alamein International Apt/Daaba City,MT,RL,---4----,,30.916666666666668,28.45,
EG,ABE,Al Bahr El Ahmer,Al Bahr El Ahmer,,RQ,-----6--,,31.28573,31.40725,true
EG,YYU,Al Fayyum,Al Fayyum,,RQ,--3-----,,29.3,30.833333333333332,
EG,AHM,Al Haram,Al Haram,GZ,RL,-----6--,,29.45,31.166666666666668,
EG,AGZ,Al Jizah (Giza),Al Jizah (Giza),GZ,RL,--3-----,,30,31.216666666666665,
EG,ALM,Al Mansurah,Al Mansurah,DK,RL,-23-----,,31.033333333333335,31.366666666666667,
EG,QEM,Al Manzilah,Al Manzilah,DK,RL,--3-----,,31.15,31.933333333333334,
EG,MIN,Al Minya,Al Minya,GZ,RQ,-----6--,,29.733333333333334,31.283333333333335,
EG,AMA,Al Monofiya,Al Monofiya,,RQ,-----6--,,31.03637,31.38069,true
EG,ELK,Al Qantarah El Sharqiyya,Al Qantarah El Sharqiyya,SIN,RL,--3-----,,30.85,32.3,
EG,AQU,Al Qusayr,Al Qusayr,BA,RL,1-3-----,,26.1,34.28333333333333,
EG,AWE,Al Wadi El Gedeed,Al Wadi El Gedeed,,RQ,-----6--,,30.97063,31.1669,true
EG,ALA,Almazah,Almazah,C,RL,--3-----,,30.083333333333332,31.35,
EG,6HB,An Nubariyah,An Nubariyah,BH,RL,--3-----,,30.65,30.066666666666666,
EG,EEG,An Nukhaylah,An Nukhaylah,AST,RQ,0-------,,27.016666666666666,31.35,
EG,SUZ,As Suways (Suez),As Suways (Suez),SUZ,RL,1-3-----,,29.966666666666665,32.516666666666666,
EG,ATZ,Assiut,Assiut,,RQ,---4----,,27.183333333333334,31.183333333333334,
EG,ASW,Aswan,Aswan,,AI,---4----,,24.091071,32.897306,true
EG,AST,Asyut,Asyut,AST,RL,-23-----,,27.183333333333334,31.183333333333334,
EG,BGB,Atakka Dry Port,Atakka Dry Port,SUZ,RL,1-------,,32.1,33,
EG,QZZ,Az Zaqaziq,Az Zaqaziq,SHR,RL,--3-----,,30.583333333333332,31.5,
EG,BDR,Badr,Badr,C,RQ,-----6--,,30.133333333333333,31.716666666666665,
EG,BAH,Bahtim,Bahtim,,RL,-----6--,,30.133333333333333,31.266666666666666,
EG,BNH,Banha,Banha,MNF,AA,--3--6--,,30.45,31.183333333333334,
EG,BEN,Beni Suef,Beni Suef,,RQ,-----6--,,29.066666666666666,31.083333333333332,
EG,BBS,Bilbays,Bilbays,SHR,RL,--3-----,,30.416666666666668,31.566666666666666,
EG,HBE,Burj al Arab,Burj al Arab,,RL,--34-6--,,30.9,29.55,
EG,DAK,Dakhla,Dakhla,,RL,---4----,,25.4,29,
EG,DMN,Damanhour,Damanhour,,RQ,---4----,,31.0374982,30.4710625,true
EG,DOM,Dome Marina,Dome Marina,SUZ,AA,1-3-----,,29.433333333333334,32.483333333333334,
EG,DAM,Dumyat (Damietta),Dumyat (Damietta),,RL,1234----,QDX,31.416666666666668,31.816666666666666,
EG,BEH,El Beheirah,El Beheirah,,RQ,-----6--,,31.083333333333332,30.466666666666665,
EG,EDK,El Dekheila,El Dekheila,,RQ,1-------,,31.13147795,29.803190164107754,true
EG,EDA,El Dekhela,El Dekhela,,RQ,-----6--,,31.5084,31.84106,true
EG,ALY,El Iskandariya (Alexandria),El Iskandariya (Alexandria),ALX,AI,1--45---,,31.183333333333334,29.916666666666668,
EG,QEK,El Mahalla El Kobra,El Mahalla El Kobra,GH,RL,--3-----,,30.983333333333334,31.166666666666668,
EG,MSR,El Mansoura,El Mansoura,DK,RL,--3-----,,31.05,31.383333333333333,
EG,EOB,El Obour,El Obour,DK,RQ,0-------,,30.2288224,31.465685617766244,true
EG,CAI,El Qahira (Cairo),El Qahira (Cairo),C,AI,---45---,,30.05,31.25,
EG,TOR,El Tor,El Tor,SIN,RL,1-------,,28.233333333333334,33.61666666666667,
EG,AAC,El'Arish,El'Arish,,RL,--34----,,31.05528935,33.8278899751234,true
EG,GUA,El-Guna (El Gouna),El-Guna (El Gouna),BA,RL,1-3-----,,27.383333333333333,33.666666666666664,
EG,BHE,Ezbet Osman Murtada,Ezbet Osman Murtada,BH,RQ,-----6--,,31.1598026,30.1770943,true
EG,FAD,Fa'id,Fa'id,,RL,0-------,,30.316666666666666,32.31666666666667,
EG,IYM,Faiyum,Faiyum,FYM,RL,--3-----,,29.3,30.833333333333332,
EG,FAN,Fanara,Fanara,,RQ,0-------,,30.27671,32.33974,true
EG,GAL,Galala Marina,Galala Marina,SUZ,AA,1-3-----,,29.466666666666665,32.43333333333333,
EG,GEI,Geisum Terminal,Geisum Terminal,,RQ,1-------,,,,
EG,QGX,Gerga,Gerga,,RL,--3-----,,26.55,32.46666666666667,
EG,HAL,Halaib,Halaib,,QQ,0-------,,22.22273,36.64679,true
EG,HAM,Hamrawein,Hamrawein,,RQ,1-------,,,,
EG,HEL,Heliopolis,Heliopolis,C,RQ,0-------,,30.090123900000002,31.326542634536953,true
EG,QHW,Helwan,Helwan,,RQ,--3-----,,29.85,31.333333333333332,
EG,HRG,Hurghada,Hurghada,,AI,1-------,,27.222556,33.8307062,true
EG,IKU,Idku,Idku,,RL,123-----,,31.3,30.3,
EG,ISM,Ismailia,Ismailia,,QQ,0-------,,30.6043775,32.2770825,true
EG,IYB,Itay Al Barud,Itay Al Barud,BH,RL,--3-----,,30.883333333333333,30.65,
EG,ISA,Izbat Sidi Ali Murghib,Izbat Sidi Ali Murghib,ALX,RL,--3-----,,31.083333333333332,29.866666666666667,
EG,KEZ,Kafr az Zayyat,Kafr az Zayyat,GH,RL,--3-----,,30.816666666666666,30.8,
EG,KEH,Kafr El Sheikh,Kafr El Sheikh,DK,RQ,0-------,,31.381476499999998,30.851356609930647,true
EG,KEN,Kenna,Kenna,,RQ,-----6--,,27.15,30.4,
EG,LXR,Luxor,Luxor,,AI,---4----,,25.702096,32.647186,true
EG,MAL,Mallawi,Mallawi,MN,RL,--3-----,,27.716666666666665,30.833333333333332,
EG,RMF,Marsa Alam,Marsa Alam,BA,RL,---4----,,25.55,34.56666666666667,
EG,EPP,Marsa Egyptian Propylene & Polypropylene,Marsa Egyptian Propylene & Polypropylene,PTS,AA,1-3-----,,31.3,32.15,
EG,OPT,Marsa Oriental Petrochemicals,Marsa Oriental Petrochemicals,SUZ,AA,1-3-----,,29.683333333333334,32.35,
EG,MUH,Matruh,Matruh,MT,AA,---4----,,31.366666666666667,27.233333333333334,
EG,QFM,Meet Ghamr,Meet Ghamr,DK,RL,--3-----,,30.716666666666665,31.25,
EG,MAH,Mersa El Hamra,Mersa El Hamra,,QQ,1-------,,30.9278504,28.8391113,true
EG,MMU,Mersa Matru,Mersa Matru,,RQ,-----6--,,31.3641227,27.2317705,true
EG,EMY,Minyat Al Hayt,Minyat Al Hayt,FYM,RL,---4----,,29.216666666666665,30.733333333333334,
EG,QAH,Nasr City,Nasr City,C,RL,--3-----,,30.05,31.366666666666667,
EG,CA7,New Cairo,New Cairo,C,RL,0-------,,30.033333333333335,31.433333333333334,
EG,UVL,New Valley,New Valley,,AI,---4----,,25.40332325,28.99499066188693,true
EG,NUB,Nubaria,Nubaria,,RQ,--3-----,,30.65,30.033333333333335,
EG,NUW,Nuwaiba,Nuwaiba,JS,AI,1-------,,28.966666666666665,34.65,
EG,BRO,Obour,Obour,KB,RL,--3-----,,30.2,31.45,
EG,ODP,October Dry Port,October Dry Port,GZ,AA,-23--6--,,29.816666666666666,30.666666666666668,
EG,GLB,Port Ghalib,Port Ghalib,BA,AA,1-3-----,,25.533333333333335,34.63333333333333,
EG,PIB,Port Ibrahim,Port Ibrahim,,QQ,1-------,,31.26565925,32.311677581581165,true
EG,PSD,Port Said,Port Said,,AI,1--4----,,31.263235,32.305505,true
EG,PSE,Port Said East,Port Said East,SUZ,AA,123--6--,,31.216666666666665,32.35,
EG,PSW,Port Said West,Port Said West,SUZ,RL,--3-----,,31.25,32.28333333333333,
EG,PTK,Port Tewfik,Port Tewfik,,QQ,1-------,,,,
EG,MEA,Porto Marina El Alamein,Porto Marina El Alamein,MT,AA,1-3-----,,30.816666666666666,28.983333333333334,
EG,QUB,Qalyub,Qalyub,KB,RL,-----6--,,30.166666666666668,31.2,
EG,QSN,Quesna,Quesna,MNF,RL,-2------,,30.55,31.116666666666667,
EG,RAB,Ras Budran,Ras Budran,,RQ,1-------,,28.933333333333334,33.11666666666667,
EG,RAG,Ras Gharib,Ras Gharib,,QQ,1-------,,28.3483304,33.1109679,true
EG,RSH,Ras Shukheir,Ras Shukheir,,QQ,1-------,,,,
EG,RSU,Ras Sudr,Ras Sudr,,RQ,1-------,,29.6,32.666666666666664,
EG,PRA,Rashid,Rashid,BH,AA,--3-----,,31.4,30.4,
EG,SAD,Sadat City,Sadat City,BH,RL,--3--6--,,30.366666666666667,30.5,
EG,SGA,Safaga,Safaga,,QQ,1-------,,26.7633325,33.9383817,true
EG,SKR,Sakr Koreish,Sakr Koreish,,RQ,--3-----,,31.3,31.133333333333333,
EG,SAL,Sallum,Sallum,,RL,-23-----,,31.566666666666666,25.15,
EG,HHD,Samannud,Samannud,GH,AA,-2---6--,,30.95,31.233333333333334,
EG,SKV,Santa Katarina,Santa Katarina,,RQ,---4----,,28.683333333333334,34.05,
EG,SSI,Shamal Sinai,Shamal Sinai,,RQ,-----6--,,30.50428025,33.59100602395213,true
EG,GSQ,Shark El Oweinat,Shark El Oweinat,,RL,---4----,,22.583333333333332,28.7,
EG,SSH,Sharm ash Shaykh,Sharm ash Shaykh,JS,AI,1--4----,,27.866666666666667,34.28333333333333,
EG,QUH,Shebin Al Kawm,Shebin Al Kawm,MNF,RL,--3-----,,30.55,31,
EG,SBA,Sidi Barrani,Sidi Barrani,,QQ,0-------,,31.6112866,25.9258465,true
EG,SKT,Sidi Kerir Terminal,Sidi Kerir Terminal,,RQ,--3-----,,,,
EG,SEW,Siwa,Siwa,,RQ,---4----,,29.166666666666668,25.5,
EG,XOO,Sixth of October City,Sixth of October City,C,RQ,-----6--,,29.983333333333334,30.966666666666665,
EG,SHG,Sohag,Sohag,MT,RQ,0-------,,26.547748,31.699263,true
EG,SOK,Sokhna Port,Sokhna Port,,RQ,1-------,,29.65,32.35,
EG,SBY,Soma Bay Marina,Soma Bay Marina,BA,AA,1-3-----,,26.85,33.983333333333334,
EG,SOS,Sosdi/6th October,Sosdi/6th October,GZ,AA,-----6--,,29.81667,31.05,true
EG,SIN,South Sinai (Ganoub Sinai),South Sinai (Ganoub Sinai),SUZ,RQ,1----6--,,29.866666666666667,34,
EG,SCN,Suez Canal,Suez Canal,,AA,-----6--,,42.3,32.333333333333336,
EG,TCP,Taba,Taba,JS,RL,---4----,,29.583333333333332,34.766666666666666,
EG,TAN,Tanta,Tanta,GH,RL,-23-----,QTT,30.766666666666666,30.983333333333334,
EG,ELT,Tour Sinai City,Tour Sinai City,,RQ,---4----,,28.216666666666665,33.61666666666667,
EG,WAF,Wadi Feiran,Wadi Feiran,,QQ,1-------,,30.88514,34.36507,true
EG,ZTB,Zeit Bay,Zeit Bay,,RQ,------7-,,27.816666666666666,33.6,