country,location,name,nameWoDiacritics,subdivision,status,function,iata,lat,lon,geocoded
GB,BYS,Abbeystead,Abbeystead,LAN,RL,-----6--,,53.96666666666667,-2.6666666666666665,
GB,ASB,Abbots Bromley,Abbots Bromley,STS,RL,--3-----,,52.81666666666667,-1.8833333333333333,
GB,ABB,Abbots Langley,Abbots Langley,HRT,AF,--3-----,,51.7066382,-0.4178071,true
GB,AOM,Abbots Morton,Abbots Morton,WOR,RL,--3-----,,52.18333333333333,-1.95,
GB,AOT,Abbotsbury,Abbotsbury,DOR,RL,1-------,,50.666666666666664,-2.6,
GB,AOL,Abbotsley,Abbotsley,CAM,RL,1-------,,52.18333333333333,-0.2,
GB,ABS,Aber Sï¿½ch (Abersoch),Aber Soch (Abersoch),GWN,AA,1-3-----,,52.81666666666667,-4.5,
GB,ABA,Aberaeron,Aberaeron,CGN,AF,1-3-----,,52.25,-4.25,
GB,AOD,Aberbargoed,Aberbargoed,CAY,RL,-23-----,,51.7,-3.216666666666667,
GB,AEG,Aberbeeg,Aberbeeg,,AQ,-23--6--,,51.71666666666667,-3.1666666666666665,
GB,ACD,Abercanaid,Abercanaid,MTY,RL,--3-----,,51.71666666666667,-3.35,
GB,ABC,Abercarn,Abercarn,CAY,RL,-23-----,,51.65,-3.1333333333333333,
GB,ARC,Abercastle,Abercastle,PEM,AA,1-3-----,,51.95,-5.116666666666666,
GB,ACF,Abercraf,Abercraf,POW,AQ,--3--6--,,51.8,-3.7,
GB,AR9,Abercych,Abercych,PEM,RL,--3-----,,52.03333333333333,-4.55,
GB,ACY,Abercynon,Abercynon,RCT,RL,--3-----,,51.63333333333333,-3.3166666666666664,
GB,ABE,Aberdare,Aberdare,POW,AF,--3-----,,51.713353,-3.445555,true
GB,ADR,Aberdaron,Aberdaron,GWN,AA,1-3-----,,52.8,-4.716666666666667,
GB,ABD,Aberdeen,Aberdeen,ABE,AF,1--4----,ABZ,57.13333333333333,-2.1,
GB,AYD,Aberdour,Aberdour,FIF,AA,123-----,,56.05,-3.283333333333333,
GB,ABV,Aberdovey,Aberdovey,,RQ,1-------,,52.53333333333333,-4.05,
GB,ABF,Aberdyfi (Aberdovey),Aberdyfi (Aberdovey),GWN,AA,123-----,,52.55,-4.033333333333333,
GB,AFY,Aberfeldy,Aberfeldy,PKN,RL,--3-----,,56.61666666666667,-3.85,
GB,AFW,Aberffraw,Aberffraw,AGY,RL,1-------,,53.18333333333333,-4.45,
GB,AFE,Aberfoyle,Aberfoyle,STG,RL,--3-----,,56.18333333333333,-4.383333333333334,
GB,AGY,Abergavenny,Abergavenny,MON,AF,--3-----,,51.833333333333336,-3.0166666666666666,
GB,AEE,Abergele,Abergele,CWY,RL,123-----,,53.28333333333333,-3.5833333333333335,
GB,AGG,Abergwyngregyn,Abergwyngregyn,GWN,RL,--3-----,,53.38333333333333,-4.016666666666667,
GB,AED,Aberlady,Aberlady,ELN,RL,--3-----,,56.016666666666666,-2.85,
GB,ABL,Aberlour,Aberlour,MRY,RL,-23-----,,57.46666666666667,-3.216666666666667,
GB,ABM,Abermule,Abermule,POW,RL,--3-----,,52.53333333333333,-3.2333333333333334,
GB,ATE,Abernyte,Abernyte,PKN,RL,--3-----,,56.46666666666667,-3.2,
GB,ABP,Aberporth,Aberporth,CGN,RQ,--3-----,,52.13333333333333,-4.55,
GB,ABT,Abertillery,Abertillery,BGW,AF,-23-----,,51.733333333333334,-3.1166666666666667,
GB,AYW,Aberystwyth,Aberystwyth,CGN,AA,123-----,,52.416666666666664,-4.083333333333333,
GB,AGN,Abingdon,Abingdon,OXF,AF,--34----,ABB,51.6714842,-1.2779715,true
GB,ABN,Abington,Abington,NTH,AF,--3-----,,55.492181,-3.6921002,true
GB,ABY,Aboyne,Aboyne,ABD,AF,--3-----,,57.083333333333336,-2.8333333333333335,
GB,ARZ,Abram,Abram,WGN,RL,-----6--,,53.516666666666666,-2.5833333333333335,
GB,ABG,Abridge,Abridge,ESS,AF,--3-----,,51.6509826,0.1186571,true
GB,ACR,Accrington,Accrington,LAN,AF,--3-----,,53.7541156,-2.3655434,true
GB,ACA,Acharacle,Acharacle,HLD,RQ,1-3-----,,54.733333333333334,-5.783333333333333,
GB,ACI,A'Chill,A'Chill,HLD,RQ,--3-----,,57.05,-6.5,
GB,ACE,Achiltibuie,Achiltibuie,HLD,RL,1-------,,58.03333333333333,-5.366666666666666,
GB,AHN,Achnacroish,Achnacroish,AGB,AA,1-3-----,,56.5,-5.483333333333333,
GB,AKA,Acklam,Acklam,NYK,RQ,--3-----,,54.03333333333333,-0.8,
GB,ACK,Ackworth,Ackworth,WKF,AF,--3-----,,53.65,-1.3333333333333333,
GB,AMT,Ackworth Moor Top,Ackworth Moor Top,WKF,RL,--3-----,,53.63333333333333,-120.78333333333333,
GB,ACL,Acle,Acle,NFK,RL,-23-----,,52.63333333333333,1.55,
GB,ACG,Acocks Green/Birmingham,Acocks Green/Birmingham,BIR,RL,--3-----,,52.45,-1.8166666666666667,
GB,ACN,Acton,Acton,SHR,AF,--3-----,,54.3081632,-6.3760869,true
GB,ACT,Acton Grange,Acton Grange,CHE,AF,0-------,,51.61185,0.08612,true
GB,ATL,Acton Turville,Acton Turville,GLS,RQ,--3--6--,,51.516666666666666,-2.2666666666666666,
GB,ATO,"""Acton"," Sudbury""","""Acton"," Sudbury""",SFK,--3-----,52.0710417,0.7579926,true
GB,ADA,Adbaston,Adbaston,STS,RL,--3-----,,52.833333333333336,-2.35,
GB,ADY,Adderbury,Adderbury,OXF,AF,--3-----,,52.0165013,-1.3131166,true
GB,ADW,Addiewell,Addiewell,WLN,RL,--3-----,,55.833333333333336,-3.6166666666666667,
GB,ADD,Addingham,Addingham,BRD,AF,--3-----,,53.93333333333333,-1.8833333333333333,
GB,ADI,Addington,Addington,KEN,AF,--3-----,,51.95077565,-0.9190765645096417,true
GB,ADN,Addlestone,Addlestone,SRY,AF,--3-----,,51.3711193,-0.4895776,true
GB,APE,Addlethopre,Addlethopre,,RQ,--3-----,,53.2,0.3,
GB,ADL,Adlington,Adlington,LAN,AF,--3-----,,53.3195057,-2.1309128,true
GB,ALO,Adlington,Adlington,CHE,RL,--3-----,,53.3,-2.1333333333333333,
GB,ADO,Admaston,Admaston,TFW,RQ,--3-----,,52.71666666666667,-2.55,
GB,JDV,Adversane,Adversane,WSX,RL,-----6--,,50.983333333333334,-0.4666666666666667,
GB,AKS,Adwick le Street,Adwick le Street,DNC,RL,--3--6--,,53.56666666666667,-1.1833333333333333,
GB,AGH,Aghadowey,Aghadowey,CLR,RL,--3-----,,55.016666666666666,-6.666666666666667,
GB,ZHG,Ahoghill,Ahoghill,ANT,RQ,-----6--,,55.4,-6.6,
GB,AWR,Ailsworth,Ailsworth,CAM,AF,--3-----,,52.574706,-0.358428,true
GB,AIN,Aintree,Aintree,LIV,AF,--3-----,,53.46666666666667,-2.9333333333333336,
GB,AMR,Aird Ma Ruibhe,Aird Ma Ruibhe,AGB,AA,1-3-----,,57.7,-7.183333333333334,
GB,ADM,Aird Mhor (Ardmhor),Aird Mhor (Ardmhor),ELS,AA,1-3-----,,57.016666666666666,-7.416666666666667,
GB,AIR,Airdrie,Airdrie,NLK,AF,--3-----,,55.85,-3.9833333333333334,
GB,AII,Airlie,Airlie,ANS,RL,--3-----,,56.63333333333333,-3.1,
GB,AIH,Airth,Airth,FAL,RL,--3-----,,56.06666666666667,-3.7666666666666666,
GB,AIT,Aith,Aith,ZET,AA,1-3-----,,60.28333333333333,-1.3833333333333333,
GB,AOF,Alba Oil Field,Alba Oil Field,,RQ,------7-,,58.06666666666667,1.0666666666666667,
GB,ABO,Albourne,Albourne,WSX,RL,--3-----,,50.93333333333333,-0.18333333333333332,
GB,ABI,Albrighton,Albrighton,SHR,RQ,--3-----,,52.63333333333333,-2.2666666666666666,
GB,AIG,Albrighton,Albrighton,SHR,RL,--3-----,,52.75,-2.75,
GB,ACS,Alcester,Alcester,WAR,AF,--3-----,,52.2150202,-1.8695764,true
GB,ALY,Alconbury,Alconbury,CAM,AF,--34----,AYH,52.35816735,-0.2676529608237546,true
GB,AWO,Alconbury Weston,Alconbury Weston,CAM,RL,--3-----,,52.35,-0.26666666666666666,
GB,ABH,Aldborough,Aldborough,NFK,RL,--3-----,,52.86666666666667,1.25,
GB,ADB,Aldbourne,Aldbourne,WIL,AF,--3-----,,51.4800064,-1.6197755,true
GB,ALU,Aldbury,Aldbury,HRT,RL,--3-----,,51.8,-0.6,
GB,AOU,Aldebourne,Aldebourne,WIL,RL,--3-----,,51.46666666666667,-1.6166666666666667,
GB,ALB,Aldeburgh,Aldeburgh,SFK,AF,1-3-----,,52.1523814,1.6015691,true
GB,ALH,Aldenham,Aldenham,HRT,AQ,--3--6--,,51.666666666666664,-0.35,
GB,ALE,Alderley Edge,Alderley Edge,CHE,AF,--3-----,,53.3058355,-2.2375778,true
GB,ALR,Aldermaston,Aldermaston,WBK,AF,--3-----,,51.36666666666667,-1.15,
GB,AER,Alderminster,Alderminster,WAR,RL,--3-----,,52.13333333333333,-1.6666666666666665,
GB,GSR,Aldersgate,Aldersgate,LND,RL,1-3-----,,51.516666666666666,-0.08333333333333333,
GB,ALD,Aldershot,Aldershot,HAM,AF,--3-----,,51.2494169,-0.7630148,true
GB,ADH,Aldham,Aldham,ESS,RL,--3-----,,51.9,0.7833333333333333,
GB,ADT,Aldington,Aldington,KEN,RQ,--3--6--,,51.083333333333336,0.9333333333333333,
GB,ADG,Aldridge,Aldridge,WLL,AF,--3-----,,52.6,-1.9166666666666665,
GB,AW6,Aldworth,Aldworth,WBK,RL,--3-----,,51.5,-1.2,
GB,ALX,Alexandria,Alexandria,,AF,--3-----,,55.983333333333334,-4.6,
GB,ABX,Alford,Alford,LIN,RL,--3-----,,53.25,0.18333333333333332,
GB,AFO,Alford,Alford,ABD,RL,--3-----,,57.233333333333334,-2.716666666666667,
GB,ALF,Alfreton,Alfreton,DBY,AF,--3-----,,53.0972537,-1.3900241,true
GB,AFT,Alfriston,Alfriston,ESX,RL,--3-----,,50.8,0.15,
GB,ASE,Allestree,Allestree,DBY,AF,--3-----,,52.9447221,-1.496833,true
GB,GTG,Allington,Allington,LIN,RL,--3-----,,52.93333333333333,-0.7166666666666667,
GB,KK6,Allington,Allington,KEN,RL,--3-----,,51.28333333333333,0.5166666666666667,
GB,ALL,Alloa,Alloa,CLK,AA,123-----,,56.11666666666667,-3.783333333333333,
GB,AL2,Almeley,Almeley,HEF,RL,--3-----,,52.15,-2.9833333333333334,
GB,AOY,Almondsbury,Almondsbury,SGC,RL,--3-----,,51.55,-2.5666666666666664,
GB,ASS,Alness,Alness,HLD,RL,-23-----,,57.7,-4.25,
GB,ALM,Alnmouth,Alnmouth,NBL,AF,1-3-----,,55.38871445,-1.6130793551489297,true
GB,ALW,Alnwick,Alnwick,NBL,AF,--3-----,,55.4133398,-1.7072354,true
GB,APN,Alperton,Alperton,BEN,RL,--3--6--,,51.53333333333333,-0.2833333333333333,
GB,APH,Alphington,Alphington,DEV,RL,--3-----,,50.7,-3.5166666666666666,
GB,NAD,Alresford,Alresford,,RL,-----6--,,51.85008515,0.9933132679249994,true
GB,ARW,Alrewas,Alrewas,STS,RL,--3-----,,52.71666666666667,-1.7333333333333334,
GB,ALG,Alsager,Alsager,CHE,AF,--3-----,,53.096475,-2.303273,true
GB,ALS,Alston,Alston,CMA,AF,--3-----,,54.8124898,-2.4409724,true
GB,AHM,Altham,Altham,LAN,RL,--3-----,,53.78333333333333,-2.3333333333333335,
GB,ALP,Althorpe,Althorpe,NLN,RL,1-3-----,,53.583333333333336,-0.7333333333333333,
GB,ALN,Alton,Alton,HAM,AF,--3-----,,51.1489036,-0.9757677,true
GB,ALQ,Alton,Alton,STS,RL,--3-----,,52.96666666666667,-1.8833333333333333,
GB,ACM,Altrincham,Altrincham,TRF,AF,--3-----,,53.38333333333333,-2.35,
GB,ALA,Alva,Alva,CLK,AF,--3-----,,56.15,-3.8,
GB,AVH,Alvechurch,Alvechurch,WOR,RL,--3-----,,52.333333333333336,-1.95,
GB,AVL,Alveley,Alveley,SHR,AF,1-------,,52.4584553,-2.3499891,true
GB,ALV,Alveston,Alveston,SGC,AF,--3-----,,51.583333333333336,-2.5166666666666666,
GB,ALT,Alyth,Alyth,PKN,RL,--3-----,,56.61666666666667,-3.216666666666667,
GB,AMG,Ambergate,Ambergate,DBY,AF,-23-----,,53.0607122,-1.4805997,true
GB,AMB,Amble,Amble,NBL,AF,1-------,,55.3337748,-1.5839378,true
GB,AML,Ambleside,Ambleside,CMA,AF,1-3-----,,54.431954,-2.9630528,true
GB,AME,Amersham,Amersham,BKM,AF,--3-----,,51.676685,-0.607692,true
GB,AMS,Amesbury,Amesbury,WIL,AF,--3-----,,51.1726704,-1.775107,true
GB,AMW,Amlwch,Amlwch,AGY,AA,123-----,,53.416666666666664,-4.35,
GB,AMM,Ammanford,Ammanford,CMN,AF,--3-----,,51.8,-4,
GB,AM9,Ampfield,Ampfield,HAM,RL,--3-----,,51,-1.4166666666666667,
GB,AMP,Ampthill,Ampthill,CBF,RL,--3-----,,52.03333333333333,-0.5,
GB,ANA,Anasuria,Anasuria,SCT,RQ,1-----7-,,57.25,0.8,
GB,AN2,Ancaster,Ancaster,LIN,RL,-23-5---,,52.96666666666667,-0.5333333333333333,
GB,AN9,Anderton,Anderton,CHW,RL,--3-----,,53.266666666666666,-2.533333333333333,
GB,AVR,Andover,Andover,HAM,AF,--34----,ADV,51.2078275,-1.479355,true
GB,ADV,Andoversford,Andoversford,GLS,RL,--3-----,,51.86666666666667,-1.95,
GB,VLY,Anglesey,Anglesey,AGY,RL,---4----,,53.25,-4.533333333333333,
GB,ANB,Anlaby,Anlaby,,RL,--3-----,,53.733333333333334,-0.43333333333333335,
GB,ANG,Annalong,Annalong,NYM,AA,1-3-----,,54.1,-5.9,
GB,ANN,Annan,Annan,DGY,AA,123-----,,54.983333333333334,-3.2666666666666666,
GB,ANE,Annesley,Annesley,NTT,RQ,--3-----,,53.03333333333333,-1.2333333333333334,
GB,ANW,Annesley Woodhouse,Annesley Woodhouse,NTT,AF,-23-----,,53.0767201,-1.2564348,true
GB,ANP,Annfield Plain,Annfield Plain,DUR,RL,--3-----,,54.85,-1.7333333333333334,
GB,ANS,Anstruther,Anstruther,FIF,AA,1-3-----,,56.21666666666667,-2.7,
GB,ATY,Ansty,Ansty,WSX,RL,--3--6--,,51,-0.16666666666666666,
GB,AW3,Ansty,Ansty,WAR,RL,---4----,,52.416666666666664,-1.4,
GB,ANT,Antrim,Antrim,ANT,AF,--3-----,,54.7330259,-6.215127777720142,true
GB,AYB,Apperley Bridge,Apperley Bridge,,RL,-----6--,,53.8358184,-1.7050703,true
GB,API,Appin,Appin,AGB,RL,1-3-----,,56.56666666666667,-5.35,
GB,AP2,Appleby,Appleby,NLN,RL,--3-----,,53.61666666666667,-0.5666666666666667,
GB,AZV,Appleby,Appleby,CMA,RL,--3-----,,54.56666666666667,-2.4833333333333334,
GB,APS,Applecross,Applecross,HLD,RL,1-------,,57.38333333333333,-5.8,
GB,APP,Appledore,Appledore,,AF,1-------,,51.05,-4.2,
GB,APL,Appleton,Appleton,OXF,AF,--3-----,,51.7098231,-1.3627799,true
GB,APT,Appleton Thorn,Appleton Thorn,CHW,RL,--3-----,,53.333333333333336,-2.533333333333333,
GB,ABR,Appley Bridge,Appley Bridge,LAN,AF,--3-----,,53.5840403,-2.7237811,true
GB,AOE,Arboe (Ardboe),Arboe (Ardboe),CKT,RL,--3-----,,54.63333333333333,-6.55,
GB,ARB,Arbroath,Arbroath,ANS,AF,1-------,,56.56666666666667,-2.5833333333333335,
GB,DBG,Ardbeg,Ardbeg,AGB,RQ,1-------,,55.63333333333333,-6.1,
GB,AET,Ardentinny,Ardentinny,AGB,RL,1-------,,56.03333333333333,-4.9,
GB,ARS,Ardersier,Ardersier,HLD,AF,--3-----,,57.56666666666667,-4.033333333333333,
GB,ADF,Ardfern,Ardfern,AGB,AA,1-3-----,,56.18333333333333,-5.533333333333333,
GB,AGL,Ardglass,Ardglass,DOW,AA,1-3-----,,54.266666666666666,-5.616666666666667,
GB,AGU,Ardgour,Ardgour,HLD,AA,1-3-----,,56.71666666666667,-5.25,
GB,ADK,Ardkeen,Ardkeen,DOW,RQ,1-3-----,,54.416666666666664,-5.516666666666667,
GB,RDY,Ardley,Ardley,OXF,RL,-23-----,,51.93333333333333,-1.2166666666666668,
GB,AMH,Ardmaleish,Ardmaleish,AGB,AA,1-3-----,,55.86666666666667,-5.083333333333333,
GB,GIG,"""Ardminish"," Gigha Island""","""Ardminish"," Gigha Island""",AGB,1-3-----,55.6761909,-5.7411791,true
GB,AGW,Ardnagowan,Ardnagowan,AGB,RQ,--3-----,,56.2,-5.05,
GB,AMN,Ardnamurchan,Ardnamurchan,HLD,RL,1-------,,56.68333333333333,-6.083333333333333,
GB,ASG,Ardrishaig,Ardrishaig,AGB,AF,1-------,,56.016666666666666,-5.45,
GB,ARD,Ardrossan,Ardrossan,NAY,AF,1-------,,55.61666666666667,-4.816666666666666,
GB,ADE,Ardsley East = Ardsley,Ardsley East = Ardsley,LDS,RL,--3-----,,53.71666666666667,-1.5333333333333332,
GB,ARV,Ardveenish,Ardveenish,ELS,AA,1-3-----,,57,-7.4,
GB,MDI,Ardwick,Ardwick,47,RQ,1-------,,53.470265,-2.216392,true
GB,DYN,Ardyne,Ardyne,AGB,RL,1-------,,55.86666666666667,-5.033333333333333,
GB,GYL,Argyll,Argyll,,RQ,1-------,,56.15,2.8,
GB,AGO,Arinagour,Arinagour,AGB,AA,1-3-----,,56.61666666666667,-6.533333333333333,
GB,ARG,Arisaig,Arisaig,HLD,AA,123-----,,56.9,-5.85,
GB,AHO,Arkholme,Arkholme,LAN,RL,--3-----,,54.13333333333333,-2.6333333333333333,
GB,ASY,Arlesey,Arlesey,CBF,RL,--3-----,,52,-0.25,
GB,AEY,Arley,Arley,WAR,AF,--3-----,,53.323975,-2.4957233,true
GB,ALI,Arlington,Arlington,GLS,RL,1-------,,51.75,-1.8333333333333335,
GB,ARE,Armadale,Armadale,WLN,AF,--3-----,,55.9,-3.7,
GB,AMD,"""Armadale"," Isle of Skye""","""Armadale"," Isle of Skye""",HLD,1-3-----,57.0660084,-5.8986564,true
GB,ARM,Armagh,Armagh,ARM,AF,--3-----,,54.3481977,-6.6540432,true
GB,ANH,Arminghall,Arminghall,NFK,RL,--3-----,,52.583333333333336,1.3166666666666667,
GB,ARI,Armitage,Armitage,STS,AF,--3-----,,52.7426617,-1.8888333,true
GB,ATP,Armthorpe,Armthorpe,DNC,RL,--3-----,,52.53333333333333,-1.05,
GB,ARN,Arnesby,Arnesby,LEC,AF,--3-----,,52.5264823,-1.0890987753450005,true
GB,RAA,Arnish,Arnish,HLD,RL,--3-----,,57.45,-6.1,
GB,ARO,Arnold,Arnold,NTT,AF,--3-----,,53.0052605,-1.1255532,true
GB,NAR,Arran,Arran,NAY,RL,1-------,,55.583333333333336,-5.283333333333333,
GB,ARR,Arrington,Arrington,CAM,AF,1-------,,52.1349573,-0.062922,true
GB,AOH,Arrochar,Arrochar,AGB,RL,--3-----,,56.2,-4.733333333333333,
GB,ATG,Arthog,Arthog,GWN,RQ,--3-----,,52.7,-4.016666666666667,
GB,ART,Artigarvan,Artigarvan,STB,AF,--3-----,,54.85,-7.4,
GB,ARU,Arundel,Arundel,WSX,AF,--3-----,,50.85453835,-0.5648162995576137,true
GB,ASC,Ascot,Ascot,WNM,AF,--3-----,,51.4,-0.6666666666666666,
GB,AQO,Ash,Ash,KEN,AF,--3-----,,51.2809857,1.2803063,true
GB,AHV,Ash Vale,Ash Vale,SRY,RL,--3-----,,51.25,-0.7166666666666667,
GB,AHP,Ashampstead,Ashampstead,WBK,RQ,--3-----,,51.46666666666667,-1.1833333333333333,
GB,ABK,Ashbocking,Ashbocking,SFK,RQ,--3--6--,,52.15,1.1666666666666667,
GB,ASH,Ashbourne,Ashbourne,DBY,AF,--3-----,,53.0173327,-1.7342725,true
GB,ABU,Ashburton,Ashburton,DEV,RL,--3-----,,50.516666666666666,-3.75,
GB,ADZ,Ashby de la Zouch,Ashby de la Zouch,LEC,AF,--3-----,,52.75,-1.4666666666666668,
GB,ACU,Ashchurch,Ashchurch,GLS,RL,-23-----,,52,-2.1,
GB,AS6,Ashcott,Ashcott,SOM,RL,--3-----,,51.11666666666667,-2.8,
GB,AHL,Asheldham,Asheldham,ESS,RQ,--3-----,,51.666666666666664,0.85,
GB,ASD,Ashford,Ashford,KEN,AF,--3-----,QDH,51.0943724,-4.097273502655062,true
GB,ASF,Ashford,Ashford,SRY,AF,--3-----,,51.1466028,0.8703609662388758,true
GB,AHG,Ashington,Ashington,SOM,RL,--3-----,,50.983333333333334,-2.6333333333333333,
GB,AST,Ashington,Ashington,NBL,AF,--3-----,,55.1832364,-1.57027,true
GB,AGR,Ashley,Ashley,CAM,RL,--3-----,,52.21666666666667,0.48333333333333334,
GB,AS9,Ashley,Ashley,STS,RL,--3-----,,52.93333333333333,-2.3666666666666667,
GB,HA2,Ashley,Ashley,HAM,RL,1-3-----,,51.06666666666667,-1.45,
GB,AHE,Ashtead/London,Ashtead/London,SRY,RL,--3-----,,51.31666666666667,-0.31666666666666665,
GB,AHT,Ashton,Ashton,CHW,RL,--3-----,,53.21666666666667,-2.7333333333333334,
GB,ASM,Ashton in Makerfield,Ashton in Makerfield,SHN,AF,--3-----,,53.483333333333334,-2.65,
GB,AKY,Ashton Keynes,Ashton Keynes,WIL,RL,--3-----,,51.63333333333333,-1.9333333333333333,
GB,ASL,Ashton under Lyne,Ashton under Lyne,TAM,AF,--3-----,,53.5,-2.1,
GB,AHS,Ashurst,Ashurst,HAM,RL,--3-----,,50.88333333333333,-1.5166666666666666,
GB,AWA,Ashwater,Ashwater,DEV,RL,--3-----,,50.71666666666667,-4.283333333333333,
GB,ASW,Ashwell,Ashwell,LEC,AF,1-------,,52.713512,-0.7183261,true
GB,AWP,Ashwellthorpe,Ashwellthorpe,NFK,RL,--3-----,,52.53333333333333,1.1833333333333333,
GB,AIF,Askam In Furness,Askam In Furness,CMA,RQ,--3-----,,54.18333333333333,-3.216666666666667,
GB,ARK,Askern,Askern,DNC,RL,--3-----,,53.61666666666667,-1.1333333333333333,
GB,ASQ,Askham,Askham,CMA,RL,--3-----,,54.6,-2.783333333333333,
GB,ALC,Aslacton,Aslacton,NFK,RL,--3-----,,52.46666666666667,1.1666666666666667,
GB,ASP,Aspall,Aspall,SFK,RL,--3-----,,52.233333333333334,1.1666666666666667,
GB,AXP,Aspatria,Aspatria,CMA,RL,-23-----,,54.75,-3.3333333333333335,
GB,APU,Aspull,Aspull,MAN,RL,--3-----,,53.56666666666667,-2.5666666666666664,
GB,ATX,Astley,Astley,WOR,RQ,--3-----,,52.3,-2.3166666666666664,
GB,AAB,Astley Abbotts,Astley Abbotts,SHR,RQ,--3-----,,52.56666666666667,-2.4333333333333336,
GB,2AB,Aston,Aston,BIR,RL,--3-----,,52.5,-1.8833333333333333,
GB,AON,Aston,Aston,ROT,RQ,--3--6--,,53.3004184,-2.6659713,true
GB,ASN,Aston,Aston,WOK,AF,--3-----,,51.55,-0.8833333333333333,
GB,ASO,Aston,Aston,HRT,AF,--3-----,,53.3004184,-2.6659713,true
GB,AOW,Aston Cantlow,Aston Cantlow,WAR,RL,--3-----,,52.233333333333334,-1.8,
GB,ATN,Aston Clinton,Aston Clinton,BKM,AF,--3-----,,51.8025136,-0.7274903,true
GB,ASV,Aston Somerville,Aston Somerville,WOR,AF,--3-----,,52.03333333333333,-1.9333333333333333,
GB,ATM,Atcham,Atcham,SHR,RL,--3-----,,52.68333333333333,-2.6666666666666665,
GB,ATF,Athelstaneford,Athelstaneford,ELN,RQ,--3-----,,55.9868063,-2.746389,true
GB,ATA,Athena FPSO,Athena FPSO,,RL,------7-,,58.666666666666664,-0.95,
GB,ATH,Atherstone,Atherstone,WAR,AF,--3-----,,52.56666666666667,-1.55,
GB,ATR,Atherton,Atherton,WGN,AF,--3-----,,53.516666666666666,-2.5,
GB,ATT,Attenborough,Attenborough,NTT,AF,-23-----,,52.90626,-1.23162,true
GB,ATC,Attercliffe,Attercliffe,SHF,RL,-----6--,,53.4,-1.4333333333333333,
GB,AWL,Attleborough,Attleborough,NFK,AF,--3-----,,52.5179648,1.0105931,true
GB,AUK,Auchinleck,Auchinleck,EAY,RL,--3-----,,55.46666666666667,-4.3,
GB,AUC,Auchnacraig,Auchnacraig,AGB,RQ,--3-----,,56.4,-5.666666666666667,
GB,ACH,Auchterarder,Auchterarder,PKN,AF,--3-----,,56.2963188,-3.7065827,true
GB,AHH,Auchterhouse,Auchterhouse,ANS,RL,1----6--,,56.86666666666667,-3.1333333333333333,
GB,AMU,Auchtermuchty,Auchtermuchty,FIF,RL,--3-----,,56.28333333333333,-3.2333333333333334,
GB,AKL,Auckengill,Auckengill,HLD,RL,1-------,,58.56666666666667,-3.066666666666667,
GB,AUD,Audenshaw,Audenshaw,TAM,AF,-23-----,,53.46666666666667,-2.1,
GB,WAD,Audlem,Audlem,CHE,RQ,-----6--,,53.63333333333333,-2.85,
GB,ZAA,Augher,Augher,,RL,-----6--,,54.43333333333333,-7.15,
GB,AKV,Aughnacloy,Aughnacloy,DGN,AF,--3-----,,54.4147918,-6.9762879,true
GB,AUL,Aultbea,Aultbea,HLD,AA,1-3-----,,57.833333333333336,-5.566666666666666,
GB,AUS,Austrey,Austrey,WAR,RL,--3-----,,52.65,-1.5666666666666667,
GB,AP3,Authorpe,Authorpe,LIN,RL,--3-----,,53.3,0.08333333333333333,
GB,AVE,Aveley,Aveley,ESS,AF,--3-----,,51.5001066,0.2561792,true
GB,AIE,Aviemore,Aviemore,HLD,RQ,--3-----,,57.1937528,-3.8287496,true
GB,AVC,Avoch,Avoch,HLD,AA,1-3-----,,57.55,-4.166666666666667,
GB,AVO,Avonmouth,Avonmouth,BST,AF,1-------,,51.5,-2.6833333333333336,
GB,AXB,Axbridge,Axbridge,SOM,RL,--3-----,,51.28333333333333,-2.8,
GB,AXM,Axminster,Axminster,,AF,--3-----,,50.78333333333333,-2.9833333333333334,
GB,AXO,Axmouth,Axmouth,DEV,AA,1-3-----,,50.7,-3.05,
GB,AYF,Aycliffe,Aycliffe,DUR,AF,1-------,,51.1133226,1.2923049,true
GB,AYA,Aylesbeare,Aylesbeare,DEV,RL,--3-----,,50.71666666666667,-3.3666666666666667,
GB,AYL,Aylesbury,Aylesbury,BKM,AF,--3-----,,51.8161412,-0.8130383,true
GB,AYS,Aylesford,Aylesford,KEN,AF,--3-----,,51.3093091,0.4867331707150007,true
GB,AYE,Aylesham,Aylesham,KEN,AF,-23-----,,51.22539,1.20157,true
GB,AYT,Aylestone,Aylestone,LCE,RL,-----6--,,52.6,-1.15,
GB,AYH,Aylsham,Aylsham,NFK,RQ,--3-----,,52.78333333333333,1.25,
GB,AYM,Aymestrey,Aymestrey,HEF,RQ,--3-----,,52.28333333333333,-2.8333333333333335,
GB,AY9,Aynho,Aynho,OXF,RL,--3-----,,51.983333333333334,-1.25,
GB,AYR,Ayr,Ayr,SAY,AF,1-------,,55.45,-4.616666666666667,
GB,ACB,Back,Back,ELS,RL,1-------,,58.266666666666666,-6.316666666666666,
GB,BKC,"""Backaland"," Eday""","""Backaland"," Eday""",ORK,1-3-----,59.163569,-2.768811,true
GB,BAP,Bacup,Bacup,LAN,AF,--3-----,,53.7024932,-2.201046,true
GB,SGC,Badminton,Badminton,SGC,RL,1----6--,,51.53333333333333,-2.283333333333333,
GB,BGL,Bagillt,Bagillt,FLN,RL,--3-----,,53.266666666666666,-3.1666666666666665,
GB,BAG,Baginton,Baginton,WAR,AF,--3-----,,52.3711485,-1.4948832,true
GB,AGA,Baglan,Baglan,NTL,RL,--3-----,,51.61666666666667,-3.8,
GB,BGS,Bagshot,Bagshot,SRY,AF,--3-----,,51.3856189,-1.5451241,true
GB,AGE,Bagstone,Bagstone,SGC,AQ,-23--6--,,51.583333333333336,-2.45,
GB,BWZ,Bagworth,Bagworth,LEC,RL,--3--6--,,52.65,-1.3333333333333333,
GB,BAI,Baildon,Baildon,BRD,AF,--3-----,,53.85,-1.7666666666666666,
GB,ION,"""Baile Mor"," Iona""","""Baile Mor"," Iona""",AGB,1-3-----,56.4008282,-5.5280988,true
GB,BTI,Bailleston,Bailleston,GLG,RQ,--3-----,,55.847844,-4.114733,true
GB,BKW,Bakewell,Bakewell,DBY,AF,--3-----,,53.2148429,-1.6758613,true
GB,BAA,Bala,Bala,GWN,RL,--3-----,,52.9112205,-3.59947,true
GB,LPR,Balbeggie,Balbeggie,PKN,RL,--3-----,,56.43333333333333,-3.35,
GB,BBN,Balbriggan,Balbriggan,,RQ,1-3-----,,53.6,-6.166666666666667,
GB,BCM,Balcombe,Balcombe,WSX,RQ,--3-----,,51.0573017,-0.1329998,true
GB,DSN,Balderstone,Balderstone,LAN,RL,--3-----,,53.78333333333333,-2.5666666666666664,
GB,LDR,Balderton,Balderton,NTT,RL,--3-----,,53.06666666666667,-0.7833333333333333,
GB,BDX,Baldirton,Baldirton,CHW,RQ,1-------,,,,
GB,BAL,Baldock,Baldock,HRT,AF,--3-----,,51.9889973,-0.1882079,true
GB,BLO,Balerno,Balerno,EDH,RL,--3-----,,55.86666666666667,-3.3333333333333335,
GB,BFN,Balfron,Balfron,STG,RL,--3-----,,56.06666666666667,-4.333333333333333,
GB,BLI,Balintore,Balintore,HLD,AA,1-3-----,,57.75,-3.9,
GB,BCU,Ballachulish,Ballachulish,HLD,RQ,--3-----,,56.666666666666664,-5.116666666666666,
GB,BNR,Ballantrae,Ballantrae,SAY,AA,1-3-----,,55.083333333333336,-4.983333333333333,
GB,BAX,Ballater,Ballater,ABD,RL,--3-----,,57.05,-3.05,
GB,BXM,Ballinamallard,Ballinamallard,FER,RL,--3-----,,54.416666666666664,-7.583333333333333,
GB,DAC,Ballindalloch,Ballindalloch,MRY,RL,--3-----,,57.4,-3.3666666666666667,
GB,LHC,Ballindalloch,Ballindalloch,SCB,RL,--3-----,,57.4,-3.3666666666666667,
GB,BIN,Ballingry,Ballingry,FIF,RQ,--3--6--,,56.15,-3.3166666666666664,
GB,BYP,Ballintoy,Ballintoy,ANT,RL,1-------,,55.233333333333334,-6.35,
GB,BKO,Bally Kelly,Bally Kelly,CCG,AI,---4----,BOL,55.06666666666667,-7.016666666666667,
GB,BYC,Ballycastle,Ballycastle,ANT,AF,1-3-----,,55.2006882,-6.250282,true
GB,BAE,Ballyclare,Ballyclare,ANT,AF,--3-----,,54.7525296,-6.0010911,true
GB,DOR,Ballydorn,Ballydorn,DOW,RL,1-------,,54.483333333333334,-5.633333333333333,
GB,BYW,Ballygawley,Ballygawley,DGN,RL,--3-----,,54.46666666666667,-7.033333333333333,
GB,BGW,Ballygowan,Ballygowan,DOW,AF,--3-----,,54.5018813,-5.7918013,true
GB,BLG,Ballygown,Ballygown,AGB,AF,--3-----,,56.5,-6.166666666666667,
GB,ZLY,Ballygrant,Ballygrant,AGB,RQ,--3-----,,55.81666666666667,-6.15,
GB,BHB,Ballyhalbert,Ballyhalbert,DOW,RL,1-------,,54.5,-5.45,
GB,BLR,Ballylumford,Ballylumford,LRN,RL,1-3-----,,54.833333333333336,-5.783333333333333,
GB,LMN,Ballymartin,Ballymartin,NYM,RL,1-------,,54.06666666666667,-5.95,
GB,BYM,Ballymena,Ballymena,BLA,AF,-23-----,,54.8662966,-6.2760159,true
GB,BLM,Ballymoney,Ballymoney,BLY,AF,--3-----,,55.0702727,-6.5172758,true
GB,BLH,Ballynahinch,Ballynahinch,DOW,RL,--3-----,,54.4,-5.916666666666667,
GB,LYW,Ballywalter,Ballywalter,DOW,RL,1-------,,54.53333333333333,-5.483333333333333,
GB,BMC,Balmacara,Balmacara,HLD,RQ,1-3-----,,57.28333333333333,-5.616666666666667,
GB,MMI,Balmedie,Balmedie,ABD,RQ,--3-----,,57.233333333333334,-2.05,
GB,BM9,Balmoral,Balmoral,ANT,RL,--3-----,,54.55,-5.966666666666667,
GB,LBC,Balnabruaich,Balnabruaich,HLD,RL,--3-----,,58.233333333333334,-3.4333333333333336,
GB,BAC,Balsall Common,Balsall Common,SOL,AF,--3-----,,52.38333333333333,-1.65,
GB,BHE,Balsall Heath,Balsall Heath,BIR,RL,-23-----,,52.45,-1.8833333333333333,
GB,BSN,Baltasound,Baltasound,ZET,AI,1-------,,60.75,-0.8666666666666667,
GB,BAW,Baltic Wharf,Baltic Wharf,KEN,AF,1-------,,51.447665650000005,-2.613425088567265,true
GB,BVR,Balvicar,Balvicar,AGB,RL,1-------,,56.28333333333333,-5.6,
GB,BMB,Bamberbridge,Bamberbridge,LAN,AF,-23-----,,,,
GB,AMF,Bamford,Bamford,DBY,RL,--3-----,,53.35,-1.6833333333333333,
GB,BPD,Bampton,Bampton,DEV,RL,-----6--,,50.983333333333334,-3.4833333333333334,
GB,MPT,Bampton,Bampton,OXF,RL,--3-----,,51.71666666666667,-1.5333333333333332,
GB,BBG,Banbridge,Banbridge,BNB,RL,--3-----,,54.3514168,-6.2714623,true
GB,BAB,Banbury,Banbury,OXF,AF,1-------,,52.0601807,-1.3402795,true
GB,BNC,Banchory,Banchory,ABD,AF,--3-----,,57.05,-2.5166666666666666,
GB,BDK,Banchory - Devenick,Banchory - Devenick,ABD,AF,--3-----,,57.1,-2.15,
GB,BFF,Banff,Banff,ABD,AF,1-3-----,,57.666666666666664,-2.533333333333333,
GB,BOF,Banff Offshore,Banff Offshore,,RQ,------7-,,57,1.2833333333333332,
GB,BAN,Bangor,Bangor,DOW,RL,1-3-----,,53.2277163,-4.1268822,true
GB,BNG,Bangor,Bangor,GWN,AF,1-------,,53.2277163,-4.1268822,true
GB,WGR,Bangor-is-y-coed,Bangor-is-y-coed,WRX,RL,--3-----,,53.0029688,-2.9091531,true
GB,AKF,Bankfoot,Bankfoot,PKN,RQ,--3-----,,56.5,-3.5,
GB,BQK,Banks,Banks,LAN,RQ,--3-----,,53.68333333333333,-2.9166666666666665,
GB,BKB,Bannockburn,Bannockburn,STG,RL,-23-----,,56.083333333333336,-3.8833333333333333,
GB,BSA,Banstead,Banstead,SRY,RL,--3-----,,51.3238969,-0.1986813,true
GB,RHL,Bar Hill,Bar Hill,CAM,RQ,--3-----,,53.994998,-2.14802,true
GB,RLG,Bar Light,Bar Light,,RQ,1-------,,53.53333333333333,-3.3166666666666664,
GB,BCE,Barcaldine,Barcaldine,AGB,RL,1-------,,56.516666666666666,-5.3,
GB,ARY,Bardney,Bardney,LIN,RL,--3-----,,53.21666666666667,-0.31666666666666665,
GB,BVY,Bardon,Bardon,LEC,RL,--3-----,,52.7,-1.3333333333333333,
GB,BHI,Bardon Hill,Bardon Hill,LEC,RL,-23-----,,52.7,-1.3333333333333333,
GB,BDZ,Bardsea,Bardsea,CMA,RL,1-------,,54.15,-3.066666666666667,
GB,BYA,Bardsley,Bardsley,OLD,RQ,--3-----,,53.5,-2.1,
GB,BGO,Bargoed,Bargoed,CAY,AF,--3-----,,51.68333333333333,-3.2333333333333334,
GB,LBK,Barking,Barking,SFK,RL,--3--6--,,52.13333333333333,1.0166666666666666,
GB,BKG,Barking/London,Barking/London,ESS,AF,123-----,,51.5389922,0.0804245,true
GB,BK9,Barkisland,Barkisland,CLD,RL,--3-----,,53.666666666666664,-1.9166666666666665,
GB,BK7,Barkston,Barkston,LIN,RL,--3-----,,52.95,-0.6,
GB,XBR,Barlaston,Barlaston,STS,RQ,--3-----,,52.95,-2.1666666666666665,
GB,BLZ,Barlborough,Barlborough,DBY,RL,1----6--,,53.28333333333333,-1.2833333333333332,
GB,RLB,Barlby,Barlby,NYK,RQ,--3-----,,53.78333333333333,-1.0333333333333334,
GB,BT3,Barlestone,Barlestone,LEC,RL,--3-----,,52.63333333333333,-1.3666666666666667,
GB,BBM,Barmby Moor,Barmby Moor,ERY,RL,--3-----,,53.916666666666664,-0.8166666666666667,
GB,BMU,Barmouth,Barmouth,,RQ,1-------,,52.71666666666667,-4.05,
GB,ABW,Barmouth (Abermaw),Barmouth (Abermaw),GWN,AA,123-----,,52.71666666666667,-4.05,
GB,KNB,Barnack,Barnack,,RL,-----6--,,52.633307,-0.4083866,true
GB,ANC,Barnacle,Barnacle,WAR,RQ,--3--6--,,52.46666666666667,-1.4333333333333333,
GB,BCA,Barnard Castle,Barnard Castle,DUR,AF,--3-----,,54.5448091,-1.924642,true
GB,BAR,Barnes,Barnes,WND,AF,--3-----,,51.45,-1.2333333333333334,
GB,BHS,Barnet,Barnet,BNE,AF,-23-----,,51.65,-0.2,
GB,LNN,Barnetby le Wold,Barnetby le Wold,NLN,RL,--3-----,,53.56666666666667,-0.4,
GB,BTB,Barnetby-le-Wold,Barnetby-le-Wold,NLN,AQ,-23-----,,53.56666666666667,-0.4,
GB,AXN,Barnham,Barnham,SFK,RQ,1-------,,52.3799406,0.7528073,true
GB,BDB,Barnoldby le Beck,Barnoldby le Beck,,RQ,1-3-----,,53.5,-0.13333333333333333,
GB,BAK,Barnoldswick,Barnoldswick,LAN,AF,--3-----,,53.9170798,-2.187322,true
GB,BGE,Barns Green,Barns Green,WSX,RL,-23-----,,51.03333333333333,-0.4,
GB,BSY,Barnsley,Barnsley,BNS,AF,1-3-----,,53.55,-1.4833333333333334,
GB,BND,Barnstaple,Barnstaple,DEV,AA,123-----,,51.083333333333336,-4.066666666666666,
GB,BBX,Barnstone,Barnstone,NTT,RL,1----6--,,52.9,-0.9,
GB,BRR,Barra,Barra,,AI,1--4----,,57.0250086,-7.4475248,true
GB,BAH,Barrhead,Barrhead,ERW,AF,--3-----,,55.78333333333333,-4.383333333333334,
GB,AGT,Barrington,Barrington,SOM,RL,--3-----,,50.95,-2.85,
GB,B4R,Barrow,Barrow,SFK,RL,--3-----,,52.233333333333334,0.5833333333333334,
GB,BIF,Barrow in Furness,Barrow in Furness,CMA,AF,1--4----,BWF,54.11666666666667,-3.2333333333333334,
GB,BUO,Barrow On Soar,Barrow On Soar,LEC,RL,123--6--,,52.75,-1.1333333333333333,
GB,BWU,Barrow upon Trent,Barrow upon Trent,DBY,RL,1-3-----,,52.85,-1.4666666666666668,
GB,BAF,Barrowford,Barrowford,LAN,AF,-23-----,,53.8509186,-2.2208391405389625,true
GB,BHR,Barrow-upon-Humber,Barrow-upon-Humber,NLN,AF,1-3-----,,53.68333333333333,-0.38333333333333336,
GB,BYG,Barry,Barry,VGL,RL,-23-----,,51.4,-3.25,
GB,BAD,Barry Dock,Barry Dock,VGL,AF,1-------,,51.38333333333333,-3.25,
GB,BNJ,Barston,Barston,SOL,RL,-----6--,,52.38333333333333,-1.6833333333333333,
GB,BJT,Bartestree,Bartestree,HEF,AF,--3-----,,52.06666666666667,-2.6333333333333333,
GB,QRA,Bartley,Bartley,HAM,AF,--3-----,,50.9145321,-1.5650331,true
GB,BNM,Barton,Barton,CHW,AF,1-------,,54.6291302,-2.794986,true
GB,BBD,Barton Bendish,Barton Bendish,NFK,RL,--3-----,,52.61666666666667,0.5166666666666667,
GB,BCY,Barton in the Clay,Barton in the Clay,CBF,AF,--3-----,,51.96598,-0.42731,true
GB,BAZ,Barton on Sea,Barton on Sea,,RL,1-------,,50.733333333333334,-1.65,
GB,BTC,Barton Stacey,Barton Stacey,HAM,AF,--3-----,,51.1652672,-1.3785775,true
GB,BNH,Barton upon Humber,Barton upon Humber,NLN,AF,1-3-----,,53.666666666666664,-0.43333333333333335,
GB,BNO,Barton-under-Needwood,Barton-under-Needwood,STS,RL,--3-----,,52.75,-1.7166666666666668,
GB,RWA,Barway,Barway,CAM,RL,--3-----,,52.35,0.26666666666666666,
GB,BRL,Barwell,Barwell,LEC,AF,--3-----,,52.572713199999995,-1.358425510472559,true
GB,BAO,Bascote,Bascote,WAR,AF,--3-----,,52.2702765,-1.4083953,true
GB,BAS,Basildon,Basildon,ESS,AF,--3-----,,51.5754602,0.4757363,true
GB,BGK,Basingstoke,Basingstoke,HAM,AF,--3-----,XOB,51.2634763,-1.0664345946413198,true
GB,BDG,Bason Bridge,Bason Bridge,SOM,RL,--3-----,,51.21666666666667,-2.9333333333333336,
GB,BSF,Bassingfield,Bassingfield,NTT,AF,--3-----,,52.9298994,-1.079979,true
GB,BXF,Bassingham,Bassingham,LIN,RL,1----6--,,53.11666666666667,-0.6333333333333333,
GB,RSR,Baston,Baston,LIN,RL,--3-----,,52.7,-0.35,
GB,BTM,Bath,Bath,BAS,AF,-23-----,QQX,51.36666666666667,-2.35,
GB,AMO,Bathampton,Bathampton,SOM,RL,--3-----,,51.38333333333333,-2.3166666666666664,
GB,BTF,Bathford,Bathford,BAS,AF,-23-----,,51.4,-2.283333333333333,
GB,BTH,Bathgate,Bathgate,WLN,AF,--3-----,,55.9,-3.6333333333333333,
GB,BAY,Batley,Batley,KIR,AF,--3-----,,53.7,-1.6333333333333333,
GB,BTT,Battersea,Battersea,WND,AF,--3-----,,51.46666666666667,-0.15,
GB,BTE,Battle,Battle,ESX,AF,--3-----,,51.968787,-3.4426325,true
GB,BAT,Battlesbridge,Battlesbridge,ESS,AF,1-------,,51.6227852,0.5727647,true
GB,BT9,Baughurst,Baughurst,HAM,RL,--3-----,,51.333333333333336,-1.1666666666666667,
GB,BAU,Baulking,Baulking,OXF,AF,--3-----,,51.6147907,-1.5428752,true
GB,UMR,Baumber,Baumber,LIN,RL,--3-----,,53.25,-0.16666666666666666,
GB,BWB,Bawburgh,Bawburgh,NFK,RL,--3-----,,52.63333333333333,1.1833333333333333,
GB,BWT,Bawtry,Bawtry,DNC,AF,--3-----,,53.416666666666664,-1.0333333333333334,
GB,CBX,Baxenden,Baxenden,LAN,RL,1----6--,,53.733333333333334,-2.35,
GB,BEA,Beaconsfield,Beaconsfield,BKM,AF,--3-----,,51.6082881,-0.6571233,true
GB,BQX,Beadnell,Beadnell,NBL,RL,1-------,,55.55,-1.6333333333333333,
GB,JBH,Beamhurst,Beamhurst,STS,RL,--3-----,,52.916666666666664,-1.9166666666666665,
GB,BMN,Beaminster,Beaminster,DOR,AF,--3-----,,50.8097736,-2.7392749,true
GB,EMH,Beamish,Beamish,DUR,RL,--3-----,,54.86666666666667,-1.65,
GB,BEZ,Bearley,Bearley,WAR,RL,--3-----,,52.233333333333334,-1.7166666666666668,
GB,BSD,Bearsden,Bearsden,,AF,-23-----,,55.916666666666664,-4.35,
GB,BER,Bearsted,Bearsted,KEN,RL,--3-----,,51.266666666666666,0.5666666666666667,
GB,BW6,Bearwood,Bearwood,POL,RL,--3-----,,50.766666666666666,1.9333333333333333,
GB,BLU,Beaulieu,Beaulieu,HAM,AA,123-----,,50.81666666666667,-1.4333333333333333,
GB,BBL,Beauly,Beauly,HLD,RL,-----6--,,57.46666666666667,-43.333333333333336,
GB,BMR,Beaumaris,Beaumaris,GWN,AF,1-------,,53.262963,-4.0920538,true
GB,BEW,Beaworthy,Beaworthy,DEV,RL,--3-----,,50.766666666666666,-4.183333333333334,
GB,BEB,Bebington,Bebington,WRL,AF,-23-----,,53.35,-3.0166666666666666,
GB,BCC,Beccles,Beccles,SFK,AF,--3-----,,52.4583779,1.5622924,true
GB,EKR,Beck Row,Beck Row,SFK,RL,--3-----,,52.6,0.8,
GB,BKM,Beckenham,Beckenham,BRY,AF,--3-----,,51.4,-0.03333333333333333,
GB,BEK,Beckermet,Beckermet,CMA,RL,--3-----,,54.45,-3.5166666666666666,
GB,BK2,Beckford,Beckford,WOR,RL,--3-----,,52.016666666666666,-2.033333333333333,
GB,BHP,Beckhampton,Beckhampton,WIL,AF,--3-----,,51.4187603,-1.874273,true
GB,BEC,Beckingham,Beckingham,LIN,AF,1-------,,53.401993250000004,-0.8250218481913909,true
GB,BK4,Beckington,Beckington,SOM,RL,--3-----,,51.85,-2.283333333333333,
GB,BCT,Beckton,Beckton,NWM,AF,--3-----,,51.516666666666666,-0.6666666666666666,
GB,BDL,Bedale,Bedale,NYK,AF,--3-----,,54.29119,-1.5935016332784184,true
GB,BDD,Beddington,Beddington,CRY,AF,--3-----,,51.36666666666667,-0.11666666666666667,
GB,BED,Bedfont,Bedfont,HNS,RQ,--3-----,,51.4531236,-0.430874,true
GB,BEF,Bedford,Bedford,BDF,AF,--3-----,XQD,52.1363806,-0.4675041,true
GB,BD2,Bedhampton,Bedhampton,HAM,RL,1-3-----,,50.85,-1,
GB,BTN,Bedlington,Bedlington,NBL,AF,--3-----,,55.11666666666667,-1.5833333333333335,
GB,BTK,Bedstone,Bedstone,SHR,RL,1----6--,,52.36666666666667,-2.9333333333333336,
GB,BDW,Bedwas,Bedwas,CAY,AF,--3-----,,51.583333333333336,-3.183333333333333,
GB,BWO,Bedworth,Bedworth,WAR,AF,--3-----,,52.4792826,-1.4663202,true
GB,ENH,Beenham,Beenham,WBK,RL,1----6--,,51.416666666666664,-1.15,
GB,BXX,Beer,Beer,DEV,RL,1-------,,50.68333333333333,-3.0833333333333335,
GB,BSX,Beesands,Beesands,DEV,RL,1-------,,50.333333333333336,-3.5666666666666664,
GB,BEE,Beeston,Beeston,NTT,AF,0-------,,53.1237726,-2.686919,true
GB,EES,Beeston,Beeston,NFK,RL,--3-----,,52.7,0.8166666666666667,
GB,ESN,Beeston,Beeston,ERY,RQ,--3-----,,53.766666666666666,-1.55,
GB,BHA,Beetham,Beetham,CMA,RL,--3-----,,54.2,-2.7666666666666666,
GB,GHO,Beighton,Beighton,NFK,RL,--3-----,,52.61666666666667,1.5166666666666666,
GB,IGH,Beighton,Beighton,YOR,RL,--3-----,,53.333333333333336,-1.3333333333333333,
GB,BEI,Beith,Beith,NAY,AF,--3-----,,55.733333333333334,-4.633333333333333,
GB,BEL,Belfast,Belfast,BFS,AF,1--4-6--,BFS,54.983333333333334,-5.916666666666667,
GB,BZE,Belford,Belford,NBL,AQ,-23-----,,55.6,-1.8333333333333335,
GB,VVE,Belgrave,Belgrave,LCE,RL,1-------,,52.65,-2.166666666666667,
GB,BVA,Belgravia,Belgravia,LND,RL,--3-----,,51.483333333333334,-0.25,
GB,BHG,Bellaghy,Bellaghy,MFT,RL,--3-----,,54.8,-6.516666666666667,
GB,BKF,Belleek,Belleek,FER,RL,--3-----,,54.483333333333334,-8.1,
GB,BQL,Belleek,Belleek,ARM,RL,--3-----,,54.18333333333333,-6.483333333333333,
GB,BLL,Bellshill,Bellshill,NLK,AF,--3-----,,55.81666666666667,-4.016666666666667,
GB,BMT,"""Belmont"," Unst""","""Belmont"," Unst""",ZET,1-3-----,51.3437847,-0.2011522,true
GB,BLP,Belper,Belper,DBY,AF,--3-----,,53.0229029,-1.4817414,true
GB,BEN,Belton,Belton,NLN,RQ,--3--6--,,53.53333333333333,-0.8166666666666667,
GB,BLQ,Belton,Belton,LIN,RL,--3-----,,52.95,-0.6166666666666667,
GB,BQT,Belton,Belton,LEC,RL,--3-----,,52.766666666666666,-1.3333333333333333,
GB,BLV,Belvedere,Belvedere,BEX,AF,--3-----,,51.483333333333334,-0.15,
GB,BBP,Bembridge,Bembridge,IOW,AI,1-34----,,50.68333333333333,-1.0833333333333333,
GB,BBC,Benbecula,Benbecula,ELS,AI,---4----,BEB,57.46666666666667,-7.35,
GB,NDN,Benenden,Benenden,KEN,RL,--3-----,,51.06666666666667,0.5833333333333334,
GB,BNF,Benfield,Benfield,DGY,AF,--3-----,,,,
GB,BHC,Benllech,Benllech,AGY,RQ,--3-----,,53.31666666666667,-4.216666666666667,
GB,BES,Benson,Benson,OXF,AI,---4----,BEX,51.63333333333333,-1.1166666666666667,
GB,EHM,Bentham,Bentham,GLS,RL,--3-----,,51.85,-2.1333333333333333,
GB,NTY,Bentley,Bentley,,RL,--3-----,,53.53333333333333,-1.15,
GB,BY2,Bentley FPSO,Bentley FPSO,ZET,RL,------7-,,60,1.6666666666666665,
GB,YBF,Bere Ferrers,Bere Ferrers,DEV,RL,--3-----,,50.45,-4.166666666666667,
GB,BGI,Bere Regis,Bere Regis,DOR,RL,--3-----,,50.75,-2.216666666666667,
GB,BFL,berinsfield,berinsfield,OXF,RQ,--3-----,,51.6618432,-1.1724743,true
GB,BKE,Berkeley,Berkeley,GLS,RL,--3-----,,51.68333333333333,-2.466666666666667,
GB,BKH,Berkhamsted,Berkhamsted,HRT,AF,--3-----,,51.7607271,-0.5652554,true
GB,ZAB,Berkley,Berkley,SOM,RL,-----6--,,51.233333333333334,-2.2666666666666666,
GB,RSW,Berkswell,Berkswell,SOL,RL,--3-----,,52.4,-1.6333333333333333,
GB,BME,Bermondsey/London,Bermondsey/London,SWK,AQ,-23-----,,51.5,-0.06666666666666667,
GB,RNR,Bernera (Lewis),Bernera (Lewis),ELS,RL,1-------,,58.18333333333333,-6.983333333333333,
GB,RNN,Bernera (N Uist),Bernera (N Uist),ELS,RL,1-------,,57.6,-7.15,
GB,ERR,Berriedale,Berriedale,HLD,AF,0-------,,58.18333333333333,-3.5,
GB,BEH,Berry Head,Berry Head,,AF,1-3-----,,50.4,-3.4833333333333334,
GB,BVB,Berrynarbor,Berrynarbor,DEV,RL,--3-----,,51.2,-4.066666666666666,
GB,BWK,Berwick-upon-Tweed,Berwick-upon-Tweed,NBL,AF,1-------,XQG,55.78333333333333,-2,
GB,BPF,Beryl Platform,Beryl Platform,,RQ,------7-,,59.53333333333333,1.5333333333333332,
GB,ZSS,Bessbrook,Bessbrook,NYM,RQ,-----6--,,54.31666666666667,-6.65,
GB,BTW,Betchworth,Betchworth,SRY,AF,--3-----,,51.23040195,-0.2612444081128881,true
GB,BNI,Bethania,Bethania,CGN,RQ,--3--6--,,52.233333333333334,-4.083333333333333,
GB,BH2,Bethersden,Bethersden,KEN,RL,--3-----,,51.11666666666667,0.75,
GB,BET,Bethesda,Bethesda,PEM,AF,--3-----,,51.81666666666667,-4.766666666666667,
GB,ETH,Bethesda,Bethesda,GWN,RQ,--3-----,,53.166666666666664,-4.083333333333333,
GB,XHA,Bethesda,Bethesda,PEM,RL,-----6--,,51.81666666666667,-4.766666666666667,
GB,BTG,Bethnal Green/London,Bethnal Green/London,TWH,RL,--3-----,,51.516666666666666,-0.05,
GB,ETY,Betley,Betley,STS,RQ,--3--6--,,53.03333333333333,-2.35,
GB,TWN,Bettws Newydd,Bettws Newydd,MON,RL,--3-----,,51.733333333333334,-2.9166666666666665,
GB,BXC,Betws-y-Coed,Betws-y-Coed,,RL,--3-----,,53.083333333333336,-3.8,
GB,BYH,Betws-yn-rhos,Betws-yn-rhos,CWY,RL,--3-----,,53.25,-3.65,
GB,BEV,Beverley,Beverley,ERY,AF,--3-----,,53.833333333333336,-0.4166666666666667,
GB,EEB,Bewdley,Bewdley,WOR,RQ,--3-----,,52.3754763,-2.3162408,true
GB,BXB,Bexhill,Bexhill,ESX,AA,123-----,,50.85,0.4666666666666667,
GB,BEX,Bexley,Bexley,BEX,AF,-23-----,,51.43333333333333,0.15,
GB,BXL,Bexleyheath,Bexleyheath,BEX,RL,-----6--,,51.46291,0.13943,true
GB,BXW,Bexwell,Bexwell,NFK,RQ,-----6--,,53,0.6833333333333333,
GB,BIC,Bicester,Bicester,OXF,AF,--3-----,,51.8988832,-1.1518287,true
GB,BIH,Bickenhill,Bickenhill,SOL,RL,--3-----,,52.43333333333333,-1.7166666666666668,
GB,BKQ,Bicker,Bicker,LIN,RL,--3-----,,52.916666666666664,-0.16666666666666666,
GB,BQQ,Bickington,Bickington,,RL,1-------,,50.53333333333333,-3.6833333333333336,
GB,BKL,Bickley,Bickley,BRY,AF,-23-----,,51.38333333333333,0.03333333333333333,
GB,BIA,Bicknacre,Bicknacre,ESS,RQ,--3-----,,51.68333333333333,0.5833333333333334,
GB,BDE,Biddenden,Biddenden,KEN,RL,--3-----,,51.1,0.6333333333333333,
GB,BDU,Biddulph,Biddulph,STS,AF,--3-----,,53.1164587,-2.1730905,true
GB,BID,Bideford,Bideford,,AF,1-------,,51.016666666666666,-4.216666666666667,
GB,BAV,Bidford,Bidford,WAR,AF,--3-----,,52.1656073,-1.8558927,true
GB,BDO,Bidston,Bidston,WRL,RL,-23-----,,53.4,-3.0833333333333335,
GB,BDS,Bieldside,Bieldside,ABD,RL,--3-----,,57.1,-2.183333333333333,
GB,BGX,Biggar,Biggar,SLK,AQ,--3-----,,55.61666666666667,-3.5166666666666666,
GB,BQH,Biggin Hill,Biggin Hill,SRY,AF,--34----,,51.28333333333333,0.3333333333333333,
GB,BIW,Biggleswade,Biggleswade,CBF,AF,--3-----,,52.0882012,-0.2589013,true
GB,BBH,Bilborough,Bilborough,NTT,AF,--3-----,,52.96366,-1.21948,true
GB,BIL,Billericay,Billericay,ESS,AF,--3-----,,51.6284395,0.4218142,true
GB,BSQ,Billesdon,Billesdon,LEC,RL,--3-----,,52.6,-0.9333333333333333,
GB,UGH,Billingborough,Billingborough,LIN,RL,1-------,,52.88333333333333,-20,
GB,IGE,Billinge,Billinge,LAN,RL,--3-----,,53.81666666666667,-3.1833333333333336,
GB,BHW,Billingham,Billingham,STT,AF,1-------,,54.6,-1.3,
GB,BHY,Billinghay,Billinghay,LIN,RL,--3-----,,53.083333333333336,-0.2833333333333333,
GB,BGT,Billingshurst,Billingshurst,WSX,AF,--3-----,,51.0229148,-0.4515772,true
GB,NTB,Bilsington,Bilsington,,RL,-----6--,,51.1,9.266666666666667,
GB,BTP,Bilsthorpe,Bilsthorpe,NTT,RL,-23-----,,53.13333333333333,-1.0333333333333334,
GB,BIS,Bilston,Bilston,WLV,AF,--3-----,,55.8687362,-3.1798758,true
GB,BOZ,Bilton,Bilton,NYK,RL,--3--6--,,53.95,-1.2666666666666666,
GB,BIB,Binbrook,Binbrook,LEC,RQ,-----6--,,53.7,-0.2833333333333333,
GB,BFI,Binfield,Binfield,BRC,AF,--3-----,,51.43333333333333,-0.7833333333333333,
GB,BAM,Bingham,Bingham,NTT,AF,--3-----,,52.9515683,-0.9522445,true
GB,BGY,Bingley,Bingley,BRD,AF,1-------,,53.85,-1.8333333333333335,
GB,BNL,Binley,Binley,HAM,AF,--3-----,,51.2780987,-1.3996915,true
GB,INE,Binley,Binley,COV,RL,--3-----,,52.38333333333333,-1.4333333333333333,
GB,ITA,Binstead,Binstead,IOW,RL,--3-----,,51.2,-1.3,
GB,BCV,Birch Vale,Birch Vale,DBY,RQ,--3--6--,,53.36666666666667,-1.9666666666666668,
GB,BCI,Birchington,Birchington,KEN,RL,-23-----,,51.36666666666667,1.3,
GB,ZAC,Birchwood,Birchwood,,RL,-----6--,,53.233333333333334,-0.6,
GB,BTS,Bircotes,Bircotes,NTT,AF,--3-----,,53.4167902,-1.0578974,true
GB,BIM,Birdham,Birdham,WSX,RL,--3-----,,50.78333333333333,-0.8333333333333334,
GB,IRA,Birdham,Birdham,,RQ,--3-----,,50.78333333333333,-0.8166666666666667,
GB,BDP,Birdlip,Birdlip,GLS,RQ,--3-----,,51.8278167,-2.1089482,true
GB,BDA,Birkdale,Birkdale,SFT,AQ,123-----,,53.63333333333333,-3.033333333333333,
GB,BRK,Birkenhead,Birkenhead,WRL,AF,123-----,,53.4,-3.033333333333333,
GB,KSA,Birkenshaw,Birkenshaw,YOR,RL,--3-----,,53.75,-1.6833333333333333,
GB,BHM,Birmingham,Birmingham,BIR,AF,-2345---,BHX,52.46666666666667,-1.9166666666666665,
GB,RSB,Birsay,Birsay,ORK,RL,1-------,,59.11666666666667,-3.283333333333333,
GB,BIT,Birstall,Birstall,LEC,RL,-23-----,,52.666666666666664,-1.1166666666666667,
GB,BZL,Birstall,Birstall,KIR,RL,--3-----,,53.733333333333334,-1.65,
GB,BWH,Birstwith,Birstwith,NYK,RL,--3-----,,54.03333333333333,-1.6166666666666667,
GB,BIE,Birtley,Birtley,NBL,RQ,--3-----,,52.3,-2.9166666666666665,
GB,BIR,Birtley,Birtley,GAT,AF,--3-----,,55.0978629,-2.1904683,true
GB,BIP,Bishop Auckland,Bishop Auckland,DUR,AF,1-------,,54.6640762,-1.6752864,true
GB,BHN,Bishop Thornton,Bishop Thornton,NYK,RL,--3-----,,54.05,-1.6,
GB,BSP,Bishopbriggs,Bishopbriggs,EDU,AF,--3-----,,55.9,-4.233333333333333,
GB,QWR,Bishops Castle,Bishops Castle,SHR,RL,1----6--,,52.5,-3,
GB,BPC,Bishop's Cleeve,Bishop's Cleeve,GLS,RQ,--3-----,,51.95,-2.066666666666667,
GB,BFM,Bishops Frome,Bishops Frome,HEF,RL,-----6--,,52.13333333333333,-2.5,
GB,BPG,Bishops Itchington,Bishops Itchington,WAR,RL,--3-----,,52.2,-1.4333333333333333,
GB,BPY,Bishops Lydeard,Bishops Lydeard,SOM,RL,--3-----,,51.05,-3.183333333333333,
GB,BST,Bishop's Stortford,Bishop's Stortford,HRT,AF,--3-----,,51.8676279,0.1631961,true
GB,BPW,Bishop's Waltham,Bishop's Waltham,HAM,AF,--3-----,,50.954948,-1.2139918,true
GB,PQT,Bishopsteignton,Bishopsteignton,DEV,RL,1----6--,,50.55,-3.533333333333333,
GB,BPK,Bishopstoke,Bishopstoke,HAM,RL,--3-----,,50.96666666666667,-1.3333333333333333,
GB,BSW,Bishopsworth,Bishopsworth,BST,AF,--3-----,,51.4,-2.6,
GB,BOP,Bishopton,Bishopton,RFW,RQ,--3-----,,55.9,-4.5,
GB,BIY,Bisley,Bisley,GLS,RL,--3-----,,51.75,-2.15,
GB,ISL,Bisley,Bisley,SRY,RL,--3-----,,51.31666666666667,-0.6333333333333333,
GB,BIO,Bitton,Bitton,SGC,RQ,--3-----,,51.416666666666664,-2.45,
GB,BY4,Blaby,Blaby,LEC,RL,--3-----,,52.56666666666667,-1.15,
GB,BPL,Black Pill,Black Pill,SWA,AF,--3-----,,51.583333333333336,-3.9833333333333334,
GB,BCB,Blackboys,Blackboys,ESX,RL,--3-----,,50.95,0.16666666666666666,
GB,BA5,Blackburn,Blackburn,ABD,RL,--3-----,,57.2,-2.3,
GB,BLB,Blackburn,Blackburn,LAN,AF,1-------,,55.89185295,-2.359837830959066,true
GB,BBS,Blackbush,Blackbush,,AI,---4----,,51.6527649,0.1547455119542364,true
GB,BFP,Blackford,Blackford,ABD,RL,1-------,,57.4,-2.4833333333333334,
GB,BFR,Blackford,Blackford,PKN,RQ,--3-----,,56.25,-3.7666666666666666,
GB,BLA,Blackford,Blackford,SOM,AF,--3-----,,55.9265763,-3.1859869,true
GB,BCF,Blackfordby,Blackfordby,LEC,RL,--3-----,,52.75,-1.5166666666666666,
GB,BKI,Blackhall Colliery,Blackhall Colliery,DUR,RQ,--3-----,,54.733333333333334,-1.2833333333333332,
GB,BK5,Blackheath,Blackheath,SAW,RL,-23-----,,52.46666666666667,-2.033333333333333,
GB,BHT,Blackheath/London,Blackheath/London,,RL,--3-----,,51.50853,-0.12574,true
GB,AKR,Blackmoor,Blackmoor,HAM,RL,--3-----,,51.083333333333336,-0.8833333333333333,
GB,BKX,Blackmore End,Blackmore End,ESS,RQ,--3-----,,51.95,0.5333333333333333,
GB,BKS,Blackness,Blackness,FAL,AA,1-3-----,,56,-3.5166666666666666,
GB,BLK,Blackpool,Blackpool,LAN,AF,1--4----,,53.773228849999995,-3.0371900877377973,true
GB,BCO,Blackrod,Blackrod,BOL,RL,-23-----,,53.583333333333336,-2.5833333333333335,
GB,BNX,Blackwell,Blackwell,DBY,RQ,1-------,,54.8695077,-2.9324629,true
GB,BLW,Blackwood,Blackwood,CAY,AF,--3-----,,51.666666666666664,-3.2,
GB,BCW,Blackwood Hill,Blackwood Hill,MON,RL,-23-----,,51.766666666666666,-3.183333333333333,
GB,EUF,Blaenau-Ffestiniog,Blaenau-Ffestiniog,GWN,RL,--3-----,,52.983333333333334,-3.9333333333333336,
GB,BVN,Blaenavon,Blaenavon,TOF,RL,--3-----,,51.78333333333333,-3.0833333333333335,
GB,YKJ,Blaina,Blaina,BGW,AF,--3-----,,51.766666666666666,-3.1666666666666665,
GB,ZTH,Blair Atholl,Blair Atholl,PKN,RQ,--3-----,,56.75,-3.85,
GB,ZLD,Blairgowrie,Blairgowrie,PKN,AF,--3-----,,56.583333333333336,-3.3333333333333335,
GB,BLJ,Blairmore,Blairmore,AGB,RL,1-------,,55.983333333333334,-4.9,
GB,BLC,Blakeney,Blakeney,NFK,AA,1-3-----,,52.95,1.0166666666666666,
GB,LKN,Blakeney,Blakeney,GLS,RL,--3-----,,51.766666666666666,-2.4833333333333334,
GB,BLF,Blandford Forum,Blandford Forum,DOR,AF,--3-----,,50.8576197,-2.1631125,true
GB,BFA,Blandford Saint Mary,Blandford Saint Mary,DOR,RL,--3-----,,50.85,-2.1666666666666665,
GB,BYR,Blantyre,Blantyre,SLK,AF,--3-----,,55.766666666666666,-4.1,
GB,BLD,Blaydon,Blaydon,GAT,AF,--3-----,,54.96666666666667,-1.7,
GB,BCG,Bletchingdon,Bletchingdon,OXF,RQ,--3-----,,51.85,-1.25,
GB,BLN,Bletchingley,Bletchingley,SRY,AF,--3-----,,51.2402688,-0.100084,true
GB,BLE,Bletchley,Bletchley,BKM,AF,--3-----,,52.8992201,-2.5625329,true
GB,WJH,Blewbury,Blewbury,OXF,RL,1----6--,,51.55,-1.2333333333333334,
GB,BDH,Blidworth,Blidworth,NTT,RL,--3-----,,53.1,-1.1166666666666667,
GB,BKY,Blockley,Blockley,GLS,AF,--3-----,,52.022390650000006,-1.740822133854724,true
GB,BLX,Bloxwich,Bloxwich,WLL,AF,--3-----,,52.61666666666667,-2,
GB,UNH,Blunham,Blunham,CBF,RQ,--3-----,,52.13333333333333,-0.31666666666666665,
GB,BLY,Blyth,Blyth,NBL,AF,1-------,,55.1270903,-1.5099726,true
GB,YTH,Blyth,Blyth,NTT,RL,1----6--,,53.36666666666667,-1.0666666666666667,
GB,BYB,Blythe Bridge,Blythe Bridge,STS,AF,--3-----,,52.96666666666667,-2.066666666666667,
GB,BY3,Blyton,Blyton,LIN,RL,--3-----,,53.43333333333333,-0.7166666666666667,
GB,GAN,Boat of Garten,Boat of Garten,HLD,RQ,--3-----,,57.333333333333336,-3.7333333333333334,
GB,BB2,Bobbington,Bobbington,SHR,RL,--3-----,,52.516666666666666,-2.283333333333333,
GB,DMB,Boddam,Boddam,ABD,RL,1-------,,57.45,-1.7666666666666666,
GB,BWY,Bodelwyddan,Bodelwyddan,DEN,RL,--3-----,,53.25,-3.4833333333333334,
GB,BFO,Bodffordd,Bodffordd,AGY,AQ,12---6--,,53.266666666666666,-4.366666666666666,
GB,BDM,Bodmin,Bodmin,CON,AF,--3-----,,50.470725,-4.7243205,true
GB,BD9,Bodorgan,Bodorgan,GWN,RL,--3-----,,53.166666666666664,-4.4,
GB,BSI,Bognor Regis,Bognor Regis,WSX,AA,123-----,,50.78333333333333,-0.6833333333333333,
GB,BDN,Boldon,Boldon,STY,AF,--3-----,,54.95,-1.4666666666666668,
GB,BOI,Bollington,Bollington,CHE,AF,--3-----,,53.292659,-2.105811,true
GB,WSX,Bolney,Bolney,WSX,RL,--3-----,,50.983333333333334,-0.2,
GB,BSO,Bolsover,Bolsover,DBY,AF,0-------,,53.228666,-1.2912756,true
GB,LTD,Bolt Head,Bolt Head,,RQ,1-------,,50.21666666666667,-3.783333333333333,
GB,BLT,Bolton,Bolton,BOL,AF,1-------,,53.583333333333336,-2.4333333333333336,
GB,BNS,Bolton le Sands,Bolton le Sands,LAN,AF,--3-----,,54.083333333333336,-2.783333333333333,
GB,ZAD,Boncath,Boncath,PEM,RL,-----6--,,52,-4.616666666666667,
GB,BON,Bo'ness,Bo'ness,FAL,AF,1-------,,56,-3.6,
GB,OGA,Boningale,Boningale,SHR,RL,--3-----,,52.61666666666667,-2.2666666666666666,
GB,BNY,Bonnybridge,Bonnybridge,FAL,AF,--3-----,,56,-3.8833333333333333,
GB,BOG,Bonnyrigg,Bonnyrigg,MLN,AF,--3-----,,55.86666666666667,-3.1,
GB,BTU,Bontddu,Bontddu,GWN,RL,--3-----,,52.75,-3.966666666666667,
GB,BOE,Bootle,Bootle,SFT,AF,1-------,,53.46666666666667,-3.0166666666666666,
GB,BOO,Bootle,Bootle,CMA,RQ,--3-----,,54.266666666666666,-3.3666666666666667,
GB,BOR,Borden,Borden,KEN,AF,--3-----,,51.331427649999995,0.6861865078967861,true
GB,BEG,Bordesley Green,Bordesley Green,BIR,RQ,--3-----,,52.416666666666664,-1.8666666666666667,
GB,ODN,Bordon,Bordon,HAM,RL,--3-----,,51.11666666666667,-0.85,
GB,BDC,Bordon Camp,Bordon Camp,CAM,AF,--3-----,,51.705699,-2.363973,true
GB,OAM,Boreham,Boreham,ESS,RL,--3-----,,51.766666666666666,0.55,
GB,BMD,Borehamwood,Borehamwood,HRT,AF,--3-----,,51.6604863,-0.2706506,true
GB,BGN,Borough Green,Borough Green,KEN,AF,-23-----,,51.2904688,0.3085658731510914,true
GB,BBR,Boroughbridge,Boroughbridge,NYK,AF,--3-----,,54.0943398,-1.3947113,true
GB,SBS,Borrowstounness,Borrowstounness,FAL,RL,--3-----,,56.016666666666666,-3.6,
GB,BSS,Borrowstowness,Borrowstowness,CMA,RQ,1-------,,54.43333333333333,-3.5166666666666666,
GB,BOT,Borth-y-Gest,Borth-y-Gest,GWN,AA,1-3-----,,52.916666666666664,-4.133333333333334,
GB,BSC,Boscastle,Boscastle,CON,AA,1-3-----,,50.68333333333333,-4.7,
GB,BOD,Boscombe,Boscombe,DOR,AF,--3-----,,51.1470951,-1.7128481,true
GB,OHM,Bosham,Bosham,WSX,RL,1-------,,50.81666666666667,-0.8666666666666667,
GB,BSL,Bosley,Bosley,CHE,AF,1-------,,53.191166100000004,-2.1182961628310975,true
GB,BOS,Boston,Boston,LIN,AF,1-------,,52.9776561,-0.0237985,true
GB,BS2,Boston Spa,Boston Spa,LDS,RL,--3-----,,53.9,-1.35,
GB,BWL,Bothwell,Bothwell,SLK,AF,--3-----,,55.8,-4.066666666666666,
GB,BOL,Botley,Botley,BKM,AF,1-------,,51.7101501,-0.5785421,true
GB,BOY,Botley,Botley,HAM,AF,--3-----,,50.9191504,-1.2763762863148083,true
GB,BTY,Botley,Botley,OXF,AF,--3-----,,51.7101501,-0.5785421,true
GB,ZTT,Bottesford,Bottesford,LEC,RQ,-----6--,,53.55,-1.3333333333333333,
GB,BHO,Boughton,Boughton,NFK,RL,--3-----,,52.583333333333336,0.5,
GB,GBO,Boughton,Boughton,NTT,AQ,-23--6--,,53.2,-1,
GB,BMX,Boulmer,Boulmer,,RL,1-------,,55.416666666666664,-1.5666666666666667,
GB,BOM,Boultham,Boultham,LIN,RL,--3-----,,53.21666666666667,-0.5666666666666667,
GB,BUR,Bourne,Bourne,LIN,AF,--3-----,,52.7682345,-0.3771579,true
GB,YEB,Bourne End,Bourne End,BKM,AF,--3-----,,51.5799463,-0.7120777,true
GB,BOH,Bournemouth,Bournemouth,DOR,AA,1234----,,50.733333333333334,-1.8833333333333333,
GB,BVE,Bournville/Birmingham,Bournville/Birmingham,BIR,RL,--3-----,,52.4,-1.9166666666666665,
GB,BSM,Bourton,Bourton,NSM,RQ,1-------,,51.0748706,-2.3249988,true
GB,BOU,Bourton-on-the-Water,Bourton-on-the-Water,GLS,AF,--3-----,,51.86666666666667,-1.75,
GB,BVT,Bovey Tracey,Bovey Tracey,,AF,--3-----,,50.583333333333336,-3.6833333333333336,
GB,BVD,Bovingdon,Bovingdon,DOR,AF,--3-----,,51.7234367,-0.5327056,true
GB,BVZ,Bovington Camp,Bovington Camp,DOR,RQ,-----6--,,50.69782,-2.23506,true
GB,BWQ,Bow,Bow,DEV,AQ,--3--6--,,50.8,-3.8166666666666664,
GB,OWS,Bow Street,Bow Street,CGN,RQ,--3-----,,52.43333333333333,-4.033333333333333,
GB,BWN,Bowburn,Bowburn,DUR,RL,--3-----,,54.733333333333334,-1.5166666666666666,
GB,BWE,Bowden,Bowden,SCB,AF,--3-----,,55.55,-2.716666666666667,
GB,OWD,Bowdon,Bowdon,TRF,RL,--3-----,,53.38333333333333,-2.3666666666666667,
GB,BWG,Bowers Gifford,Bowers Gifford,,RL,-----6--,,55.916666666666664,5.266666666666667,
GB,BOW,Bowling,Bowling,RFW,AF,1-------,,55.916666666666664,-4.483333333333333,
GB,BWP,Bowthorpe,Bowthorpe,NFK,RQ,--3-----,,52.63333333333333,1.2,
GB,BOX,Box,Box,WIL,RL,--3-----,,51.4,-2.25,
GB,BXO,Boxford,Boxford,SFK,RL,--3-----,,52.016666666666666,1.4333333333333333,
GB,BXD,Boxted,Boxted,ESS,AF,--3-----,,52.1289065,0.6682676,true
GB,RCD,Bracadale,Bracadale,HLD,RL,1-------,,57.35,-6.4,
GB,BCK,Brackley,Brackley,NTH,AF,--3-----,,52.0278975,-1.1484657,true
GB,BMI,Brackmills,Brackmills,NTH,RL,-23-----,,52.21666666666667,-0.8666666666666667,
GB,BKN,Bracknell,Bracknell,BRC,AF,--3-----,,51.4,-0.75,
GB,ZRC,Bracora,Bracora,HLD,RQ,--3-----,,56.983333333333334,-5.766666666666667,
GB,BZD,Braddan,Braddan,,RL,--3-----,,52.11666666666667,-1.05,
GB,BHX,Bradenham,Bradenham,BKM,RL,-----6--,,51.65,-0.8,
GB,AFL,Bradfield,Bradfield,WBK,RL,--3-----,,51.43333333333333,-1.1333333333333333,
GB,ZAE,Bradfield,Bradfield,ESS,RL,-----6--,,51.93333333333333,-1.1166666666666667,
GB,B9D,Bradford,Bradford,SOM,RL,--3-----,,51,-3.183333333333333,
GB,BO2,Bradford,Bradford,DEV,RL,--3-----,,50.833333333333336,-4.233333333333333,
GB,BRF,Bradford,Bradford,BRD,AF,1--4----,,53.78333333333333,-1.75,
GB,BOA,Bradford on Avon,Bradford on Avon,WIL,RQ,--3-----,,51.346715,-2.2504329,true
GB,BRQ,Bradley,Bradley,STS,RL,--3-----,,52.55,-2.066666666666667,
GB,DLY,Bradley,Bradley,NYK,RL,--3-----,,52.233333333333334,-2.0166666666666666,
GB,BSK,Bradley Stoke,Bradley Stoke,SGC,RL,-23--6--,,51.53333333333333,-2.55,
GB,SDT,Bradstone,Bradstone,DEV,RL,1----6--,,50.56666666666667,-4.266666666666667,
GB,BRB,Bradwell,Bradwell,DBY,RL,--3-----,,53.31666666666667,-1.75,
GB,DWE,Bradwell,Bradwell,MIK,RL,--3-----,,52.03333333333333,-0.7833333333333333,
GB,AWE,Bradwell on Sea,Bradwell on Sea,ESS,RL,--3-----,,51.71666666666667,0.8833333333333333,
GB,DWL,Bradwell Waterside,Bradwell Waterside,ESS,RL,1-3-----,,51.733333333333334,0.8833333333333333,
GB,BYT,Bradworthy,Bradworthy,DEV,RQ,--3-----,,50.90695995,-4.405432981109504,true
GB,BFB,Braefoot Bay,Braefoot Bay,FIF,AF,1-------,,56.05,-3.3166666666666664,
GB,BRE,Braehead,Braehead,NLK,AF,--3-----,,55.85,-4.083333333333333,
GB,BEQ,Braemar,Braemar,ABD,RL,--3-----,,57.016666666666666,-3.3833333333333333,
GB,BRI,Braintree,Braintree,ESS,AF,--3-----,,51.8780637,0.5537161,true
GB,RWH,Braiseworth,Braiseworth,SFK,RQ,--3-----,,52.3,1.1166666666666667,
GB,BHF,Braishfield,Braishfield,HAM,RL,--3-----,,51.016666666666666,-1.4666666666666668,
GB,MDE,Bramdean,Bramdean,HAM,RL,1----6--,,51.03333333333333,-1.1166666666666667,
GB,BFH,Bramfield,Bramfield,HRT,AF,--3-----,,52.3102628,1.51871,true
GB,BMF,Bramfield,Bramfield,SFK,RQ,--3-----,,52.31666666666667,1.5333333333333332,
GB,BHL,Bramhall,Bramhall,SKP,AF,-23-----,,53.36666666666667,-2.1666666666666665,
GB,BMH,Bramhope,Bramhope,LDS,AF,--3-----,,53.88333333333333,-1.6166666666666667,
GB,AMY,Bramley,Bramley,HAM,RL,--3-----,,51.31666666666667,-1.0666666666666667,
GB,BML,Bramley,Bramley,ROT,RL,--3--6--,,53.416666666666664,-1.2666666666666666,
GB,BMY,Bramley,Bramley,ROT,AF,--3-----,,51.3306934,-1.0610421,true
GB,BR9,Bramley,Bramley,SRY,RL,--3-----,,51.18333333333333,-0.55,
GB,BPO,Brampton,Brampton,CAM,RL,--3--6--,,52.31666666666667,-0.23333333333333334,
GB,MPO,Brampton,Brampton,CMA,RQ,--3-----,,54.95,-2.7333333333333334,
GB,RMP,Brampton,Brampton,ROT,RL,--3-----,,53.5,-1.3666666666666667,
GB,RPT,Brampton,Brampton,NFK,RQ,--3-----,,52.766666666666666,1.2833333333333332,
GB,BHJ,Bramshall,Bramshall,STS,RL,1----6--,,52.9,-10.916666666666666,
GB,BZX,Bramshill,Bramshill,HAM,RL,--3-----,,51.333333333333336,-0.9166666666666666,
GB,BNE,Bran End,Bran End,ESS,AF,--3-----,,51.901384,0.4060784,true
GB,BCS,Brancaster Staithe,Brancaster Staithe,NFK,AA,1-3-----,,52.96666666666667,0.6666666666666666,
GB,ZTO,Brandesburton,Brandesburton,ERY,RQ,-----6--,,54.516666666666666,-0.48333333333333334,
GB,BRA,Brandon,Brandon,SFK,AF,-234----,LKZ,54.75,-1.6166666666666667,
GB,BBE,Branscombe,Branscombe,DEV,RL,1-------,,50.7,-3.1333333333333333,
GB,BSR,Bransgore,Bransgore,HAM,AF,--3-----,,50.77368955,-1.7157711428164197,true
GB,B8T,Branston,Branston,LIN,RL,--3-----,,53.18333333333333,-0.4666666666666667,
GB,BSZ,Branston,Branston,STS,RL,-23-----,,52.78333333333333,-1.6666666666666665,
GB,BRM,Brantham,Brantham,SFK,AF,--3-----,,51.966985,1.0681798,true
GB,BXG,Brassington,Brassington,DBY,AQ,--3-----,,53.083333333333336,-1.65,
GB,BG4,Braughing,Braughing,HRT,RL,--3-----,,51.9,0.16666666666666666,
GB,BXQ,Braunstone,Braunstone,LEC,RQ,--3-----,,52.6,-1.1833333333333333,
GB,BNN,Braunton,Braunton,,AF,--3-----,,51.1,-4.183333333333334,
GB,BDY,Brawdy,Brawdy,PEM,AF,--3-----,,51.86666666666667,-5.116666666666666,
GB,BWM,Bray,Bray,WNM,RL,1----6--,,51.5,-0.7,
GB,BY9,Brayton,Brayton,NYK,RL,--3-----,,53.766666666666666,-1.0833333333333333,
GB,BGQ,Breage,Breage,CON,RQ,--3--6--,,50.1,-5.333333333333333,
GB,BKK,Breakish,Breakish,HLD,RQ,--3-----,,57.233333333333334,-5.833333333333333,
GB,RST,Breasclete,Breasclete,ELS,RL,1-------,,58.2,-6.75,
GB,BBB,Breaston,Breaston,DRY,RQ,1-------,,52.8980803,-1.3189508,true
GB,BRC,Brechin,Brechin,ANS,AF,--3-----,,56.733333333333334,-2.65,
GB,BCN,Brecon,Brecon,POW,RL,--3-----,,51.95,-3.3833333333333333,
GB,BBU,Bredbury,Bredbury,SKP,RL,--3-----,,53.416666666666664,-2.1,
GB,BHU,Bredhurst,Bredhurst,KEN,RL,--3-----,,51.31666666666667,0.5833333333333334,
GB,OHL,Breedon on the Hill,Breedon on the Hill,LEC,RL,--3-----,,52.78333333333333,-1.4,
GB,EIC,Breich,Breich,WLN,RL,--3-----,,55.81666666666667,-3.65,
GB,BRZ,Brenchley,Brenchley,KEN,AF,--3-----,,51.144355149999996,0.3867224243487965,true
GB,ENT,Brent,Brent,,RQ,1-------,,51.560813,-0.272691,true
GB,BFD,Brentford,Brentford,EAL,AF,--3-----,,51.5,-0.31666666666666665,
GB,BWD,Brentwood,Brentwood,ESS,AF,--3-----,,51.6201654,0.3018662,true
GB,BN5,Brenzett,Brenzett,KEN,RL,--3-----,,51,0.85,
GB,BWX,Brettenham,Brettenham,NFK,RQ,1-------,,52.4161098,0.8363133,true
GB,REV,"""Brevig"," Barra""","""Brevig"," Barra""",,1-------,56.9625377,-7.4445463,true
GB,BW9,Brewood,Brewood,STS,RL,--3-----,,52.68333333333333,-2.1666666666666665,
GB,RCK,Bricket Wood,Bricket Wood,HRT,RL,--3-----,,51.71666666666667,-0.35,
GB,BCP,Bricklehampton,Bricklehampton,WOR,RL,--3-----,,52.06666666666667,-2.0166666666666666,
GB,BGA,Bridge of Allan,Bridge of Allan,STG,AF,--3-----,,56.15,-3.95,
GB,BGF,Bridge of Don,Bridge of Don,ABE,RL,--3-----,,57.18333333333333,-2.1,
GB,ORC,Bridge of Orchy,Bridge of Orchy,AGB,RL,-23-----,,56.5,-4.766666666666667,
GB,BWI,Bridge of Weir,Bridge of Weir,,AF,--3-----,,55.85,-4.583333333333333,
GB,BGD,Bridgend,Bridgend,ANS,AF,--3-----,,55.7812847,-6.2494614,true
GB,BRD,Bridgend,Bridgend,AGB,AF,--3-----,,55.7812847,-6.2494614,true
GB,BRG,Bridgend,Bridgend,BGE,AF,--3-----,,51.5,-3.5666666666666664,
GB,BGU,Bridgerule,Bridgerule,DEV,RL,--3-----,,50.8,-4.433333333333334,
GB,BNT,Bridgnorth,Bridgnorth,SHR,AF,--3-----,,52.5345626,-2.4194132,true
GB,BIG,Bridgtown,Bridgtown,STS,AF,--3-----,,52.6736388,-2.0299987,true
GB,BRW,Bridgwater,Bridgwater,SOM,AF,1-------,,51.127284,-3.000634,true
GB,BRT,Bridlington,Bridlington,ERY,AF,1-------,,54.083333333333336,-0.2,
GB,BRP,Bridport,Bridport,DOR,AF,1-------,,50.733785,-2.7589005,true
GB,BFE,Brierfield,Brierfield,LAN,RL,123-----,,53.81666666666667,-2.2333333333333334,
GB,RIH,Brierley Hill,Brierley Hill,DUD,AF,--3-----,,52.483333333333334,-2.1166666666666667,
GB,BGG,Brigg,Brigg,NLN,AF,--3-----,,53.55,-0.48333333333333334,
GB,BRH,Brighouse,Brighouse,CLD,AF,--3-----,,53.7,-1.7833333333333332,
GB,BXS,Brighstone,Brighstone,IOW,RL,1-------,,50.63333333333333,-1.3833333333333333,
GB,BLS,Brightlingsea,Brightlingsea,ESS,AF,1-------,,51.81094,1.0253239,true
GB,BSH,Brighton,Brighton,ESX,AF,1--4----,,50.8214626,-0.1400561,true
GB,BG9,Brigstock,Brigstock,NTT,RL,--3-----,,52.45,-0.6,
GB,BII,Brill,Brill,BKM,RL,--3-----,,51.81666666666667,-1.05,
GB,RFL,Brimfield,Brimfield,HEF,RL,--3-----,,52.3,-2.7,
GB,ZAF,Brimsdown,Brimsdown,LND,RL,-----6--,,51.65,-0.03333333333333333,
GB,BNK,Brinklow,Brinklow,WAR,RQ,--3-----,,52.4,-1.35,
GB,BWW,Brinkworth,Brinkworth,WIL,AF,--3-----,,51.559762,-1.9782736,true
GB,RNC,Brinscall,Brinscall,LAN,RL,--3-----,,53.68333333333333,-2.5666666666666664,
GB,ZWT,Brinsworth,Brinsworth,ROT,RQ,-----6--,,53.666666666666664,-1.6166666666666667,
GB,BSG,Brislington,Brislington,BST,AF,--3-----,,51.43333333333333,-2.533333333333333,
GB,BRS,Bristol,Bristol,BST,AF,1234----,,51.4538022,-2.5972985,true
GB,BIK,Briston,Briston,NFK,RQ,1-3-----,,52.85,1.0666666666666667,
GB,BFY,Briton Ferry,Briton Ferry,NTL,AF,1-------,,51.63333333333333,-3.8166666666666664,
GB,BRX,Brixham,Brixham,,AF,1-------,,50.38333333333333,-3.5,
GB,BIX,Brixworth,Brixworth,NTH,AF,--3-----,,52.3310085,-0.9025609,true
GB,BZZ,Brize Norton,Brize Norton,OXF,AI,---4----,,51.766666666666666,-1.5666666666666667,
GB,BG6,Broadbridge Heath,Broadbridge Heath,WSX,RL,--3-----,,51.06666666666667,-0.35,
GB,BDF,"""Broadford"," Isle of Skye""","""Broadford"," Isle of Skye""",HLD,1-3-----,57.2410146,-5.9061803,true
GB,BRO,Broadheath,Broadheath,TRF,AF,--3-----,,53.4,-2.35,
GB,BYN,Broadmayne,Broadmayne,DOR,RL,1-------,,50.68333333333333,-2.3833333333333333,
GB,BPE,Broadmoor,Broadmoor,PEM,RQ,1-3-----,,51.71666666666667,-4.75,
GB,BDT,Broadstairs,Broadstairs,KEN,AA,123-----,,51.36666666666667,1.4166666666666667,
GB,BOQ,Broadstone,Broadstone,POL,RQ,--3-----,,50.75,-1.9833333333333334,
GB,BWA,Broadway,Broadway,WOR,RL,--3-----,,52.03333333333333,-1.85,
GB,BKT,Brockenhurst,Brockenhurst,HAM,AF,-23-----,,50.8192273,-1.5780214,true
GB,CKW,Brockweir,Brockweir,GLS,RQ,--3-----,,51.7,-2.6666666666666665,
GB,BKR,Brockworth,Brockworth,GLS,AF,--3-----,,51.8474636,-2.1551249,true
GB,OCT,Brocton,Brocton,STS,RL,--3-----,,52.766666666666666,-2.033333333333333,
GB,BDI,"""Brodick"," Isle of Arran""","""Brodick"," Isle of Arran""",NAY,1-3-----,55.5775158,-5.1506858,true
GB,BHK,Bromborough,Bromborough,WRL,AF,1-------,,53.3333672,-2.9774612,true
GB,ROE,Brome,Brome,SFK,RL,--3-----,,52.333333333333336,1.1333333333333333,
GB,BMM,Bromham,Bromham,WIL,AQ,--3-----,,51.38333333333333,-2.05,
GB,BEY,Bromley,Bromley,KEN,AF,--3-----,,51.4028046,0.0148142,true
GB,BMP,Brompton,Brompton,KEN,AF,-23-----,,51.4918222,-0.178326,true
GB,BGV,Bromsgrove,Bromsgrove,WOR,AF,--3-----,,52.333333333333336,-2.066666666666667,
GB,BYD,Bromyard,Bromyard,HEF,AF,--3-----,,52.18333333333333,-2.5,
GB,OGT,Bronington,Bronington,WRX,RL,--3-----,,52.95,-2.7666666666666666,
GB,BOK,Brook,Brook,HAM,RL,--3-----,,50.93333333333333,-1.6166666666666667,
GB,BBY,Brookenby,Brookenby,LIN,RL,--3-----,,53.43333333333333,-11.85,
GB,BKP,Brookmans Park,Brookmans Park,HRT,AF,--3-----,,51.7225594,-0.1886986,true
GB,B57,Broomfleet,Broomfleet,ERY,RL,--3-----,,53.733333333333334,-0.65,
GB,BRJ,Brora,Brora,HLD,AA,123-----,,58.016666666666666,-3.85,
GB,BQY,Broseley,Broseley,SHR,AF,--3-----,,52.6133558,-2.4827324,true
GB,BXT,Brotton,Brotton,RCC,RL,1-------,,54.56666666666667,-0.9333333333333333,
GB,OGH,Brough,Brough,ERY,RQ,1-------,,53.71666666666667,-0.5833333333333334,
GB,RGH,Brough,Brough,HLD,RL,1-------,,58.65,-3.3333333333333335,
GB,BH9,Broughton,Broughton,SCB,RL,--3-----,,55.61666666666667,-3.4166666666666665,
GB,BZT,Broughton,Broughton,FLN,AF,1-3-----,,53.166666666666664,-3,
GB,UGT,Broughton,Broughton,HAM,RL,--3-----,,51.1,-1.5666666666666667,
GB,BTA,Broughton Astley,Broughton Astley,LEC,RL,--3-----,,52.535649199999995,-1.2308696415671927,true
GB,BFU,Broughton In Furness,Broughton In Furness,CMA,RL,1-------,,54.266666666666666,-3.2,
GB,BGP,Broughton Poggs,Broughton Poggs,OXF,RL,--3-----,,51.733333333333334,-1.65,
GB,BYY,Broughty Ferry,Broughty Ferry,DND,RL,--3-----,,56.46666666666667,-2.85,
GB,BWS,Brownhills,Brownhills,WLL,AF,--3-----,,52.6421956,-1.927161,true
GB,BXN,Broxbourne,Broxbourne,HRT,AF,--3-----,,51.7465723,-0.0190782,true
GB,BXU,Broxburn,Broxburn,WLN,AF,--3-----,,55.93333333333333,-3.466666666666667,
GB,OTD,Broxted,Broxted,ESX,RL,--3-----,,51.916666666666664,0.3,
GB,BCH,Bruichladdich,Bruichladdich,AGB,AA,1-3-----,,55.766666666666666,-6.366666666666666,
GB,RTG,Bruntingthorpe,Bruntingthorpe,LEC,RL,--3-----,,52.5,-1.1,
GB,BRU,"""Bruray"," Out Skerries""","""Bruray"," Out Skerries""",ZET,1-3-----,60.4240586,-0.7552029,true
GB,QMV,Bruton,Bruton,SOM,AF,-23-----,,51.1121638,-2.453328,true
GB,BZR,Bryher,Bryher,CON,RQ,1-3-----,,49.95,-6.35,
GB,BRY,Bryn,Bryn,NTL,AF,--3-----,,51.6,-3.7,
GB,YBY,Bryncir,Bryncir,GWN,RQ,--3-----,,52.96666666666667,-4.233333333333333,
GB,BMW,Brynmawr,Brynmawr,BGW,AF,--3-----,,51.8,-3.183333333333333,
GB,YMY,Brynmenyn,Brynmenyn,BGE,RL,--3-----,,51.55,-3.5666666666666664,
GB,BNA,Brynna,Brynna,RCT,AF,--3-----,,51.53333333333333,-3.45,
GB,BDR,Brynsadler,Brynsadler,RCT,RL,--3-----,,51.516666666666666,-3.4,
GB,BYI,Brynsiencyn,Brynsiencyn,AGY,RL,1-------,,53.18333333333333,-4.233333333333333,
GB,YBG,Brynteg,Brynteg,AGY,RQ,--3-----,,53.31666666666667,-4.25,
GB,BE2,Bubwith,Bubwith,ERY,RL,1-3-----,,53.81666666666667,-0.9166666666666666,
GB,UCN,Buchan,Buchan,,RQ,1-------,,57.9,0.03333333333333333,
GB,BKD,Buckden,Buckden,CAM,AF,1-------,,54.1900062,-2.0902259,true
GB,NY2,Buckden,Buckden,NYK,RL,1-3-----,,54.18333333333333,-2.0833333333333335,
GB,BKA,Buckfast,Buckfast,DEV,RQ,--3--6--,,50.483333333333334,-3.783333333333333,
GB,BFG,Buckfastleigh,Buckfastleigh,DEV,RL,--3-----,,50.483333333333334,-3.783333333333333,
GB,BHV,Buckhaven,Buckhaven,FIF,AF,--3-----,,56.18333333333333,-3.033333333333333,
GB,BHH,Buckhurst Hill,Buckhurst Hill,ESS,AF,-23-----,,51.6268617,0.0415283,true
GB,BUC,Buckie,Buckie,MRY,AF,1-------,,57.666666666666664,-2.966666666666667,
GB,BUK,Buckingham,Buckingham,BKM,AF,--3-----,,51.9983175,-0.9786725,true
GB,BBW,Buckland Brewer,Buckland Brewer,DEV,RL,--3-----,,50.96666666666667,-4.25,
GB,BCL,Buckley,Buckley,FLN,AF,--3-----,,53.166666666666664,-3.0833333333333335,
GB,BCR,Buck's Cross,Buck's Cross,DEV,RL,1-------,,51,-4.4,
GB,ZAH,Bucksburn,Bucksburn,ABE,RL,-----6--,,57.166666666666664,-2.1666666666666665,
GB,BUD,Bude,Bude,CON,AA,1-3-----,,50.833333333333336,-4.55,
GB,BUA,Budleigh Salterton,Budleigh Salterton,,AF,1-3-----,,50.63333333333333,-3.3333333333333335,
GB,BWV,Budock Water,Budock Water,CON,RL,1-------,,50.15,-5.116666666666666,
GB,BUB,Bugbrooke,Bugbrooke,NTH,AF,--3-----,,52.2095263,-1.0079535,true
GB,ZAI,Bugle,Bugle,CON,RL,-----6--,,50.38333333333333,-4.8,
GB,XXQ,Buildwas,Buildwas,SHR,RL,-----6--,,58.63333333333333,-2.533333333333333,
GB,URD,Builth Road,Builth Road,POW,RL,--3-----,,52.166666666666664,-3.4333333333333336,
GB,BUI,Builth Wells,Builth Wells,POW,AF,--3-----,,52.1493287,-3.4058015,true
GB,UKO,Bulkington,Bulkington,WAR,RL,--3-----,,52.46666666666667,-1.4166666666666667,
GB,BUP,Bulpham,Bulpham,THR,RL,--3-----,,51.53333333333333,0.36666666666666664,
GB,BPH,Bulphan,Bulphan,THR,RL,--3-----,,51.55,0.36666666666666664,
GB,BYL,Bulwell/Nottingham,Bulwell/Nottingham,NTT,RL,--3-----,,52.983333333333334,-1.15,
GB,UNY,Bunbury,Bunbury,CHE,RL,--3-----,,53.11666666666667,-2.65,
GB,UNS,Bunessan,Bunessan,AGB,RL,1-------,,56.31666666666667,-6.233333333333333,
GB,BUG,Bungay,Bungay,SFK,AF,--3-----,,52.4562248,1.4373413,true
GB,BNB,Bunnahabhain,Bunnahabhain,AGB,RL,1-3-----,,55.88333333333333,-6.133333333333334,
GB,BXY,Bunny,Bunny,NTT,RQ,--3--6--,,52.8606394,-1.1353704,true
GB,BTO,Buntingford,Buntingford,HRT,RL,--3--6--,,51.95,-0.016666666666666666,
GB,OOR,Buntingford,Buntingford,ESX,RQ,1-------,,51.9464245,-0.008695655911217823,true
GB,BBA,Burbage,Burbage,WIL,RL,--3-----,,51.35,-1.6666666666666665,
GB,UBR,Burbage,Burbage,LEC,RL,--3-----,,52.516666666666666,-1.35,
GB,BEU,Bures,Bures,SFK,AF,--3-----,,51.9711466,0.7763495,true
GB,UFD,Burford,Burford,OXF,RL,--3-----,,51.8,-1.6333333333333333,
GB,BUL,Burgess Hill,Burgess Hill,WSX,AF,--3-----,,50.9575365,-0.1332853,true
GB,BUH,Burghead,Burghead,MRY,AF,1-------,,57.7,-3.4833333333333334,
GB,BFC,Burghfield Common,Burghfield Common,WBK,RQ,--3-----,,51.38333333333333,-1.0666666666666667,
GB,BUZ,Burley,Burley,HAM,AF,--3-----,,50.8266,-1.70164,true
GB,BQN,Burnaston,Burnaston,DBY,RL,--3-----,,52.88333333333333,-1.5666666666666667,
GB,URO,Burneston,Burneston,NYK,RL,--3-----,,54.266666666666666,-1.5166666666666666,
GB,BUM,Burnham,Burnham,BKM,AF,--3-----,,51.5362073,-0.6571411,true
GB,BGR,Burnham Green,Burnham Green,HRT,AF,--3-----,,51.8332966,-0.1688108,true
GB,BMK,Burnham Market,Burnham Market,NFK,RQ,--3-----,,52.95,0.7333333333333333,
GB,BOC,Burnham on Crouch,Burnham on Crouch,ESS,AF,1-------,,51.61666666666667,0.8333333333333334,
GB,BMA,Burnham-on-Sea,Burnham-on-Sea,SOM,RL,--3-----,,51.2377356,-2.998695,true
GB,BRN,Burnley,Burnley,LAN,AF,1-------,,53.7907262,-2.2439196,true
GB,BMO,Burnmouth,Burnmouth,SCB,AA,123-----,,55.833333333333336,-2.066666666666667,
GB,DUO,Burnopfield,Burnopfield,DUR,RL,-----6--,,54.15,-172.11666666666667,
GB,USD,Burnside,Burnside,ANS,RL,--3-----,,56.5,-2.9,
GB,BTL,Burntisland,Burntisland,FIF,AF,1-------,,56.06666666666667,-3.2333333333333334,
GB,BUW,Burntwood,Burntwood,STS,AF,--3-----,,52.6791667,-1.9154621,true
GB,BPM,Burpham,Burpham,SRY,AF,--3-----,,50.8667879,-0.5177518,true
GB,BVO,Burravoe,Burravoe,ZET,RL,1-------,,60.483333333333334,-1.0166666666666666,
GB,BUF,Burray,Burray,ORK,AA,1-3-----,,58.85,-2.9166666666666665,
GB,BEO,Burrelton,Burrelton,PKN,AF,--3-----,,56.5185379,-3.3018001,true
GB,B39,Burridge,Burridge,HAM,RL,--3--67-,,50.88333333333333,-1.25,
GB,BWR,Burrow,Burrow,SOM,AF,1-------,,50.9757622,-2.8374569,true
GB,BBI,Burrowbridge,Burrowbridge,SOM,RL,--3-----,,51.06666666666667,-2.9166666666666665,
GB,BPT,Burry Port,Burry Port,CMN,AA,123-----,,51.68333333333333,-4.25,
GB,BGH,Burscough,Burscough,LAN,AF,--3-----,,53.583333333333336,-2.8333333333333335,
GB,BUE,Bursledon,Bursledon,HAM,AF,--3-----,,50.887926199999995,-1.313562851029953,true
GB,BEM,Burslem,Burslem,STS,AF,--3-----,,53.0446287,-2.1928235,true
GB,UTO,Burston,Burston,NFK,RL,--3-----,,52.4,1.15,
GB,KBK,Burstwick,Burstwick,ERY,RL,1-3-----,,53.733333333333334,-0.13333333333333333,
GB,BTD,Burton,Burton,PEM,AF,--3-----,,51.7,-4.916666666666667,
GB,BUN,Burton,Burton,LIN,AF,--3-----,,53.1104634,-2.9615762,true
GB,BBK,Burton Bradstock,Burton Bradstock,DOR,RL,1-------,,50.7,-2.716666666666667,
GB,BUJ,Burton Joyce,Burton Joyce,NTT,RL,--3-----,,52.983333333333334,-1.0333333333333334,
GB,BUT,Burton Latimer,Burton Latimer,NTH,RQ,--3-----,,52.3638663,-0.6777104,true
GB,ESJ,Burton on Trent,Burton on Trent,DBY,RL,--3-----,,52.8,-1.6166666666666667,
GB,BUS,Burton upon Stather,Burton upon Stather,NLN,AF,1-------,,53.65,-0.6833333333333333,
GB,BTR,Burton upon Trent,Burton upon Trent,STS,AF,0-------,,52.802742,-1.629917,true
GB,BNW,Burtonwood,Burtonwood,WRT,AF,--34----,BUT,53.4311697,-2.6545486,true
GB,UHS,Burwash,Burwash,ESX,RL,-----6--,,51,0.38333333333333336,
GB,BXR,Burwell,Burwell,CAM,AF,--3-----,,53.2953959,0.031517,true
GB,BWC,Burwick,Burwick,ORK,AA,1-3-----,,58.75,-2.966666666666667,
GB,BU2,Bury,Bury,BUR,RL,--3-----,,53.6,-2.3,
GB,BUY,Bury,Bury,WSX,AF,1-------,,50.9,-0.5666666666666667,
GB,BSE,Bury Saint Edmunds,Bury Saint Edmunds,SFK,AF,--34----,BEQ,52.251161,0.713361,true
GB,BYQ,Bushey,Bushey,HRT,RL,--3-----,,51.63333333333333,-0.35,
GB,BYE,Bushey Heath,Bushey Heath,HRT,AF,--3-----,,51.6347592,-0.3426411,true
GB,BMS,Bushmills,Bushmills,MYL,RL,--3-----,,55.2,-6.516666666666667,
GB,UTT,Butterleigh,Butterleigh,DEV,RL,--3-----,,50.86666666666667,-3.45,
GB,BTZ,Butterwick,Butterwick,LIN,RL,1-------,,54.1284098,-0.4866446,true
GB,BUX,Buxton,Buxton,DBY,AF,--3-----,,53.2593422,-1.9100768,true
GB,BXA,Buxton,Buxton,NFK,RL,--3-----,,52.75,1.3,
GB,BYF,Byfleet,Byfleet,SRY,AF,--3-----,,51.3401727,-0.472897,true
GB,YEY,Byley,Byley,CHW,RL,--3-----,,53.2,-2.4,
GB,AEB,Cadeby,Cadeby,YOR,RL,--3-----,,53.5,-1.2166666666666668,
GB,CDB,Cadeby,Cadeby,LEC,RL,--3-----,,52.6,-1.3666666666666667,
GB,CGZ,Cadgwith,Cadgwith,CON,RL,1-------,,49.983333333333334,-5.166666666666667,
GB,CSU,Cadishead,Cadishead,MAN,RQ,1-3-----,,53.4,-2.45,
GB,ZAJ,Caenby,Caenby,LIN,RL,-----6--,,53.38333333333333,-0.48333333333333334,
GB,CNV,Caernarfon,Caernarfon,GWN,AF,1-------,,53.1394364,-4.2769751,true
GB,CAE,Caerphilly,Caerphilly,CAY,AF,--3-----,,51.583333333333336,-3.216666666666667,
GB,AWS,Caersws,Caersws,POW,RL,--3-----,,52.516666666666666,-3.4333333333333336,
GB,CRW,Caerwent,Caerwent,MON,AF,--3-----,,51.6,-2.7666666666666666,
GB,CYS,Caerwys,Caerwys,FLN,AF,--3-----,,53.233333333333334,-3.3,
GB,CBL,Cairnbulg,Cairnbulg,ABD,RL,1-------,,57.666666666666664,-1.9166666666666665,
GB,CID,Cairndow,Cairndow,AGB,RQ,--3-----,,56.25,-4.933333333333334,
GB,CYN,Cairnryan,Cairnryan,DGY,AF,1-------,,54.96666666666667,-5.016666666666667,
GB,CSC,Caister on Sea,Caister on Sea,,RL,1-------,,52.65,1.75,
GB,CAI,Caistor,Caistor,LIN,RL,--3-----,,53.483333333333334,-0.31666666666666665,
GB,CCT,Calcot,Calcot,WBK,AF,--3-----,,51.43333333333333,-1.0166666666666666,
GB,CAA,Caldecote,Caldecote,CAM,RQ,1-------,,52.1908063,-0.0306102,true
GB,CDC,Caldecott,Caldecott,NTH,RQ,-----6--,,52.5,-0.9166666666666666,
GB,CDT,Caldicot,Caldicot,MON,AF,--3-----,,51.583333333333336,-2.75,
GB,XCY,Caldy,Caldy,WRL,RL,--3-----,,53.35,-3.15,
GB,CCA,Caledon,Caledon,,RQ,--3-----,,54.35,-6.833333333333333,
GB,CAL,Callander,Callander,STG,RL,--3-----,,56.25,-4.216666666666667,
GB,CLX,Callanish,Callanish,SCB,RL,--3-----,,58.2,-6.716666666666667,
GB,CNN,Callington,Callington,CON,AF,--3-----,,50.5025663,-4.3133635,true
GB,CNE,Calne,Calne,WIL,AF,--3-----,,51.437977,-2.0050911,true
GB,AHW,Calthwaite,Calthwaite,CMA,RL,--3-----,,54.733333333333334,-2.8166666666666664,
GB,CLV,Calverley,Calverley,ERY,RQ,--3-----,,53.81666666666667,-1.6833333333333333,
GB,CTX,Calverton,Calverton,NTT,RL,--3-----,,53.03333333333333,-1.0833333333333333,
GB,VTN,Calverton,Calverton,MIK,RL,--3-----,,52.03333333333333,-0.8333333333333334,
GB,CAQ,Cam,Cam,GLS,RL,--3-----,,51.7,-2.35,
GB,CBE,Camber,Camber,ESX,RL,1-------,,50.93333333333333,0.7833333333333333,
GB,CAY,Camberley,Camberley,SRY,AF,--3-----,,51.3392845,-0.7460981,true
GB,CBW,Camberwell,Camberwell,MRT,RL,--3-----,,51.46666666666667,-0.08333333333333333,
GB,CBS,Cambois,Cambois,NBL,RQ,--3--6--,,55.15,-1.5166666666666666,
GB,CMB,Camborne,Camborne,CON,AF,--3-----,,50.2138828,-5.2990347,true
GB,CMG,Cambridge,Cambridge,CAM,AF,--34----,CBG,52.204426,0.17467561493990869,true
GB,MBS,Cambs,Cambs,,RL,--3-----,,55.13333333333333,1.5166666666666666,
GB,CAM,Cambus,Cambus,CLK,AF,--3-----,,56.11666666666667,-3.8333333333333335,
GB,CBU,Cambuslang,Cambuslang,SLK,AF,-23-----,,55.81666666666667,-4.183333333333334,
GB,CMF,Camelford,Camelford,CON,RQ,--3-----,,50.61666666666667,-4.683333333333334,
GB,CGE,Cameron Bridge,Cameron Bridge,FIF,RL,--3-----,,56.18333333333333,-3.05,
GB,CG3,Camlough,Camlough,ARM,RL,--3-----,,54.166666666666664,-6.416666666666667,
GB,CBT,Campbeltown,Campbeltown,AGB,AF,1--4----,CAL,55.43333333333333,-5.633333333333333,
GB,CAU,Camusnagaul,Camusnagaul,HLD,AA,1-3-----,,56.833333333333336,-5.133333333333334,
GB,CNA,"""Canna"," Inner Hebrides""","""Canna"," Inner Hebrides""",HLD,1-3-----,57.05666215,-6.57761502400223,true
GB,CNI,Cannich,Cannich,HLD,RQ,--3-----,,57.35,-4.766666666666667,
GB,ZAK,Canning Town,Canning Town,LND,RL,-----6--,,51.5,-0.016666666666666666,
GB,ZAL,Cannington,Cannington,SOM,RL,-----6--,,51.166666666666664,-3.066666666666667,
GB,CNK,Cannock,Cannock,STS,AF,--3-----,,52.688227,-2.0324197,true
GB,CBI,Canonbie,Canonbie,DGY,RQ,--3--6--,,55.06666666666667,-2.95,
GB,CNB,Canterbury,Canterbury,KEN,AF,-23-----,,51.275964,1.08237,true
GB,CNL,Cantley,Cantley,DNC,AF,--3-----,,53.5,-1.05,
GB,CTY,Cantley,Cantley,NFK,RL,-23-----,,52.583333333333336,1.5,
GB,CAN,Canvey Island,Canvey Island,ESS,AF,1-------,,51.516666666666666,0.5666666666666667,
GB,CCL,Cape Cornwall,Cape Cornwall,CON,AA,1-3-----,,50.11666666666667,-5.7,
GB,CAP,Capel,Capel,SRY,RL,-23--6--,,51.15,-0.31666666666666665,
GB,PHR,Capel Hendre,Capel Hendre,CMN,RL,--3-----,,51.766666666666666,-4.033333333333333,
GB,CPU,Capenhurst,Capenhurst,CHW,RQ,--3-----,,53.25,-2.95,
GB,CPG,Cappagh,Cappagh,DGN,RQ,--3-----,,54.53333333333333,-6.916666666666667,
GB,CPF,Captain Field,Captain Field,,RQ,------7-,,58.31666666666667,-1.7333333333333334,
GB,CAB,Carbost,Carbost,HLD,RL,1-------,,57.18333333333333,-6.2,
GB,OFT,Carcroft,Carcroft,DNC,RL,-----6--,,55.56666666666667,-1.1833333333333333,
GB,CDF,Cardiff,Cardiff,CRF,AF,1--4----,CWL,51.5,-3.2,
GB,CAR,Cardigan (Aberteifi),Cardigan (Aberteifi),CGN,AA,1-3-----,,52.083333333333336,-4.65,
GB,C5T,Cardington,Cardington,BDF,RL,1-3-----,,52.1,-0.4,
GB,CIM,Cardinham,Cardinham,CON,RL,--3-----,,50.483333333333334,-4.65,
GB,CD9,Cardonald,Cardonald,GLG,RL,--3-----,,55.85,-4.35,
GB,CAX,Carlisle,Carlisle,CMA,AF,1--4----,,54.8948478,-2.9362311,true
GB,RLW,Carloway,Carloway,HLD,RQ,1-------,,58.266666666666666,-6.766666666666667,
GB,CAO,Carlton,Carlton,NYK,AF,-23-----,,54.5901685,-1.3899846,true
GB,CRV,Carlton Colville,Carlton Colville,SFK,RL,1-------,,52.45,1.7,
GB,COI,Carlton in Lindrick,Carlton in Lindrick,NTT,RL,--3--6--,,53.35,-1.1166666666666667,
GB,ORN,Carlton on Trent,Carlton on Trent,NTT,RL,--3-----,,53.166666666666664,-0.8,
GB,CAK,Carluke,Carluke,SLK,AF,--3-----,,55.71666666666667,-3.8333333333333335,
GB,CMR,Carmarthen,Carmarthen,,AF,--3-----,,51.86666666666667,-4.3,
GB,CNF,Carnforth,Carnforth,LAN,AF,--3-----,,54.1282092,-2.7701207,true
GB,CAH,Carnlough,Carnlough,LRN,AA,1-3-----,,54.983333333333334,-6,
GB,CRQ,Carno,Carno,POW,RL,--3-----,,52.55,-3.533333333333333,
GB,CNS,Carnoustie,Carnoustie,ANS,AF,-2------,,56.5,-2.716666666666667,
GB,CAZ,Carnwath,Carnwath,SLK,RL,--3-----,,55.68333333333333,-3.6333333333333333,
GB,CRA,Carradale,Carradale,AGB,AA,1-3-----,,55.583333333333336,-5.466666666666667,
GB,CBD,Carrbridge,Carrbridge,HLD,RQ,--3-----,,57.28333333333333,-3.8166666666666664,
GB,CFG,Carrickfergus,Carrickfergus,CKF,AF,1-------,,54.724429,-5.794579,true
GB,CKO,Carrickmore,Carrickmore,OMH,RQ,--3-----,,54.6,-7.05,
GB,CRT,Carrington,Carrington,TRF,AF,1-------,,53.43333333333333,-2.3833333333333333,
GB,RRO,Carron,Carron,HLD,RL,1-------,,57.4,-5.6,
GB,RRN,Carron Moray,Carron Moray,MRY,RL,--3-----,,57.45,-3.2666666666666666,
GB,CR9,Carrutherstown,Carrutherstown,DGY,RL,--3-----,,55.03333333333333,-3.4,
GB,CFF,Carryduff,Carryduff,ARD,RL,--3-----,,54.5,-5.933333333333334,
GB,CSI,Carsaig,Carsaig,AGB,RQ,--3-----,,56.016666666666666,-5.633333333333333,
GB,CET,Carsethorn,Carsethorn,DGY,RL,1-------,,54.916666666666664,-3.5666666666666664,
GB,CTO,Carshalton,Carshalton,STN,AF,-23-----,,51.35,-0.15,
GB,CA9,Carstairs,Carstairs,SLK,RL,--3-----,,55.7,-3.7,
GB,ZAM,Carterton,Carterton,OXF,RL,-----6--,,51.75,-1.5833333333333335,
GB,ATW,Carthew,Carthew,CON,RL,--3-----,,50.36666666666667,-4.783333333333333,
GB,TML,Cartmel,Cartmel,CMA,RL,--3-----,,54.2,-2.95,
GB,CCB,Cascob,Cascob,POW,RQ,--3-----,,52.28333333333333,-3.1166666666666667,
GB,CGO,Cassington,Cassington,OXF,RQ,--3--6--,,51.78333333333333,-1.3333333333333333,
GB,CSB,Castle Bromwich,Castle Bromwich,BIR,AF,--3-----,,52.5,-1.7833333333333332,
GB,CLB,Castle Bytham,Castle Bytham,LIN,RL,--3-----,,52.733333333333334,-0.5333333333333333,
GB,CAC,Castle Cary,Castle Cary,SOM,AF,--3-----,,51.078562250000004,-2.531364319252548,true
GB,CAD,Castle Donington,Castle Donington,LEC,AF,--3-----,,52.8411689,-1.3409476,true
GB,CTD,Castle Douglas,Castle Douglas,DGY,AF,--3-----,,54.9401001,-3.9305352,true
GB,EHE,Castle Hedingham,Castle Hedingham,ESS,RL,-----6--,,51.983333333333334,0.6,
GB,VCL,Castle Vale,Castle Vale,BIR,RQ,--3-----,,52.5,-1.7833333333333332,
GB,CBA,Castlebay,Castlebay,ELS,AF,1-------,,56.95,-7.466666666666667,
GB,CCY,Castlecary,Castlecary,FAL,AF,--3-----,,55.983333333333334,-3.95,
GB,CDN,Castledawson,Castledawson,MFT,RL,--3-----,,54.78333333333333,-6.566666666666666,
GB,ZST,Castlederg,Castlederg,STB,RQ,-----6--,,55.166666666666664,-7.983333333333333,
GB,CTF,Castleford,Castleford,WKF,AF,1-------,,53.71666666666667,-1.35,
GB,CAS,Castleton,Castleton,DBY,RL,--3-----,,53.333333333333336,-1.7666666666666666,
GB,CTS,Castleton,Castleton,RCH,RQ,--3-----,,53.583333333333336,-2.183333333333333,
GB,CSW,Castletown,Castletown,DOR,RL,1-------,,50.56666666666667,-2.45,
GB,CTN,Castletown Caithness,Castletown Caithness,HLD,RL,--3-----,,58.583333333333336,-3.3833333333333333,
GB,CWX,Castlewellan,Castlewellan,DOW,RL,--3-----,,54.266666666666666,-5.95,
GB,OTM,Catcott,Catcott,SOM,RL,--3-----,,51.15,-2.85,
GB,CTR,Caterham,Caterham,SRY,AF,-23-----,,51.2819693,-0.0771032,true
GB,CTL,Catfield,Catfield,NFK,AF,--3-----,,52.735673899999995,1.541647597550456,true
GB,FT8,Catford,Catford,LEW,RL,--3-----,,51.45,-0.16666666666666666,
GB,CAT,Catrine,Catrine,EAY,AF,--3-----,,55.5043269,-4.3318299,true
GB,CCR,Catterick,Catterick,NYK,RL,--3-----,,54.36666666666667,-1.6333333333333333,
GB,CCE,Catterline,Catterline,ABD,RL,1-------,,56.9,-1.2,
GB,CVM,Cavenham,Cavenham,SFK,RL,-----6--,,52.3,0.5833333333333334,
GB,CVF,Caversfield,Caversfield,OXF,RL,--3-----,,51.93333333333333,-1.1666666666666667,
GB,CVR,Caversham,Caversham,RDG,RL,--3-----,,51.46666666666667,-0.9666666666666667,
GB,CNX,Cawsand,Cawsand,CON,RL,1-------,,50.31666666666667,-4.35,
GB,CWS,Cawston,Cawston,NFK,AF,-23-----,,52.7737021,1.1874351835456232,true
GB,AWH,Cawthorne,Cawthorne,BNS,RQ,--3-----,,53.56666666666667,-1.5833333333333335,
GB,CTP,Caythorpe,Caythorpe,LIN,RQ,1-3-----,,53.0063818,-0.9814686,true
GB,CAG,"""Ceann a Gharaidh"," Eriskay""","""Ceann a Gharaidh"," Eriskay""",ELS,1-3-----,57.1137424,-7.3916511,true
GB,CMA,Cefn-Mawr,Cefn-Mawr,WRX,AQ,123--6--,,52.96666666666667,-3.066666666666667,
GB,CEI,Ceinewydd (New Quay),Ceinewydd (New Quay),CGN,AA,1-3-----,,52.21666666666667,-4.366666666666666,
GB,CEL,Cellardyke,Cellardyke,FIF,AA,1-3-----,,56.233333333333334,-2.65,
GB,CEB,Cemaes Bay,Cemaes Bay,AGY,AA,1-3-----,,53.416666666666664,-4.45,
GB,CNM,Central Mainland (Shetland),Central Mainland (Shetland),ZET,RL,1-------,,60.31666666666667,-1.2666666666666666,
GB,RRI,Cerrigdrudion,Cerrigdrudion,CWY,RL,--3--6--,,53.166666666666664,-3.55,
GB,CDD,Chadderton,Chadderton,OLD,AF,--3-----,,53.53333333333333,-2.1333333333333333,
GB,ADS,Chaddesden,Chaddesden,DER,RQ,--3-----,,52.916666666666664,-1.4333333333333333,
GB,CH7,Chadlington,Chadlington,OXF,RL,--3-----,,51.88333333333333,-1.5166666666666666,
GB,CDZ,Chadwell,Chadwell,LEC,RL,-----6--,,52.8,-0.8333333333333334,
GB,CDW,Chadwell Heath,Chadwell Heath,RDB,AF,--3-----,,51.56666666666667,0.13333333333333333,
GB,CDE,Chadwell Saint Mary,Chadwell Saint Mary,ESS,AF,--3-----,,51.48034,0.42735,true
GB,CJY,Chailey,Chailey,ESX,RL,--3-----,,50.95,0.016666666666666666,
GB,CHQ,Chale,Chale,IOW,AF,--3-----,,50.5974272,-1.3159829,true
GB,CSG,Chalfont Saint Giles,Chalfont Saint Giles,BKM,AF,--3-----,,51.6321046,-0.5697912,true
GB,CSP,Chalfont Saint Peter,Chalfont Saint Peter,BKM,AF,--3-----,,51.6,-0.55,
GB,AFR,Chalford,Chalford,GLS,RQ,--3-----,,51.71666666666667,-2.15,
GB,CGV,Chalgrove,Chalgrove,OXF,AF,--3-----,,51.6679467,-1.0800624,true
GB,CTQ,Chalton,Chalton,BDF,RQ,--3-----,,51.916666666666664,-0.5,
GB,CFO,Chandlers Ford,Chandlers Ford,HAM,AF,-23-----,,50.986591,-1.380518,true
GB,CPP,Chapel Allerton,Chapel Allerton,SOM,RL,--3-----,,51.24914115,-2.860538868062888,true
GB,CPL,Chapel en le Frith,Chapel en le Frith,DBY,AF,-23-----,,53.3232509,-1.9148352,true
GB,CPD,Chapel Saint Leonards,Chapel Saint Leonards,LIN,RL,1-------,,53.21666666666667,0.31666666666666665,
GB,CPW,Chapeltown,Chapeltown,SHF,RL,-23-----,,53.46666666666667,-1.4666666666666668,
GB,CZT,Chard,Chard,SOM,AF,--3-----,,50.8736728,-2.9597425,true
GB,CHG,Charing,Charing,KEN,AF,--3-----,,51.2142039,0.788603339687977,true
GB,CEO,Charlecote,Charlecote,WAR,RQ,--3--6--,,52.2,-1.6166666666666667,
GB,CHD,Charleston,Charleston,ANS,AF,1-------,,56.583333333333336,-3,
GB,CHF,Charlestown,Charlestown,CON,AF,1-------,,56.0368264,-3.5002693,true
GB,CWN,Charlestown,Charlestown,FIF,AA,123-----,,56.03333333333333,-3.5,
GB,ZWN,Charlestown of Aberlour,Charlestown of Aberlour,MRY,RQ,-----6--,,57.78333333333333,-3.3666666666666667,
GB,CHN,Charlton,Charlton,BST,AF,--3-----,,51.5991279,-2.0542672,true
GB,CAW,Charlwood,Charlwood,SRY,RL,--3-----,,51.15,-0.21666666666666667,
GB,CHJ,Charmouth,Charmouth,DOR,RL,1-------,,50.733333333333334,-2.9,
GB,CNR,Charnock Richard,Charnock Richard,LAN,AF,--3-----,,53.6347179,-2.6669258,true
GB,CHM,Chartham,Chartham,KEN,AF,--3-----,,51.2562,1.01836,true
GB,CMC,Chartham Hatch,Chartham Hatch,KEN,RL,-23-----,,51.266666666666666,1.0166666666666666,
GB,CHS,Chasetown,Chasetown,STS,AF,--3-----,,52.6733979,-1.9328793,true
GB,CTM,Chatham,Chatham,KEN,AF,1-------,,51.3819167,0.526559,true
GB,CTI,Chathill,Chathill,NBL,RQ,--3-----,,55.53333333333333,-1.7,
GB,CCS,Chatteris,Chatteris,CAM,RL,--3-----,,52.4549017,0.0504338,true
GB,CDL,Cheadle,Cheadle,STS,AF,--3-----,,53.3936441,-2.2122068,true
GB,CHA,Cheadle,Cheadle,SKP,AF,--3-----,,53.4,-2.216666666666667,
GB,CEH,Cheadle Heath,Cheadle Heath,47,RQ,--3-----,,53.3987295,-2.1891985,true
GB,CDH,Cheadle Hulme,Cheadle Hulme,SKP,AF,-23-----,,53.36666666666667,-2.183333333333333,
GB,CME,Cheam,Cheam,SRY,AF,--3-----,,51.3576155,-0.2162414,true
GB,CHC,Checkendon,Checkendon,OXF,AF,--3-----,,51.53636535,-1.0406510210838678,true
GB,XDB,Chedburgh,Chedburgh,SFK,RL,--3-----,,52.18333333333333,0.6166666666666667,
GB,CDA,Cheddar,Cheddar,SOM,AF,--3-----,,51.2753365,-2.7766545,true
GB,CDX,Cheddington,Cheddington,BKM,RL,-----6--,,51.833333333333336,-0.6666666666666666,
GB,CTW,Cheddleton,Cheddleton,STS,RL,--3-----,,53.05,-2.033333333333333,
GB,CH6,Chedworth,Chedworth,GLS,RL,--3-----,,51.8,-1.9166666666666665,
GB,CEE,Cheetham Hill,Cheetham Hill,MAN,AF,--3-----,,53.516666666666666,-2.216666666666667,
GB,CHZ,Chelford,Chelford,CHE,AF,0-------,,53.2665687,-2.2721804014014753,true
GB,CHX,Chellaston/Derby,Chellaston/Derby,DBY,RL,--3-----,,52.86666666666667,-1.4333333333333333,
GB,CFD,Chelmsford,Chelmsford,ESS,AF,--3-----,,51.733333333333334,4.483333333333333,
GB,CSE,Chelsea/London,Chelsea/London,KEC,RL,--3-----,,51.483333333333334,-0.16666666666666666,
GB,CLT,Cheltenham,Cheltenham,GLS,AF,--3-----,,51.8995685,-2.0711559,true
GB,CHV,Chelveston,Chelveston,NTH,AF,--3-----,,52.3148425,-0.5473155,true
GB,CWR,Chelworth,Chelworth,WIL,RL,--3-----,,51.65,-2.05,
GB,CHT,Chepstow,Chepstow,MON,AF,1-------,,51.63333333333333,-2.6666666666666665,
GB,CYH,Cherry Hinton,Cherry Hinton,CAM,AF,--3-----,,52.1871193,0.1737678,true
GB,HEY,Chertsey,Chertsey,SRY,AF,--3-----,,51.392296,-0.5038294,true
GB,CSH,Chesham,Chesham,BKM,AF,--3-----,,51.7062914,-0.6123113,true
GB,CHH,Cheshunt,Cheshunt,HRT,AF,--3-----,,51.702052,-0.0335908,true
GB,CYA,Cheslyn Hay,Cheslyn Hay,STS,RL,--3-----,,52.65,-2.0166666666666666,
GB,CGS,Chessington,Chessington,SRY,AF,--3-----,,51.358336,-0.2986216,true
GB,CEG,Chester,Chester,CHW,AF,1--4----,,53.1796073,-2.9728660097029813,true
GB,CSR,Chester,Chester,CLK,RL,1-------,,53.1908873,-2.8908955,true
GB,CES,Chesterfield,Chesterfield,DBY,AF,--3-----,,53.2352134,-1.4264097,true
GB,CTE,Chester-le-Street,Chester-le-Street,DUR,AF,-23-----,,54.85,-1.5666666666666667,
GB,CER,Chesterton,Chesterton,STS,AF,--3-----,,52.5723806,-2.3181227,true
GB,CVY,Cheveley,Cheveley,CAM,RL,--3-----,,52.21666666666667,0.4666666666666667,
GB,CVG,Chevington,Chevington,SFK,RL,--3-----,,52.2,0.6166666666666667,
GB,CST,Chichester,Chichester,WSX,AA,123-----,,50.833333333333336,-0.7833333333333333,
GB,CKR,Chickerell,Chickerell,DOR,RL,1-------,,50.61666666666667,-2.5,
GB,ZDD,Chiddingfold,Chiddingfold,SRY,RL,--3-----,,51.1,-0.6166666666666667,
GB,CCU,Chiddingstone Causeway,Chiddingstone Causeway,KEN,RL,-23-----,,51.2,0.18333333333333332,
GB,CDK,Chideock,Chideock,DOR,RL,1-------,,50.71666666666667,-2.8166666666666664,
GB,CDM,Chidham,Chidham,WSX,RL,--3-----,,50.81666666666667,-0.8666666666666667,
GB,EEE,Chieveley,Chieveley,WBK,RL,-----6--,,51.45,-1.3166666666666667,
GB,CHI,Chigwell,Chigwell,ESS,AF,-23-----,,51.6228297,0.0805021,true
GB,CBN,Chilbolton,Chilbolton,HAM,RL,--3-----,,51.15,-1.4333333333333333,
GB,COP,Chilcompton,Chilcompton,SOM,RL,--3-----,,51.28333333333333,-2.5,
GB,CE2,Childs Ercall,Childs Ercall,SHR,RL,--3-----,,52.81666666666667,-2.5,
GB,XCH,Chilham,Chilham,KEN,RQ,-----6--,,51.4,-1.5833333333333333,
GB,CII,Chillington,Chillington,SOM,RL,1-------,,51,-4.4,
GB,CIL,Chilmark,Chilmark,WIL,AF,--3-----,,51.0934474,-2.0469931,true
GB,CHO,Chilton,Chilton,DUR,RQ,--3--6--,,54.65,-1.55,
GB,CWE,Chilwell,Chilwell,NTT,AF,--3-----,,52.9139657,-1.2402537,true
GB,CIH,Chilworth,Chilworth,SRY,RL,-23-----,,51.21666666666667,-0.5166666666666667,
GB,HIW,Chilworth,Chilworth,HAM,RL,--3-----,,50.95,-1.4166666666666667,
GB,CNH,Chineham,Chineham,HAM,RL,-23-----,,51.28333333333333,-1.0666666666666667,
GB,CGF,Chingford,Chingford,,RL,--3-----,,51.630887,0.0039962,true
GB,CNY,Chinley,Chinley,DBY,AF,-23-----,,53.3395448,-1.9427892,true
GB,ZAN,Chinnor,Chinnor,OXF,RL,-----6--,,51.68333333333333,-0.9,
GB,CPN,Chippenham,Chippenham,WIL,AF,--3-----,,51.4587621,-2.1159032,true
GB,XPP,Chipperfield,Chipperfield,HEF,RQ,-----6--,,52.166666666666664,-0.8,
GB,CCN,Chipping Campden,Chipping Campden,GLS,AF,--3-----,,52.0496652,-1.7813927,true
GB,CHP,Chipping Norton,Chipping Norton,OXF,AF,--3-----,,51.9382855,-1.542395698330754,true
GB,YET,Chipping Ongar,Chipping Ongar,ESS,AF,-23-----,,51.7,0.25,
GB,CSO,Chipping Sodbury,Chipping Sodbury,SGC,RL,--3-----,,51.53333333333333,-2.3833333333333333,
GB,CPR,Chipping Warden,Chipping Warden,NTH,RL,-----6--,,53.166666666666664,-12,
GB,CIK,Chirk,Chirk,SHR,AF,--3-----,,52.916666666666664,-3.066666666666667,
GB,CND,Chirnside,Chirnside,SCB,AF,--3-----,,55.8,-2.2,
GB,CIB,Chiselborough,Chiselborough,SOM,RQ,--3-----,,50.93333333333333,-2.75,
GB,CIW,Chiseldon,Chiseldon,WIL,RL,--3-----,,51.5,-1.7166666666666668,
GB,CSL,Chislehurst,Chislehurst,BRY,AF,--3-----,,51.4,0.6666666666666666,
GB,CHK,Chiswick,Chiswick,HNS,AF,--3-----,,51.483333333333334,-0.26666666666666666,
GB,CH9,Chittlehampton,Chittlehampton,DEV,RL,--3-----,,51.016666666666666,-3.95,
GB,CHB,Chobham,Chobham,SRY,AF,--3-----,,51.3477705,-0.6010128,true
GB,CHL,Cholsey,Cholsey,OXF,AF,--3-----,,51.5751616,-1.1535181,true
GB,CHR,Chorley,Chorley,LAN,AF,1-------,,53.6531915,-2.6294313,true
GB,CHW,Chorleywood,Chorleywood,HRT,AF,--3-----,,51.6550042,-0.5211677,true
GB,CCH,Christchurch,Christchurch,DOR,AA,123-----,,50.733333333333334,-1.75,
GB,CTU,Christchurch,Christchurch,CAM,RL,--3-----,,52.55,0.2,
GB,CHU,Chudleigh,Chudleigh,,AF,--3-----,,50.6,-3.5833333333333335,
GB,CMH,Chulmleigh,Chulmleigh,DEV,RL,--3-----,,50.916666666666664,-3.8666666666666667,
GB,CRC,Church,Church,LAN,AF,-23-----,,53.7550305,-2.3885217,true
GB,CUB,"""Church Bay"," Rathlin Island""","""Church Bay"," Rathlin Island""",MYL,1-3-----,55.2929449,-6.1938287,true
GB,CKA,Church Crookham,Church Crookham,HAM,RL,--3-----,,51.266666666666666,-0.8166666666666667,
GB,CCG,Church Gresley,Church Gresley,DBY,RL,--3-----,,52.75,-1.5666666666666667,
GB,CFZ,Church Lawford,Church Lawford,WAR,RL,-----6--,,52.36666666666667,-1.3166666666666667,
GB,YUR,Church Stretton,Church Stretton,SHR,AF,-23-----,,52.5390725,-2.8077658,true
GB,CCW,Churchstow,Churchstow,DEV,RL,--3-----,,50.3,-3.8,
GB,XCW,Chwilog,Chwilog,GWN,RQ,-----6--,,53.583333333333336,-4.55,
GB,CIN,Cinderford,Cinderford,GLS,RL,--3-----,,51.81666666666667,-2.4833333333333334,
GB,CIR,Cirencester,Cirencester,GLS,AF,--3-----,,51.7171029,-1.9661616,true
GB,WCI,City of Westminster,City of Westminster,LBH,RL,--3-----,,51.5,-0.13333333333333333,
GB,RAS,"""Clachan"," Raasay""","""Clachan"," Raasay""",HLD,1-3-----,57.417553850000004,-6.0535425798890135,true
GB,CLA,Clackmannan,Clackmannan,CLK,AF,--3-----,,56.1,-3.7333333333333334,
GB,CLS,Clacton-on-Sea,Clacton-on-Sea,ESS,AA,123-----,,51.8,1.15,
GB,XCA,Claines,Claines,WOR,RQ,--3-----,,52.233333333333334,-2.216666666666667,
GB,CL7,Clanfield,Clanfield,HAM,RQ,-----6--,,50.93333333333333,-1,
GB,OXH,Clanfield,Clanfield,OXF,RL,--3-----,,51.7,-1.5833333333333335,
GB,CLJ,Claonaig,Claonaig,AGB,AA,1-3-----,,55.75,5.383333333333334,
GB,CLP,Clapham,Clapham,LBH,AF,-23-----,,51.45,-0.13333333333333333,
GB,LPN,Clapton,Clapton,SOM,RL,-23-----,,50.85,-2.8333333333333335,
GB,ZAO,Claughton,Claughton,LAN,RL,-----6--,,54.083333333333336,-2.6666666666666665,
GB,CL5,Clavering,Clavering,ESS,RL,--3-----,,51.96666666666667,0.13333333333333333,
GB,CLC,Clay Cross,Clay Cross,DBY,AF,--3-----,,53.1652765,-1.4132383,true
GB,CYG,Claydon,Claydon,OXF,RQ,1-------,,52.1065845,1.1110014,true
GB,CGD,Claygate,Claygate,SRY,AF,--3-----,,55.1030419,-2.9491776,true
GB,CYE,Claythorpe,Claythorpe,LIN,RQ,--3-----,,53.28333333333333,0.11666666666666667,
GB,CL4,Clayton,Clayton,STS,RL,--3-----,,52.983333333333334,2.216666666666667,
GB,CYO,Clayton,Clayton,LAN,RL,-23--6--,,53.483333333333334,-2.183333333333333,
GB,ZAP,Clayton,Clayton,47,RL,-----6--,,53.46666666666667,-2.183333333333333,
GB,CEM,Clayton-le-Moors,Clayton-le-Moors,LAN,AF,--3-----,,53.7734032,-2.3892947,true
GB,LDN,Cleadon,Cleadon,STY,RQ,--3-----,,54.93333333333333,-1.3833333333333333,
GB,CLE,Cleator,Cleator,CMA,AF,--3-----,,54.5069598,-3.5226006,true
GB,XCL,Cleator Moor,Cleator Moor,CMA,RQ,-----6--,,54.86666666666667,-3.85,
GB,CCK,Cleckheaton,Cleckheaton,KIR,AF,--3-----,,53.71666666666667,-1.7166666666666668,
GB,CTH,Cleethorpes,Cleethorpes,NEL,AF,--3-----,,53.55,-0.3333333333333333,
GB,CL3,Cleghorn,Cleghorn,SLK,RL,--3-----,,55.68333333333333,3.75,
GB,CEA,Cleland,Cleland,NLK,AF,--3-----,,55.8,-3.9,
GB,CMM,Cleobury Mortimer,Cleobury Mortimer,SHR,RQ,--3--6--,,52.36666666666667,-2.4833333333333334,
GB,QZL,Clevedon,Clevedon,NSM,AF,1-3-----,,51.43333333333333,-2.8333333333333335,
GB,CD3,Cleveland,Cleveland,NYK,RL,--3-----,,54.5,-1.2166666666666668,
GB,LVL,Cleveleys,Cleveleys,BPL,RL,--3-----,,53.86666666666667,-3.05,
GB,CLF,Cliffe,Cliffe,KEN,AF,1-3-----,,51.4623809,0.5006686,true
GB,CFT,Clifton,Clifton,BST,RL,--3-----,,51.45,-2.6166666666666667,
GB,CPS,Clipstone,Clipstone,NTT,AF,--3-----,,51.9269172,-0.6224106,true
GB,CPT,Clipstone,Clipstone,CBF,AF,--3-----,,51.9269172,-0.6224106,true
GB,CLI,Clitheroe,Clitheroe,LAN,AF,--3-----,,53.8717465,-2.3926783,true
GB,CGP,Cloghan Point/Carrickfergus,Cloghan Point/Carrickfergus,CKF,AA,1-3-----,,54.7,-5.8,
GB,GHR,Clogher,Clogher,,RL,-----6--,,54.416666666666664,-7.2,
GB,CPM,Clopton,Clopton,NTH,RQ,--3-----,,52.4107949,-0.43371,true
GB,CUF,Cloughfold,Cloughfold,LAN,RL,--3-----,,53.68333333333333,-2.2666666666666666,
GB,CGM,Cloughmills,Cloughmills,BLY,RL,--3-----,,55.1,-6.283333333333333,
GB,CVL,Clovelly,Clovelly,CON,RL,1-------,,51,-4.4,
GB,COE,Clowne,Clowne,DBY,RQ,--3--6--,,53.276098,-1.2623326,true
GB,TWR,Clows Top,Clows Top,WOR,RL,--3-----,,52.333333333333336,-2.4166666666666665,
GB,CZV,Clunbury,Clunbury,SHR,RL,1-3-----,,52.416666666666664,-2.9166666666666665,
GB,CLU,Clutton,Clutton,BAS,RL,--3-----,,51.31666666666667,-2.533333333333333,
GB,CLH,Clydach,Clydach,SWA,RL,--3-----,,51.8104853,-3.1177142,true
GB,CLY,Clydebank,Clydebank,WDU,AA,123-----,,55.9,-4.4,
GB,CKX,Clydebank/Exeter,Clydebank/Exeter,,RQ,--3-----,,55.969487,-4.638504,true
GB,CYP,Clydeport,Clydeport,NAY,AF,1-------,,,,
GB,CYD,Clynderwen,Clynderwen,PEM,RL,1-------,,51.833333333333336,-4.7,
GB,CYM,Clyst Saint Mary,Clyst Saint Mary,DEV,RL,--3-----,,50.7,-3.45,
GB,COD,Coalisland,Coalisland,DGN,RL,--3-----,,54.53333333333333,-6.683333333333334,
GB,COA,Coalville,Coalville,LEC,AF,--3-----,,52.71666666666667,-1.3666666666666667,
GB,COT,Coatbridge,Coatbridge,NLK,AF,--3-----,,55.86666666666667,-4.033333333333333,
GB,CBH,Cobham,Cobham,KEN,AF,--3-----,,51.394932600000004,0.4141599230911521,true
GB,COB,Cobham,Cobham,SRY,AF,--3-----,,51.3300079,-0.4120821,true
GB,CKP,Cockburnspath,Cockburnspath,SCB,RL,-23-----,,55.93333333333333,-2.3666666666666667,
GB,CNZ,Cockenzie,Cockenzie,ELN,AF,1-------,,55.95,-2.95,
GB,CKM,Cockermouth,Cockermouth,CMA,AF,1-------,,54.6614392,-3.3590111,true
GB,CCF,Cockfosters,Cockfosters,BNE,AF,--3-----,,51.65,-0.16666666666666666,
GB,CKC,Cockley Cley,Cockley Cley,NFK,RL,--3-----,,52.6,0.65,
GB,CQQ,Cockwood,Cockwood,,RL,1-------,,50.6,-3.4333333333333336,
GB,ONA,Coddenham,Coddenham,SFK,RL,--3-----,,52.13333333333333,1.1166666666666667,
GB,CSM,Codford Saint Mary,Codford Saint Mary,WIL,RL,--3-----,,51.15,-2.033333333333333,
GB,XCD,Codsall,Codsall,STS,RQ,--3-----,,52.63333333333333,-2.2,
GB,CGN,Cogenhoe,Cogenhoe,NTH,AF,--3-----,,52.2370865,-0.7875148,true
GB,COG,Coggeshall,Coggeshall,ESS,AF,--3-----,,51.8754972,0.6863699,true
GB,CB2,Colburn,Colburn,NYK,RL,--3-----,,54.36666666666667,-1.6833333333333333,
GB,COL,Colchester,Colchester,ESS,AF,1-------,,51.8896903,0.8994651,true
GB,ONT,Cold Norton,Cold Norton,ESS,RL,--3-----,,51.666666666666664,0.6666666666666666,
GB,CCO,Colden Common,Colden Common,HAM,RQ,--3--6--,,51,-1.3166666666666667,
GB,CGB,Coldingham,Coldingham,SCB,RQ,1-3-----,,55.88333333333333,-2.1666666666666665,
GB,CDS,Coldstream,Coldstream,SCB,RL,--3-----,,55.65,-2.25,
GB,CED,Coleford,Coleford,GLS,AF,--3-----,,51.2382834,-2.4510026,true
GB,COF,Coleford,Coleford,SOM,AF,--3-----,,51.79387855,-2.6183237740638523,true
GB,OET,Coleorton,Coleorton,LEC,AF,--3-----,,52.7529886,-1.4032292,true
GB,CLR,Coleraine,Coleraine,CLR,AF,1-------,,55.1362618,-6.649600346395124,true
GB,CEN,Colerne,Colerne,WIL,AF,--3-----,,51.4390954,-2.2621002,true
GB,CLL,Coleshill,Coleshill,WAR,AF,--3-----,,51.647994,-0.6327506,true
GB,ZAQ,Coleshill,Coleshill,OXF,RL,-----6--,,51.63333333333333,-1.65,
GB,CVA,Colintraive,Colintraive,AGB,AA,1-3-----,,55.916666666666664,-5.133333333333334,
GB,OLL,Coll,Coll,AGB,RL,1-------,,56.61666666666667,-6.516666666666667,
GB,CAF,Collafirth,Collafirth,ZET,AA,1-3-----,,60.53333333333333,-1.3666666666666667,
GB,CL8,Collessie,Collessie,FIF,RL,--3-----,,56.3,-3.15,
GB,CIT,Collieston,Collieston,ABD,RL,1-------,,57.35,-1.9166666666666665,
GB,CBR,Colnbrook,Colnbrook,SRY,AF,--3-----,,51.4838331,-0.5241429,true
GB,CLN,Colne,Colne,LAN,AF,--3-----,,53.8567728,-2.1691238,true
GB,CLZ,Colne,Colne,CAM,RL,--3--6--,,55.36666666666667,0.16666666666666666,
GB,C8N,Colney,Colney,NFK,RL,--3-----,,52.61666666666667,1.2166666666666668,
GB,COZ,Colney Heath,Colney Heath,ESX,RQ,-----6--,,51.7377529,-0.2529524,true
GB,CSA,Colonsay,Colonsay,AGB,AI,---4----,,56.06666666666667,-6.216666666666667,
GB,XCO,Colsterworth,Colsterworth,LIN,RQ,-----6--,,53.333333333333336,-1.0166666666666666,
GB,CTA,Coltishall,Coltishall,NFK,AI,---4----,CLF,52.733333333333334,1.3666666666666667,
GB,CWL,Colwall,Colwall,HEF,RL,--3-----,,52.083333333333336,-2.3833333333333333,
GB,CLW,Colwich,Colwich,STS,AF,--3-----,,52.7875938,-1.9871345,true
GB,CLK,Colwick,Colwick,NTT,RL,--3-----,,52.95,-1.0833333333333333,
GB,CYY,Colwyn Bay (Bae Colwyn),Colwyn Bay (Bae Colwyn),CWY,AA,123-----,,53.3,-3.7333333333333334,
GB,CLO,Colyton,Colyton,DEV,RL,-23-----,,50.75,-3.0833333333333335,
GB,OMB,Combe,Combe,OXF,RL,--3-----,,51.833333333333336,-1.4,
GB,CBM,Combe Martin,Combe Martin,DEV,RL,1-------,,51.2,-4.033333333333333,
GB,XCM,Comber,Comber,ARD,RQ,-----6--,,54.916666666666664,-6.233333333333333,
GB,CMN,Commondale,Commondale,NYK,RL,--3-----,,54.46666666666667,-0.9666666666666667,
GB,CPO,Compton,Compton,WBK,RL,--3--6--,,51.516666666666666,-1.2666666666666666,
GB,CIE,Comrie,Comrie,PKN,RQ,--3-----,,56.36666666666667,-4,
GB,CDO,Condicote,Condicote,GLS,RL,--3-----,,51.95,-1.7833333333333332,
GB,CON,Congleton,Congleton,CHE,AF,--3-----,,53.1635322,-2.2108035,true
GB,CGY,Congresbury,Congresbury,NSM,AQ,1-3--6--,,51.36666666666667,-2.8166666666666664,
GB,CNG,Coningsby,Coningsby,LIN,AF,--3-----,QCY,53.088725,-0.16306241815589664,true
