country,location,name,nameWoDiacritics,subdivision,status,function,iata,lat,lon,geocoded
LK,AGA,Agalawatta,Agalawatta,1,RL,--3-----,,6.533333333333333,80.15,
LK,AMP,Amparai,Amparai,,RQ,---4----,,7.333333333333333,81.61666666666666,
LK,ABA,Andiambalama,Andiambalama,,RL,-----6--,,7.183333333333334,79.9,
LK,ANG,Angoda,Angoda,11,RL,--3-----,,6.933333333333334,79.91666666666667,
LK,ADP,Anuradhapura,Anuradhapura,,AI,---4----,,8.3031729,80.42988622768776,true
LK,ATA,Attanagalla,Attanagalla,1,RL,--3-----,,7.1,80.11666666666666,
LK,ATT,Attidiya,Attidiya,,RQ,-----6--,,6.833333333333333,79.88333333333334,
LK,AVI,Avissawella,Avissawella,,RL,-23---7-,,6.95,80.21666666666667,
LK,BLA,Badulla,Badulla,3,RL,--3-----,,6.166666666666667,80.53333333333333,
LK,BAN,Bandaragama,Bandaragama,1,RL,--3-----,,6.7,79.98333333333333,
LK,BTW,Bataduwa,Bataduwa,,RL,-----6--,,6.216666666666667,80.1,
LK,BAT,Battaramulla,Battaramulla,1,RL,--3-----,,6.9,79.91666666666667,
LK,BTC,Batticoloa,Batticoloa,,AI,1--4----,,,,
LK,BJT,Bentota River Apt,Bentota River Apt,,RL,---4----,,6.416666666666667,79.98333333333333,
LK,BRW,Beruwala,Beruwala,,QQ,1-------,,6.4755855,79.9834066,true
LK,BIY,Biyagama,Biyagama,12,RL,--3-----,,6.933333333333334,79.98333333333333,
LK,BWT,Bogahawatta,Bogahawatta,,RL,-----6--,,7.3,80.16666666666667,
LK,BUT,Bulathsinhala,Bulathsinhala,1,RL,--3-----,,6.65,80.16666666666667,
LK,CMB,Colombo,Colombo,11,AI,12345---,,6.916666666666667,79.85,
LK,RML,Colombo/Ratmalana Apt,Colombo/Ratmalana Apt,,AI,---4----,,6.934744,79.842725,true
LK,DMB,Dambadure,Dambadure,,RL,-----6--,,7.116666666666666,79.88333333333334,
LK,DBU,Dambulu Oya Tank Apt,Dambulu Oya Tank Apt,,RQ,---4----,,7.85,80.65,
LK,DMP,Dampelessa,Dampelessa,61,RL,--3-----,,7.65,80.38333333333334,
LK,DEH,Dehiwala,Dehiwala,1,RL,--3-----,,6.85,79.85,
LK,DEK,Dekantana,Dekantana,,RQ,--3-----,,,,
LK,AZX,Dekatana,Dekatana,1,RL,--3-----,,6.966666666666667,80.05,
LK,DIW,Dickwella Mawella Lagoon Apt,Dickwella Mawella Lagoon Apt,,RQ,---4----,,6.966666666666667,81,
LK,DIV,Divulapitiya,Divulapitiya,1,RL,--3-----,,7.216666666666667,80.08333333333333,
LK,DOD,Dodangoda,Dodangoda,1,RL,--3-----,,6.533333333333333,80.4,
LK,DOM,Dompe,Dompe,1,RL,--3-----,,6.95,80.51666666666667,
LK,ENA,Enderamulla,Enderamulla,,RL,-----6--,,7,79.9,
LK,GOY,Gal Oya,Gal Oya,,AI,---4----,,7.1369588,81.2691966,true
LK,GKD,Galkanda,Galkanda,71,RL,--3-----,,7.65,80.36666666666666,
LK,GAL,Galle,Galle,,QQ,1-------,,6.0328139,80.214955,true
LK,GAM,Gampaha,Gampaha,1,RL,--3-----,,7.883333333333333,79.98333333333333,
LK,GPL,Gampola,Gampola,,RL,-----6--,,8.05,80.18333333333334,
LK,GMA,Ganemulla,Ganemulla,12,RQ,-----6--,,7.066666666666666,79.95,
LK,GLY,Gelioya,Gelioya,21,RL,--3-----,,7.2,80.6,
LK,GOR,Gorakana,Gorakana,,RL,-----6--,,6.766666666666667,79.9,
LK,KDY,Gregory' Lake Apt (Nuwara Eliya),Gregory' Lake Apt (Nuwara Eliya),,RQ,---4----,,8.45,81.21666666666667,
LK,HBA,Hambantota,Hambantota,,RL,1-------,,6.116666666666666,81.11666666666666,
LK,HAN,Hanwella,Hanwella,2,RL,--3-----,,7.35,80.86666666666666,
LK,HAT,Hatton,Hatton,,RL,-23-----,,6.883333333333333,80.58333333333333,
LK,HDL,Hendala,Hendala,,RL,-----6--,,6.983333333333333,79.86666666666666,
LK,HET,Hettimulla,Hettimulla,,RL,-----6--,,7.266666666666667,-80.08333333333333,
LK,HIM,Hingurakgoda,Hingurakgoda,,RL,---4----,,8.016666666666667,80.95,
LK,HRN,Hirana,Hirana,,RQ,-----6--,,6.733333333333333,79.9,
LK,HOM,Homagama,Homagama,1,RL,--3-----,,6.833333333333333,80.08333333333333,
LK,KHN,Horana,Horana,13,RL,--3-----,,6.716666666666667,80.05,
LK,IBB,Ibbawala,Ibbawala,31,RL,-----6--,,6,80.4,
LK,ING,Ingiriya,Ingiriya,1,RL,--3-----,,6.75,80.16666666666667,
LK,JAE,Ja-Ela,Ja-Ela,1,RL,--3-----,,7.9,79.88333333333334,
LK,JAF,Jaffna,Jaffna,,AI,1--4----,,9.665093,80.0093029,true
LK,JCT,Jaya Container Terminal,Jaya Container Terminal,,RQ,1-------,,6.94486435,79.85269766708635,true
LK,KAW,Kadawala,Kadawala,2,RL,--3-----,,6.983333333333333,80.5,
LK,KGN,Kadugannawa,Kadugannawa,21,RL,--3-----,,7.25,80.51666666666667,
LK,KAD,Kaduwela,Kaduwela,1,RL,--3-----,,6.916666666666667,79.96666666666667,
LK,KAA,Kalagedihena,Kalagedihena,,RL,-----6--,,7.116666666666666,80.05,
LK,KAL,Kalpitiya,Kalpitiya,,QQ,1-------,,8.2368062,79.7661508,true
LK,KLT,Kalutara,Kalutara,,RL,--3-----,,6.5835219,79.9612508,true
LK,KAM,Kamburupitiya,Kamburupitiya,32,RQ,-----6--,,6.083333333333333,80.56666666666666,
LK,KDA,Kandana,Kandana,1,RL,-----6--,,7.033333333333333,79.88333333333334,
LK,KAN,Kandy,Kandy,,RL,--3-----,,7.2931208,80.6350358,true
LK,KNK,Kankesanturai,Kankesanturai,,QQ,1-------,,9.8118663,80.0374464,true
LK,KWE,Katana West,Katana West,1,RL,--3-----,,7.25,79.9,
LK,KDZ,Katugastota Pogolla Reservoir Apt,Katugastota Pogolla Reservoir Apt,,RQ,---4----,,7.2,80.41666666666667,
LK,KTK,Katukurunda,Katukurunda,,RL,--3-----,,7.033333333333333,80.03333333333333,
LK,KAT,Katunayake,Katunayake,,AI,----5---,,7.166666666666667,79.86666666666666,
LK,KTW,Katuwawala,Katuwawala,,RQ,-----6--,,6.266666666666667,80.68333333333334,
LK,KAY,Kayts,Kayts,,QQ,1-------,,9.6579067,79.8975248487746,true
LK,KEG,Kegalle,Kegalle,9,RL,--3-----,,7.25,80.35,
LK,KHT,Kehelwatta,Kehelwatta,,RQ,-----6--,,6.75,79.91666666666667,
LK,KNA,Kelaniya,Kelaniya,,RQ,-----6--,,6.95,79.88333333333334,
LK,KEZ,Kelaniya River Apt,Kelaniya River Apt,,RQ,---4----,,6.95,79.88333333333334,
LK,KES,Kesbewa,Kesbewa,1,RL,--3-----,,6.783333333333333,79.93333333333334,
LK,KIL,Kilinochchi,Kilinochchi,,RL,-23-----,,9.4,80.4,
LK,KRB,Kiribamuna,Kiribamuna,21,RL,--3-----,,7.583333333333333,80.43333333333334,
LK,KCT,Koggala,Koggala,,RL,1234----,,5.983333333333333,80.33333333333333,
LK,KLN,Kolonnawa,Kolonnawa,11,RL,--3-----,,6.916666666666667,79.88333333333334,
LK,KON,Kondavattavan,Kondavattavan,,RL,1-3-----,,7.283333333333333,81.63333333333334,
LK,KNW,Konwelana,Konwelana,,RL,--3-----,,6.233333333333333,81.28333333333333,
LK,KOT,Kotugoda,Kotugoda,11,RL,-----6--,,7.116666666666666,79.91666666666667,
LK,KUL,Kuliyapitiya,Kuliyapitiya,61,RL,--3-----,,7.466666666666667,80.05,
LK,KUR,Kurunegala,Kurunegala,61,RQ,-----6--,,7.483333333333333,80.35,
LK,LWA,Lunuwila,Lunuwila,62,RQ,-----6--,,7.333333333333333,79.85,
LK,MAD,Madurawala,Madurawala,1,RL,--3-----,,6.633333333333333,80.66666666666667,
LK,MRA,Mahara,Mahara,1,RL,--3-----,,7,79.93333333333334,
LK,MAH,Maharagama,Maharagama,1,RL,--3-----,,6.833333333333333,79.91666666666667,
LK,MHW,Mahaweli,Mahaweli,,RL,---4----,,8.45,81.21666666666667,
LK,MKL,Makola,Makola,11,RL,-----6--,,6.966666666666667,79.95,
LK,MAL,Malwana,Malwana,1,RL,--3-----,,6.933333333333334,80,
LK,MAN,Mannar,Mannar,,QQ,1-------,,8.9772444,79.9137786,true
LK,MLE,Matale,Matale,2,RL,--3-----,,7.466666666666667,80.61666666666666,
LK,MTA,Matara,Matara,3,RL,--3-----,,5.933333333333334,80.53333333333333,
LK,MTL,Mattala,Mattala,33,AI,----5---,,6.35,81.11666666666666,
LK,MAT,Matugama,Matugama,1,RL,--3-----,,6.516666666666667,80.1,
LK,MAW,Mawella,Mawella,,RL,1-3-----,,5.983333333333333,80.73333333333333,
LK,MIL,Millaniya,Millaniya,13,RL,--3-----,,6.65,14.8,
LK,MNH,Minneriya,Minneriya,,AI,---4----,,8.0393552,80.9056332,true
LK,MIN,Minuwangoda,Minuwangoda,1,RL,--3-----,,7.166666666666667,79.95,
LK,MIR,Mirigama,Mirigama,1,RL,--3-----,,7.233333333333333,80.11666666666666,
LK,MON,Monaragala,Monaragala,8,RL,--3-----,,6.866666666666667,81.35,
LK,MRG,Moragala,Moragala,12,RL,--3-----,,6.866666666666667,80.25,
LK,MOR,Moratuwa,Moratuwa,1,RL,--3-----,,6.766666666666667,79.86666666666666,
LK,MUL,Mulativu,Mulativu,,QQ,1-------,,,,
LK,JMY,Mulleriyawa North,Mulleriyawa North,11,RL,--3-----,,6.95,79.93333333333334,
LK,NLL,Nalluruwa,Nalluruwa,13,RL,--3-----,,6.7,79.91666666666667,
LK,NMP,Nambapana,Nambapana,91,RL,--3-----,,6.733333333333333,80.2,
LK,NAW,Nawala,Nawala,,RQ,-----6--,,6.8952109,79.8905528,true
LK,NBD,Neboda,Neboda,,RQ,-----6--,,6.6,80.08333333333333,
LK,NEG,Negombo,Negombo,12,RL,--3-----,,7.2,79.83333333333333,
LK,NBW,Nittambuwa,Nittambuwa,1,RL,--3-----,,7.15,80.1,
LK,NUW,Nuwaraeliya,Nuwaraeliya,2,RL,--3-----,,6.966666666666667,80.76666666666667,
LK,OLU,Oluvil,Oluvil,,RL,1-------,,7.283333333333333,81.85,
LK,OWT,Orugodawatte,Orugodawatte,,RQ,-----6--,,6.933333333333334,79.86666666666666,
LK,PDU,Padukka,Padukka,1,RL,--3-----,,6.816666666666666,80.91666666666667,
LK,PAL,Palindanuwara,Palindanuwara,1,RL,--3-----,,6.5,80.26666666666667,
LK,PAD,Panadura,Panadura,13,RL,--3-----,,6.7,79.9,
LK,PNG,Panagoda,Panagoda,81,RL,--3-----,,6.966666666666667,81.13333333333334,
LK,PAN,Pannala,Pannala,61,RL,--3-----,,7.333333333333333,80.03333333333333,
LK,PNY,Pannipitiya,Pannipitiya,,RQ,-----6--,,6.85,79.95,
LK,PAT,Pattiwila,Pattiwila,11,RL,--3-----,,6.95,79.95,
LK,PIK,Pita Kotte,Pita Kotte,,RQ,-----6--,,6.883333333333333,79.9,
LK,PPE,Point Pedro,Point Pedro,,QQ,1-------,,9.8280712,80.2354871,true
LK,PLW,Polonnaruwa,Polonnaruwa,71,RL,--3-----,,7.933333333333334,81,
LK,PRT,Porutota,Porutota,,RL,-----6--,,7.266666666666667,79.85,
LK,PUL,Pulmoddai,Pulmoddai,,RL,--3-----,,8.9379741,80.9886214,true
LK,PTL,Puttalam,Puttalam,,RQ,-----6--,,8.033333333333333,79.81666666666666,
LK,RAT,Ratmalana,Ratmalana,,RL,-23-----,,6.816666666666666,79.86666666666666,
LK,RPU,Ratnapura,Ratnapura,,RL,--3-----,,6.666666666666667,80.38333333333334,
LK,RWT,Rawatawatta,Rawatawatta,,RL,-----6--,,6.783333333333333,79.88333333333334,
LK,SUW,Siduwa,Siduwa,1,RL,--3-----,,7.116666666666666,79.88333333333334,
LK,SIG,Sigiriya,Sigiriya,,RL,--3-----,,7.933333333333334,80.71666666666667,
LK,SYD,Siyambalagoda,Siyambalagoda,33,RL,--3-----,,6.216666666666667,80.93333333333334,
LK,SGT,South Asia Gateway Terminal,South Asia Gateway Terminal,,RQ,1-------,,6.94684775,79.8446917357604,true
LK,SRJ,Sri Jayawardenapura,Sri Jayawardenapura,,RL,--3-----,,6.883333333333333,79.86666666666666,
LK,TAL,Talaimannar,Talaimannar,,QQ,1-------,,9.1055245,79.7307431,true
LK,TRR,Trincomalee,Trincomalee,,AI,1--4----,,8.576425,81.2344952,true
LK,UHA,Uhana,Uhana,,RL,--3-----,,7.366666666666666,81.63333333333334,
LK,UCT,Unity Container Terminal,Unity Container Terminal,,RQ,1-------,,6.958055,79.85419052345935,true
LK,VAV,Vavuniya,Vavuniya,4,RL,--3-----,,8.75,80.5,
LK,WAD,Wadakada,Wadakada,32,RL,--3-----,,7.4,80.25,
LK,SLK,Wadduwa,Wadduwa,,RL,-----6--,,6.65,79.91666666666667,
LK,WAL,Walallawita,Walallawita,1,RL,--3-----,,6.366666666666666,80.2,
LK,WPL,Walpola,Walpola,,RL,-----6--,,6.966666666666667,80.3,
LK,WAT,Wattala,Wattala,12,RQ,-----6--,,6.983333333333333,79.88333333333334,
LK,WLL,Welisara,Welisara,11,RL,--3-----,,7.033333333333333,79.9,
LK,WEL,Weliweriya,Weliweriya,,RL,-----6--,,7.033333333333333,80.01666666666667,
LK,WLP,Wellampitiya,Wellampitiya,,RQ,-----6--,,6.9372438,79.8962142,true
LK,WRZ,Wirawala,Wirawala,,RQ,---4----,,6.25,81.23333333333333,
LK,YAT,Yatiyantota,Yatiyantota,92,RL,--3-----,,7.016666666666667,80.3,