country,location,name,nameWoDiacritics,subdivision,status,function,iata,lat,lon,geocoded
NL,AAH,Aa en Hunze,Aa en Hunze,DR,RL,--3-----,,53,6.766666666666667,
NL,ALB,Aalburg,Aalburg,,AF,--3-----,,51.7564268,5.1282689,true
NL,AAM,Aalsmeer,Aalsmeer,,AF,1-------,QFA,52.2658344,4.766170039669312,true
NL,AMB,Aalsmeerderbrug,Aalsmeerderbrug,NH,RN,1-3-----,,52.266666666666666,4.75,
NL,AAL,Aalst,Aalst,GE,AF,1-3-----,,51.95,5.533333333333333,
NL,LTE,Aalten,Aalten,,AF,--3-----,,51.9285963,6.5810265,true
NL,AZU,Aan de Zuwe,Aan de Zuwe,UT,RN,--3-----,,52.166666666666664,4.9,
NL,AAR,Aardenburg,Aardenburg,,AF,--3-----,,51.2736623,3.4496895,true
NL,ADV,Aarlanderveen,Aarlanderveen,ZH,RN,--3-----,,52.13333333333333,4.733333333333333,
NL,ARI,Aarle Rixtel,Aarle Rixtel,NB,AF,1-3-----,,51.5,5.633333333333333,
NL,AGT,Abbegaasterketting,Abbegaasterketting,FR,RN,--3-----,,53.03333333333333,5.566666666666666,
NL,ABB,Abbekerk,Abbekerk,,AF,--3-----,,52.7305223,5.0209003,true
NL,ABK,Abbenbroek,Abbenbroek,,AF,--3-----,,51.8491758,4.2435913,true
NL,ABE,Abbenes,Abbenes,,RL,--3-----,,52.233333333333334,4.583333333333333,
NL,ABC,Abcoude,Abcoude,,AF,--3-----,,52.270281,4.9710427,true
NL,QCJ,Acht,Acht,,AF,--3-----,,51.4768532,5.4312906,true
NL,ACH,Achterveld,Achterveld,UT,RL,--3-----,,52.13333333333333,5.5,
NL,AHO,Achthoven,Achthoven,UT,RN,1-3-----,,52.05,4.983333333333333,
NL,AHZ,Achthuizen,Achthuizen,ZH,RL,--3-----,,51.68333333333333,4.266666666666667,
NL,ACK,Achtkarspelen,Achtkarspelen,FR,RL,--3-----,,53.25,6.15,
NL,ADU,Aduard,Aduard,GR,RL,--3-----,,53.25,6.466666666666667,
NL,AEH,Aerdenhout,Aerdenhout,,AF,--3-----,,52.3629912,4.5909112,true
NL,AKL,Akersloot,Akersloot,,AF,1-------,,52.5599095,4.7320342,true
NL,AKR,Akkrum,Akkrum,,AF,--3-----,,53.0501248,5.8362304,true
NL,ABN,Albergen,Albergen,,RL,--3-----,,52.3708449,6.7637994,true
NL,ABL,Alblasserdam,Alblasserdam,,AF,1-------,,51.8599524,4.666202275442476,true
NL,AWD,Albrandswaard,Albrandswaard,ZH,RL,123--6--,,51.85,4.416666666666667,
NL,ALK,Alkmaar,Alkmaar,NH,AF,123-----,,52.63333333333333,4.75,
NL,ALW,Allingawier,Allingawier,FR,RN,--3-----,,53.05,5.45,
NL,ALM,Almelo,Almelo,OV,AF,123-----,QYL,52.35,6.666666666666667,
NL,AMN,Almen,Almen,GE,RL,-----6--,,52.15,6.3,
NL,AER,Almere,Almere,FL,AF,1-3--6--,,52.36666666666667,5.216666666666667,
NL,AKK,Almkerk,Almkerk,,AF,--3-----,,51.7705707,4.9606525,true
NL,APH,Alphen,Alphen,NB,RL,--3-----,,51.483333333333334,4.95,
NL,APN,Alphen aan den Rijn,Alphen aan den Rijn,ZH,AF,123-----,,52.13333333333333,4.666666666666667,
NL,AAC,Alphen-Chaam,Alphen-Chaam,NB,RL,--3-----,,51.483333333333334,4.95,
NL,5RD,Alteveer,Alteveer,DR,RL,--3-----,,52.68333333333333,6.483333333333333,
NL,VRT,Alteveer,Alteveer,GR,RL,--3-----,,53.05,7,
NL,ART,Altforst,Altforst,GE,RL,--3-----,,51.85,5.566666666666666,
NL,AED,Ameide,Ameide,ZH,RL,--3--6--,,51.95,4.966666666666667,
NL,AML,Ameland,Ameland,,AI,1--4----,,53.45069095,5.682985496075154,true
NL,ZAI,America,America,LI,RL,-----6--,,51.43333333333333,5.983333333333333,
NL,AMR,Amerongen,Amerongen,UT,AF,1-3-----,,52,5.466666666666667,
NL,AME,Amersfoort,Amersfoort,,AF,123-----,QYM,52.15,5.383333333333334,
NL,AMM,Ammerstol,Ammerstol,ZH,AA,--3-----,,51.93333333333333,4.816666666666666,
NL,AMZ,Ammerzoden,Ammerzoden,,AF,--3-----,,51.7488717,5.2251819,true
NL,ALH,Amstelhoek,Amstelhoek,,RL,-23-----,,52.233333333333334,4.833333333333333,
NL,AMV,Amstelveen,Amstelveen,,AF,--3-----,,52.2862177,4.852649259746028,true
NL,ATR,Amstenrade,Amstenrade,LI,RQ,-----6--,,50.93333333333333,5.933333333333334,
NL,AMS,Amsterdam,Amsterdam,,AF,12345---,,52.4,4.816666666666666,
NL,ANL,Andel,Andel,,AF,--3-----,,51.7836518,5.0539136,true
NL,ANT,Andelst,Andelst,,AF,--3-----,,51.9073627,5.7289373,true
NL,AND,Anderen,Anderen,DR,RL,--3-----,,53,6.683333333333334,
NL,AIJ,Andijk,Andijk,,AF,--3-----,,52.7454064,5.2218881,true
NL,REN,Angeren,Angeren,GE,RL,--3-----,,51.916666666666664,5.966666666666667,
NL,ANG,Angerlo,Angerlo,GE,AA,--3-----,,51.983333333333334,6.133333333333334,
NL,AJM,Anjum,Anjum,,AF,--3-----,,53.3738667,6.1277868,true
NL,ANP,Anna Paulowna,Anna Paulowna,NH,AF,1-3-----,,52.86666666666667,4.866666666666667,
NL,NNE,Annen,Annen,,RL,--3-----,,53.056286,6.7275703,true
NL,APE,Apeldoorn,Apeldoorn,,AF,-23-----,QYP,52.17957375,5.930077460807249,true
NL,APS,Appelscha,Appelscha,FR,RL,--3-----,,52.95,6.366666666666666,
NL,APL,Appeltern,Appeltern,GE,AA,--3-----,,51.833333333333336,5.583333333333333,
NL,APP,Appingedam,Appingedam,GR,AF,1-3-----,,53.31666666666667,6.866666666666667,
NL,ARC,Arcen,Arcen,LI,AF,1-3-----,,51.483333333333334,6.183333333333334,
NL,ARK,Arkel,Arkel,,AF,--3-----,,51.8634805,4.993608,true
NL,ARM,Arnemuiden,Arnemuiden,,AF,--3-----,,51.5000009,3.6762457,true
NL,ARN,Arnhem,Arnhem,,AF,-23-----,QAR,51.984257,5.9108573,true
NL,ARU,Arum,Arum,FR,RL,--3-----,,53.13333333333333,5.483333333333333,
NL,ASC,Asch,Asch,GE,RL,--3-----,,51.93333333333333,5.316666666666666,
NL,ASP,Asperen,Asperen,,AF,--3-----,,51.8807824,5.1109679,true
NL,ASS,Assen,Assen,,AF,--3-----,,52.9952273,6.560498,true
NL,ASD,Assendelft,Assendelft,,AF,--3-----,,52.4681109,4.7449605,true
NL,AST,Asten,Asten,NB,AF,--3-----,,51.4,5.733333333333333,
NL,ZAC,Augustinusga,Augustinusga,FR,RL,-----6--,,53.21666666666667,6.166666666666667,
NL,AVE,Avenhorn,Avenhorn,,AF,--3-----,,52.6178901,4.9488205,true
NL,AXL,Axel,Axel,ZE,RL,--3-----,,51.266666666666666,3.9166666666666665,
NL,AZG,Azewijn,Azewijn,GE,AA,--3--6--,,51.88333333333333,6.3,
NL,BA2,Baak,Baak,GE,RL,--3-----,,52.11666666666667,6.333333333333333,
NL,BGE,Baambrugge,Baambrugge,UT,RN,123-----,,52.25,4.983333333333333,
NL,ARD,Baard,Baard,FR,RN,--3-----,,53.15,5.666666666666667,
NL,BRA,Baarland,Baarland,ZE,RQ,1-3-----,,51.4,3.8666666666666667,
NL,BNS,Baarle-Nassau,Baarle-Nassau,,AF,--3-----,,51.4441976,4.9317413,true
NL,BLO,Baarlo,Baarlo,,AF,--3-----,,51.3319545,6.0967255,true
NL,BAA,Baarn,Baarn,UT,AF,-23-----,,52.21666666666667,5.266666666666667,
NL,BBR,Babberich,Babberich,GE,RL,--3-----,,51.9,6.116666666666666,
NL,BAD,Badhoevedorp,Badhoevedorp,,AF,--3-----,,52.3388803,4.7844704,true
NL,BXE,Baexem,Baexem,,RQ,--3-----,,51.22596905,5.885191285457463,true
NL,BAF,Baflo,Baflo,,AF,--3-----,,53.36176,6.51596,true
NL,BAK,Bakel,Bakel,NB,RL,--3-----,,51.5,5.733333333333333,
NL,BKH,Bakhuizen,Bakhuizen,FR,RQ,--3-----,,52.86666666666667,5.45,
NL,BAL,Balk,Balk,,AF,--3-----,,52.8989296,5.5830455,true
NL,BKB,Balkbrug,Balkbrug,,AF,--3-----,,52.5994353,6.3929761,true
NL,BAN,Bant,Bant,FL,RN,1-3-----,,52.766666666666666,5.75,
NL,BRR,Barendrecht,Barendrecht,,AF,123-----,,51.85193795,4.52938352520747,true
NL,BAR,Barneveld,Barneveld,,AF,--3-----,,52.1397035,5.5869635,true
NL,BGO,Barsingerhorn,Barsingerhorn,NH,RN,1-3-----,,52.78333333333333,4.85,
NL,BHM,Bartlehiem,Bartlehiem,FR,RN,1-3-----,,53.28333333333333,5.833333333333333,
NL,BTH,Bathmen,Bathmen,,AF,--3-----,,52.2500503,6.2844391,true
NL,BAV,Bavel,Bavel,,AF,--3-----,,51.5656819,4.8296995,true
NL,BED,Bedum,Bedum,,AF,--3-----,,53.3003141,6.5961866,true
NL,BGD,Beegden,Beegden,LI,AA,--3-----,,51.18333333333333,5.916666666666667,
NL,BEQ,Beek,Beek,,AF,--3-----,,50.9413527,5.7977204,true
NL,ZAK,Beek,Beek,LI,RL,---4-6--,,51.53333333333333,5.95,
NL,BEE,Beek en Donk,Beek en Donk,,AF,--3-----,,51.5337801,5.6329857,true
NL,BSR,Beemster,Beemster,NH,RL,--3-----,,52.916666666666664,5,
NL,BBB,Beers,Beers,NB,RL,--3-----,,51.71666666666667,5.833333333333333,
NL,BSD,Beesd,Beesd,,AF,--3-----,,51.884089,5.1916361,true
NL,BSL,Beesel,Beesel,LI,RL,1-3-----,,51.266666666666666,6.033333333333333,
NL,BGM,Beetgum,Beetgum,FR,RL,--3-----,,53.233333333333334,5.683333333333334,
NL,BTS,Beets,Beets,NH,RN,1-3-----,,52.583333333333336,4.966666666666667,
NL,BEZ,Beetsterzwaag,Beetsterzwaag,FR,RL,--3-----,,53.5,6.833333333333333,
NL,BEI,Beilen,Beilen,,AF,--3-----,,52.8610999,6.5124319,true
NL,BSP,Beinsdorp,Beinsdorp,NH,RL,--3-----,,52.28333333333333,4.583333333333333,
NL,BEW,Beiswijk,Beiswijk,,AF,--3-----,,,,
NL,BFD,Belfeld,Belfeld,LI,RL,1-3-----,,51.31666666666667,6.116666666666666,
NL,NWR,Bellingwedde,Bellingwedde,GR,RL,--3-----,,53.11666666666667,7.15,
NL,BEM,Bemmel,Bemmel,GE,RL,1-3-----,,51.9,5.9,
NL,BUW,Beneden-Leeuwen,Beneden-Leeuwen,GE,AF,--3-----,,51.88333333333333,5.516666666666667,
NL,BEB,Bennebroek,Bennebroek,,AF,--3-----,,52.322419,4.5937366,true
NL,BKM,Bennekom,Bennekom,,AF,--3-----,,52.013349649999995,5.705426587258394,true
NL,BBK,Benningbroek,Benningbroek,NH,RL,--3-----,,52.7,5.033333333333333,
NL,HOP,Benschop,Benschop,UT,RQ,-----6--,,52,4.983333333333333,
NL,BTO,Bentelo,Bentelo,OV,RL,-2------,,52.233333333333334,6.683333333333334,
NL,BHZ,Benthuizen,Benthuizen,,AF,--3-----,,52.0775659,4.5412547,true
NL,BEN,Bentveld,Bentveld,,AF,--3-----,,52.3657705,4.5705619,true
NL,BRG,Berg,Berg,LI,RN,--3-----,,51.333333333333336,5.85,
NL,BTT,Berg en Terblijt,Berg en Terblijt,,RQ,--3-----,,50.8602927,5.7863647,true
NL,BGB,Bergambacht,Bergambacht,ZH,AF,1-3-----,,51.9314474,4.7827247,true
NL,BEY,Bergeijk,Bergeijk,,AF,--3-----,,51.31666666666667,5.366666666666666,
NL,BGN,Bergen,Bergen,NH,RL,--3-----,,52.666666666666664,44.333333333333336,
NL,BRX,Bergen,Bergen,LI,RL,--3-----,,51.6,6.033333333333333,
NL,BEG,Bergen aan Zee,Bergen aan Zee,,AI,1-------,,52.6607662,4.6316645,true
NL,BZM,Bergen op Zoom,Bergen op Zoom,NB,AF,123-----,,51.5,4.3,
NL,BGH,Bergentheim,Bergentheim,OV,RL,-23-----,,52.53333333333333,6.616666666666667,
NL,BGI,Bergerheide,Bergerheide,,RQ,1-3-----,,51.58615,6.09396,true
NL,BGY,Bergeyk,Bergeyk,NB,RQ,-----6--,,51.31666666666667,5.35,
NL,BHR,Bergharen,Bergharen,GE,RL,--3-----,,51.85,5.666666666666667,
NL,BEH,Bergh-Autoweg,Bergh-Autoweg,,AF,--3-----,,51.88356,6.2501,true
NL,BHE,Berghem,Berghem,NB,RL,--3-----,,51.766666666666666,5.566666666666666,
NL,BEK,Bergschenhoek,Bergschenhoek,ZH,AF,--3-----,,51.983333333333334,4.483333333333333,
NL,BGU,Bergum,Bergum,,AF,--3-----,,53.1954807,5.9871063,true
NL,BEJ,Beringe,Beringe,LI,RL,--3-----,,51.333333333333336,5.95,
NL,BKE,Berkel,Berkel,,AF,--3-----,,51.9933725,4.4786561,true
NL,BER,Berkel en Rodenrijs,Berkel en Rodenrijs,ZH,AF,-23-----,,51.983333333333334,4.483333333333333,
NL,BES,Berkel-Enschot,Berkel-Enschot,,AF,--3-----,,51.5854521,5.1422542,true
NL,KLL,Berkelland,Berkelland,GE,RL,--3-----,,52.11666666666667,6.533333333333333,
NL,BKT,Berkhout,Berkhout,NH,RL,--3--6--,,52.63333333333333,5,
NL,BLU,Berlicum,Berlicum,NB,RN,1-3-----,,51.666666666666664,5.383333333333334,
NL,BLM,Berlikum,Berlikum,FR,RL,--3-----,,53.25,5.65,
NL,EEZ,Bernheze,Bernheze,NB,RL,--3-----,,51.733333333333334,5.533333333333333,
NL,BST,Best,Best,NB,AF,1-3-----,QWZ,51.5,5.4,
NL,BEU,Beugen,Beugen,,AF,--3-----,,51.6738498,5.9400104,true
NL,BNN,Beuningen,Beuningen,GE,AF,1-3-----,,51.86666666666667,5.783333333333333,
NL,BEC,Beusichem,Beusichem,,AF,--3-----,,51.9499609,5.288482,true
NL,BEV,Beverwijk,Beverwijk,,AF,123-----,,52.4787896,4.672839631308436,true
NL,BNZ,Biddinghuizen,Biddinghuizen,FL,RN,1-3-----,,52.45,5.7,
NL,BIR,Bierum,Bierum,GR,RQ,--3-----,,53.38333333333333,6.866666666666667,
NL,BRV,Biervliet,Biervliet,,RL,--3-----,,51.31666666666667,3.6833333333333336,
NL,BIT,Biest,Biest,NB,RN,1-3-----,,51.516666666666666,5.15,
NL,BZO,Biezenmortel,Biezenmortel,,RL,-23--6--,,51.61666666666667,5.183333333333334,
NL,BDR,Bilderdam,Bilderdam,ZH,RN,1-3-----,,52.21666666666667,4.716666666666667,
NL,BHV,Bilthoven,Bilthoven,,AF,--3-----,,52.1289693,5.2046134,true
NL,BNM,Binnenmaas,Binnenmaas,,AI,1-------,,51.7938909,4.5156771,true
NL,BDA,Birdaard,Birdaard,FR,RN,1-3-----,,53.3,5.883333333333333,
NL,BLD,Blaaksedijk,Blaaksedijk,,AF,--3-----,,51.8139109,4.5091799,true
NL,BLL,Bladel,Bladel,,AF,--3-----,,51.3667765,5.2154317,true
NL,BLA,Blaricum,Blaricum,,AF,--3-----,,52.2725049,5.2441379,true
NL,BLW,Bleiswijk,Bleiswijk,,AF,--3-----,,52.0109579,4.5310837,true
NL,BLE,Blerick,Blerick,LI,RL,123-----,,51.36666666666667,6.166666666666667,
NL,BLG,Bleskensgraaf,Bleskensgraaf,,AF,--3-----,,51.8721978,4.7825711,true
NL,BLI,Blije,Blije,FR,RL,--3-----,,53.35,5.85,
NL,BMD,Bloemendaal,Bloemendaal,,AF,--3-----,,52.0239656,4.692133,true
NL,BLK,Blokker,Blokker,,AF,--3-----,,52.6614748,5.0899695,true
NL,BZL,Blokzijl,Blokzijl,OV,RN,--3-----,,52.71666666666667,5.966666666666667,
NL,BNH,Boarnsterhim,Boarnsterhim,FR,RN,1-3-----,,53.083333333333336,5.816666666666666,
NL,BOA,Boazum,Boazum,FR,AM,--3-----,,53.083333333333336,5.683333333333334,
NL,BDK,Bobeldijk,Bobeldijk,NH,RL,--3-----,,52.65,5,
NL,BOG,Bodegraven,Bodegraven,,AF,1-3-----,,52.083333333333336,4.75,
NL,BRW,Bodegraven-Reeuwijk,Bodegraven-Reeuwijk,ZH,RL,--3-----,,52.083333333333336,4.75,
NL,BCP,Boeicop,Boeicop,ZH,RL,--3-----,,51.93333333333333,5.116666666666666,
NL,BEL,Boekel,Boekel,NB,RL,--3-----,,51.6,5.666666666666667,
NL,BOE,Boekel,Boekel,NH,RL,--3-----,,52.583333333333336,4.75,
NL,BKL,Boekelo,Boekelo,,AF,--3-----,,52.2039859,6.7994423,true
NL,BUE,Boesingheliede,Boesingheliede,,AF,--3-----,,52.3616574,4.7233995,true
NL,BOL,Bolsward,Bolsward,,AF,--3-----,,53.0620178,5.5228964,true
NL,BOK,Bontebok,Bontebok,,RL,--3-----,,52.95,6.016666666666667,
NL,BZW,Boornzwaag,Boornzwaag,FR,RN,1-3-----,,52.88333333333333,5.566666666666666,
NL,BWW,Boornzwaag over de Wielen,Boornzwaag over de Wielen,FR,RN,1-3-----,,52.95,5.75,
NL,BMK,Boortmeerkerk,Boortmeerkerk,,AF,--3-----,,,,
NL,BRC,Borculo,Borculo,,AF,--3-----,,52.114854,6.5180361,true
NL,BGR,Borger,Borger,DR,RQ,--3--6--,,52.916666666666664,6.783333333333333,
NL,BOO,Borger-Odoorn,Borger-Odoorn,DR,RL,--3-----,,52.88333333333333,6.866666666666667,
NL,BGW,Borgsweer,Borgsweer,GR,RN,1-3-----,,53.3,7.016666666666667,
NL,BON,Born,Born,LI,AF,1-3-----,,51.03333333333333,5.816666666666666,
NL,BRE,Borne,Borne,OV,RL,--3-----,,52.3,6.75,
NL,BNB,Bornerbroek,Bornerbroek,,RL,--3-----,,52.3084978,6.6553464,true
NL,BOR,Borssele,Borssele,ZE,AF,1-3-----,,51.416666666666664,3.716666666666667,
NL,BXC,Bosch,Bosch,,RL,--3-----,,51.266666666666666,5.583333333333333,
NL,UTB,Bosch En Duin,Bosch En Duin,UT,RL,--3-----,,52.11666666666667,5.25,
NL,BSK,Boskoop,Boskoop,,AF,1-3-----,,52.0742348,4.6631166,true
NL,BOS,Bosschenhoofd,Bosschenhoofd,NB,RL,--3-----,,51.56666666666667,4.55,
NL,BSH,Bosscherheide,Bosscherheide,LI,RN,1-3-----,,51.56666666666667,6.083333333333333,
NL,BOT,Botlek,Botlek,ZH,AF,1-3-----,,51.88333333333333,4.283333333333333,
NL,BTA,Bourtange,Bourtange,GR,RN,1-3-----,,53.016666666666666,7.2,
NL,HRX,Boven-Hardinxveld,Boven-Hardinxveld,ZH,AF,--3-----,,51.81666666666667,4.883333333333333,
NL,BOV,Bovenkarspel,Bovenkarspel,,RL,--3-----,,52.68333333333333,5.233333333333333,
NL,BVL,Boven-Leeuwen,Boven-Leeuwen,GE,RL,--3-----,,51.88333333333333,33.166666666666664,
NL,BVI,Bovensmilde,Bovensmilde,DR,RN,1-3-----,,52.983333333333334,6.483333333333333,
NL,BOX,Boxmeer,Boxmeer,,AF,--3-----,,51.6486483,5.9450972,true
NL,BXT,Boxtel,Boxtel,,AF,--3-----,,51.5883055,5.3247837,true
NL,BMT,Braamt,Braamt,GE,RL,--3-----,,51.916666666666664,6.266666666666667,
NL,BRK,Brakel,Brakel,,AF,--3-----,,51.8172979,5.0914074,true
NL,BTG,Brantgum,Brantgum,FR,RL,--3-----,,53.35,5.933333333333334,
NL,BRD,Breda,Breda,NB,AF,123-----,GLZ,51.56666666666667,4.8,
NL,BDV,Bredevoort,Bredevoort,GE,RL,--3-----,,51.95,-6.616666666666667,
NL,BRZ,Breezand,Breezand,,AF,--3-----,,52.8884022,4.8029941,true
NL,BRS,Breskens,Breskens,,AF,1-3-----,,51.38333333333333,3.5666666666666664,
NL,RUK,Breukelen,Breukelen,,AF,1-3-----,,52.171959,5.002675,true
NL,BRI,Brielle,Brielle,,AF,1-3-----,,51.901662,4.1626292,true
NL,BRT,Britsum,Britsum,FR,RL,-2---6--,,53.25,5.783333333333333,
NL,BIW,Broek in Waterland,Broek in Waterland,,AF,--3-----,,52.4331998,4.9977184,true
NL,BRL,Broek op Langedijk,Broek op Langedijk,,AF,--3-----,,52.675121,4.8031094,true
NL,BRH,Broekhuizenvorst,Broekhuizenvorst,LI,RQ,-----6--,,51.483333333333334,6.15,
NL,BCK,Bronckhorst,Bronckhorst,GE,RL,--3-----,,52.05,6.3,
NL,BRO,Brouwershaven,Brouwershaven,,AF,1-------,,51.7256011,3.9125451,true
NL,BRU,Bruchem,Bruchem,,AF,--3-----,,51.7871821,5.2363614,true
NL,BSE,Bruinisse,Bruinisse,,AF,1-3-----,,51.6622699,4.09594,true
NL,BRM,Brummen,Brummen,,AF,1-3-----,,52.087327,6.1568633,true
NL,BRN,Brunssum,Brunssum,,AF,--3-----,,50.9431108,5.9705675,true
NL,BUD,Budel,Budel,,AI,1--4----,,51.2555751,5.60097274220535,true
NL,BDD,Budel-Dorplain,Budel-Dorplain,,RL,-23-----,,51.233333333333334,5.566666666666666,
NL,BNU,Buggenum,Buggenum,LI,RN,1-3-----,,51.233333333333334,5.983333333333333,
NL,BKA,Buitenkaag,Buitenkaag,ZH,RL,--3-----,,52.21666666666667,4.566666666666666,
NL,BUI,Buitenpost,Buitenpost,FR,RL,-----6--,,53.25,6.15,
NL,BNE,Bunde,Bunde,LI,RN,123-----,,50.88333333333333,5.733333333333333,
NL,BUK,Bunnik,Bunnik,,AF,--3-----,,52.0663713,5.1940676,true
NL,BNK,Bunnink,Bunnink,,AF,--3-----,,,,
NL,BUN,Bunschoten,Bunschoten,,AF,1-3-----,,52.2391743,5.3734101,true
NL,BSB,Bunschoten-Spakenburg,Bunschoten-Spakenburg,UT,RQ,-----6--,,52.233333333333334,5.366666666666666,
NL,BUR,Buren,Buren,GE,RQ,--3-----,,51.9,5.333333333333333,
NL,BGG,Burgerbrug,Burgerbrug,NH,RL,--3-----,,52.75,4.7,
NL,BVG,Burgervlotbrug,Burgervlotbrug,NH,RN,1-3-----,,52.75,4.683333333333334,
NL,BMS,Burgh Haamstede,Burgh Haamstede,ZE,RQ,-----6--,,51.7,3.7333333333333334,
NL,BHS,Burghsluis,Burghsluis,ZE,RL,1-------,,51.68333333333333,3.75,
NL,BWE,Burgwerd,Burgwerd,FR,RN,1-3-----,,53.083333333333336,5.55,
NL,BUU,Burum,Burum,FR,RL,--3-----,,53.266666666666666,6.233333333333333,
NL,SSO,Bussloo,Bussloo,GE,RL,1----6--,,52.2,6.133333333333334,
NL,BSS,Bussum,Bussum,,AF,--3-----,,52.2773656,5.1630646,true
NL,CDK,Cadier En Keer,Cadier En Keer,LI,RL,--3-----,,50.833333333333336,5.766666666666667,
NL,CZD,Cadzand,Cadzand,ZE,RQ,1-3-----,,51.36666666666667,3.4,
NL,CTO,Callantsoog,Callantsoog,NH,RQ,--3-----,,52.833333333333336,4.7,
NL,CPD,Camperduin,Camperduin,NH,RL,1-3-----,,52.75,4.65,
NL,CAP,Capelle,Capelle,,AF,--3-----,,51.6918045,4.9855445,true
NL,CPI,Capelle aan den IJssel,Capelle aan den IJssel,,AF,1-------,,51.9312552,4.5883596,true
NL,CSY,Castenray,Castenray,LI,RL,--3-----,,51.483333333333334,6.033333333333333,
NL,CAS,Castricum,Castricum,,AF,--3-----,,52.558830549999996,4.639675526200153,true
NL,CAA,Chaam,Chaam,NB,RL,-----6--,,51.5,4.866666666666667,
NL,CLI,Clinge,Clinge,ZE,AA,--3-----,,51.46666666666667,4.166666666666667,
NL,COE,Coevorden,Coevorden,,AF,123-----,,52.65266925,6.739318988174109,true
NL,COL,Colijnsplaat,Colijnsplaat,ZE,RL,--3-----,,51.6,3.85,
NL,CHJ,Colmschate,Colmschate,OV,RL,--3-----,,52.25,6.216666666666667,
NL,COT,Cothen,Cothen,,AF,--3-----,,51.9987415,5.3118293,true
NL,CRK,Cranendonck,Cranendonck,NB,RL,--3-----,,51.3,5.583333333333333,
NL,CRI,Creil,Creil,FL,RN,123-----,,52.766666666666666,5.666666666666667,
NL,CIJ,Cromstrijen,Cromstrijen,ZH,RL,--3-----,,51.733333333333334,4.433333333333334,
NL,CRU,Cruquius,Cruquius,,AF,--3-----,,52.3364776,4.6367765,true
NL,CUY,Cuijk,Cuijk,NB,AF,--3-----,,51.733333333333334,5.883333333333333,
NL,CUB,Culemborg,Culemborg,,AF,1-3-----,,51.94933145,5.209215154667634,true
NL,TRE,Dalen,Dalen,DR,RL,--3-----,,52.7,6.75,
NL,DAL,Dalfsen,Dalfsen,,AF,--3-----,,52.5111721,6.253911,true
NL,DAM,Damwï¿½ld,Damwald,FR,RL,--3-----,,53.28333333333333,5.983333333333333,
NL,DTU,Dantumadeel,Dantumadeel,FR,RL,--3-----,,53.28333333333333,6,
NL,DBI,De Bilt,De Bilt,,AF,--3-----,,52.1097009,5.178706,true
NL,BLS,De Blesse,De Blesse,FR,RL,--3-----,,52.833333333333336,6.5,
NL,DBT,De Bult,De Bult,OV,RL,--3-----,,52.81666666666667,6.133333333333334,
NL,CDP,De Cocksdorp,De Cocksdorp,NH,RL,1-3-----,,53.15,4.883333333333333,
NL,DFM,De Fryske Marren,De Fryske Marren,FR,RL,--3-----,,52.96666666666667,5.783333333333333,
NL,ZAM,De Glind,De Glind,GE,RL,-----6--,,52.11666666666667,5.533333333333333,
NL,OOR,De Goorn,De Goorn,NH,RL,--3-----,,52.63333333333333,4.95,
NL,DHA,De Hare,De Hare,OV,RN,--3-----,,52.81666666666667,5.983333333333333,
NL,DHK,De Haukes,De Haukes,NH,RN,1-3-----,,52.88333333333333,4.933333333333334,
NL,DHE,De Heen,De Heen,NB,RN,1-3-----,,51.61666666666667,4.266666666666667,
NL,EUG,De Heurne,De Heurne,GE,RL,--3-----,,51.88333333333333,6.5,
NL,DEH,De Hoef,De Hoef,UT,RL,-----6--,,52.2,4.833333333333333,
NL,DKP,De Kempen,De Kempen,,AF,--3-----,,51.24411395,5.657233957182536,true
NL,DKL,De Klomp,De Klomp,GE,RQ,--3-----,,52.05,5.583333333333333,
NL,DKO,De Kooy,De Kooy,NH,RN,1-3-----,,52.916666666666664,4.8,
NL,DKR,De Krim,De Krim,,AF,--3-----,,52.6507384,6.6185617,true
NL,DKW,De Kwakel,De Kwakel,,AF,--3-----,,52.2388539,4.7932514,true
NL,DLR,De Lier,De Lier,,AF,--3-----,,51.9751843,4.2471322,true
NL,DLU,De Lutte,De Lutte,,RL,--3-----,,52.3143672,6.9905783,true
NL,DMA,De Marne,De Marne,GR,RL,--3-----,,53.36666666666667,6.383333333333334,
NL,DEM,De Meern,De Meern,,AF,--3-----,,52.0811781,5.0363571,true
NL,DM9,De Moer,De Moer,NB,RL,--3-----,,51.61666666666667,5,
NL,DPO,De Pol,De Pol,DR,RN,--3-----,,53.13333333333333,6.516666666666667,
NL,DPS,De Poppe,De Poppe,OV,AF,-23-----,,52.31666666666667,7.016666666666667,
NL,DRP,De Rijp,De Rijp,NH,RN,1-3-----,,52.56666666666667,4.85,
NL,RIP,De Rips,De Rips,NB,RL,--3-----,,51.55,5.8,
NL,RVE,De Ronde Venen,De Ronde Venen,UT,RL,--3-----,,52.2,4.866666666666667,
NL,RUY,de Ruyter,de Ruyter,,RQ,------7-,,52.3,4.05,
NL,DSG,De Steeg,De Steeg,GE,RN,-23-----,,52.016666666666666,6.05,
NL,DSO,De Strook,De Strook,NH,RN,1-3-----,,52.78333333333333,4.9,
NL,DEA,de Waal,de Waal,NH,RL,--3-----,,53.06666666666667,4.816666666666666,
NL,DWS,De Westereen,De Westereen,FR,RL,--3-----,,53.25,6.033333333333333,
NL,DWK,De Wijk,De Wijk,DR,RN,--3-----,,52.666666666666664,6.283333333333333,
NL,DWG,De Wilgen,De Wilgen,FR,RL,--3-----,,53.1,6.033333333333333,
NL,DEW,De Wilp,De Wilp,,AF,--3-----,,53.1183148,6.2544278,true
NL,WOD,De Wolden,De Wolden,DR,RL,--3-----,,52.666666666666664,6.433333333333334,
NL,DZK,De Zilk,De Zilk,,AF,--3-----,,52.3023715,4.543193,true
NL,DED,Dedemsvaart,Dedemsvaart,,AF,--3-----,,52.5996262,6.4593207,true
NL,DST,Deest,Deest,GE,RL,1-3-----,,51.88333333333333,5.666666666666667,
NL,DLL,Deil,Deil,GE,RL,--3-----,,51.88333333333333,5.25,
NL,DEL,Delden,Delden,OV,RL,123-----,,52.266666666666666,6.716666666666667,
NL,DGW,Delfgauw,Delfgauw,,AF,--3-----,,52.0095838,4.3956354,true
NL,DFT,Delft,Delft,,AF,123-----,,51.999457199999995,4.362724538543995,true
NL,DZL,Delfzijl,Delfzijl,,AF,123-----,,52.516666666666666,6.933333333333334,
NL,DMK,Demmerik,Demmerik,UT,RN,123-----,,52.2,4.933333333333334,
NL,DBM,Den Bommel,Den Bommel,,RL,1-3-----,,51.7170642,4.280785,true
NL,DBG,Den Burg,Den Burg,,RL,--3-----,,53.03333333333333,4.783333333333333,
NL,DDO,Den Dolder,Den Dolder,,AF,--3-----,,52.1413382,5.2391461,true
NL,DH2,Den Ham,Den Ham,OV,RL,--3-----,,52.46666666666667,6.5,
NL,DHM,Den Ham,Den Ham,GR,RQ,--3-----,,53.266666666666666,6.416666666666667,
NL,DHR,Den Helder,Den Helder,,AF,123-----,,52.95,4.766666666666667,
NL,DHO,Den Hool,Den Hool,DR,RN,1-3-----,,52.71666666666667,6.783333333333333,
NL,DHN,Den Hoorn,Den Hoorn,,AF,--3-----,,53.025316,4.7527063,true
NL,DTK,"""Den Hoorn"," Texel""","""Den Hoorn"," Texel""",,--3-----,53.025316,4.7527063,true
NL,NB4,Den Hout,Den Hout,NB,RL,--3-----,,51.65,4.816666666666666,
NL,DIL,Den Lip,Den Lip,NH,RL,-----6--,,52.45,4.916666666666667,
NL,DEN,Denekamp,Denekamp,OV,AF,--3-----,,52.38333333333333,6.983333333333333,
NL,DEU,Deurne,Deurne,NB,AF,--3-----,,51.46666666666667,5.8,
NL,AZQ,Deurningen,Deurningen,OV,RL,--3-----,,52.3,6.833333333333333,
NL,DEV,Deventer,Deventer,,AF,123-----,QYV,52.2694897,6.236488550662333,true
NL,DDM,Didam,Didam,,AF,--3-----,,51.937228,6.1275981,true
NL,DIM,Diemen,Diemen,,AF,--3-----,,52.3350493,4.984282926187014,true
NL,DPH,Diepenheim,Diepenheim,OV,RN,--3-----,,52.2,6.55,
NL,DIR,Dieren,Dieren,,AF,--3-----,,52.0526703,6.1014431,true
NL,DSE,Diessen,Diessen,NB,RL,--3-----,,51.46666666666667,5.166666666666667,
NL,DIE,Diever,Diever,,AF,--3-----,,52.8546576,6.3182659,true
NL,DVB,Dieverbrug,Dieverbrug,DR,RN,1-3-----,,52.85,6.333333333333333,
NL,DKS,Dijkshorne,Dijkshorne,FR,RN,--3-----,,53.35,6.133333333333334,
NL,IKL,Dinkelland,Dinkelland,OV,RL,--3-----,,52.36666666666667,7,
NL,DIN,Dinteloord,Dinteloord,,AF,--3-----,,51.6339484,4.3680313,true
NL,DXP,Dinxperlo,Dinxperlo,,AF,--3-----,,51.863757,6.4879872,true
NL,DIK,Dirkshorn,Dirkshorn,NH,RL,--3-----,,52.75,4.783333333333333,
NL,DRK,Dirksland,Dirksland,,AF,--3-----,,51.7480583,4.10147,true
NL,DWA,Dodewaard,Dodewaard,,RL,123--6--,,51.916666666666664,5.65,
NL,DRE,Doenrade,Doenrade,LI,RL,--3-----,,50.96666666666667,5.9,
NL,DOE,Doesburg,Doesburg,,AF,1-3-----,,52.018750499999996,6.151558274308546,true
NL,DOI,Doetinchem,Doetinchem,,AF,1-3-----,,51.9655192,6.2891093,true
NL,DOK,Dokkum,Dokkum,,AF,1-------,,53.3243515,5.9992306,true
NL,DBR,Domburg,Domburg,ZE,RL,123-----,,51.56666666666667,3.5,
NL,DMM,Dommelen,Dommelen,NB,RL,--3-----,,51.35,5.433333333333334,
NL,DON,Dongen,Dongen,,AF,1-3-----,,51.6247509,4.9368837,true
NL,DDE,Dongeradeel,Dongeradeel,FR,RL,--3-----,,53.333333333333336,6,
NL,DNU,Dongjum,Dongjum,FR,RN,--3-----,,53.21666666666667,5.55,
NL,DNO,Donkerbroek,Donkerbroek,FR,RN,--3-----,,53.016666666666666,6.233333333333333,
NL,DSI,Doodstil,Doodstil,GR,RN,1-3-----,,53.4,6.666666666666667,
NL,DOO,Doorn,Doorn,,AF,--3-----,,52.0333163,5.3455956,true
NL,CGH,Doornenburg,Doornenburg,GE,RL,--3-----,,51.88333333333333,6,
NL,DOS,Doornspijk,Doornspijk,GE,RL,--3-----,,52.416666666666664,5.816666666666666,
NL,DOW,Doorwerth,Doorwerth,GE,RL,--3--6--,,51.96666666666667,5.8,
NL,DOR,Dordrecht,Dordrecht,,AF,123-----,,51.78333333333333,4.633333333333333,
NL,DRS,Dorst,Dorst,NB,RQ,--3--6--,,41.583333333333336,4.85,
NL,DRA,Drachten,Drachten,,AF,--34----,QYC,53.1179892,6.127876078635701,true
NL,ND5,Dreischor,Dreischor,ZE,RL,1----6--,,51.68333333333333,3.9833333333333334,
NL,DPT,Drempt,Drempt,GE,RL,-----6--,,52,6.166666666666667,
NL,DUM,Dreumel,Dreumel,,RL,1-3-----,,51.85,5.433333333333334,
NL,DRI,Driebergen,Driebergen,,AF,--3-----,,52.054122,5.269539,true
NL,DRB,Driebergen-Rijsenburg,Driebergen-Rijsenburg,UT,RQ,-----6--,,52.05,5.283333333333333,
NL,DB2,Drieborg,Drieborg,GR,RL,--3-----,,53.2,7.183333333333334,
NL,DBU,Driebruggen,Driebruggen,ZH,RN,--3-----,,52.05,4.8,
NL,DRL,Driel,Driel,GE,RN,1-3-----,,51.96666666666667,5.816666666666666,
NL,DSM,Driesum,Driesum,FR,RN,1-3-----,,53.3,6.05,
NL,D8Z,Driewegen,Driewegen,ZE,RL,--3-----,,51.416666666666664,3.8,
NL,DRM,Drimmelen,Drimmelen,NB,RL,--3-----,,51.7,4.783333333333333,
NL,DNR,Dronrijp,Dronrijp,FR,RN,--3-----,,53.2,5.65,
NL,DRO,Dronten,Dronten,,AF,1-3-----,,52.5236608,5.7160381,true
NL,DRN,Drunen,Drunen,,AF,--3-----,,51.6862832,5.130986,true
NL,DRU,Druten,Druten,,AF,--3-----,,51.88473605,5.600426136616262,true
NL,DUI,Duiven,Duiven,,AF,--3-----,,51.9495859,6.024594,true
NL,DVT,Duivendrecht,Duivendrecht,NH,RN,123-----,,52.333333333333336,4.916666666666667,
NL,DUZ,Duizel,Duizel,,AF,--3-----,,51.369895,5.2996185,true
NL,DUG,Dukenburg,Dukenburg,GE,RN,123-----,,51.81666666666667,5.8,
NL,DUS,Dussen,Dussen,NB,RL,--3-----,,51.733333333333334,5,
NL,DWI,Dwingeloo,Dwingeloo,DR,RL,--3-----,,52.833333333333336,6.366666666666666,
NL,ECH,Echt,Echt,,AF,--3-----,,51.1073016,5.8719765,true
NL,ECD,Echteld,Echteld,,AF,1-------,,51.9093134,5.4989961,true
NL,ETN,Echten,Echten,DR,RL,--3-----,,52.71666666666667,6.4,
NL,EHU,Echtenerbrug,Echtenerbrug,FR,RN,1-3-----,,52.86666666666667,5.816666666666666,
NL,ESU,Echt-Susteren,Echt-Susteren,LI,RL,--3-----,,51.1,5.866666666666667,
NL,EWI,Eck en Wiel,Eck en Wiel,GE,RL,--3-----,,51.95,5.433333333333334,
NL,ECK,Eckelrade,Eckelrade,LI,RL,--3-----,,50.8,5.766666666666667,
NL,EDM,Edam,Edam,,AF,1-3-----,,52.5119116,5.0562845,true
NL,EVO,Edam-Volendam,Edam-Volendam,NH,RL,--3-----,,52.5,5.05,
NL,EDE,Ede,Ede,,AF,-23-----,,52.0458265,5.6702011,true
NL,EVN,Ederveen,Ederveen,GE,RL,--3-----,,52.06666666666667,5.583333333333333,
NL,EED,Eede,Eede,,AF,--3-----,,51.2469881,3.4433794,true
NL,EFE,Eefde,Eefde,GE,RN,123-----,,52.166666666666664,6.233333333333333,
NL,LDE,Eelde,Eelde,GR,RL,--3-----,,53.13333333333333,6.55,
NL,EEL,Eelde-Paterswolde,Eelde-Paterswolde,,RL,--3-----,,53.13333333333333,6.566666666666666,
NL,EJK,Eemdijk,Eemdijk,UT,RL,--3-----,,52.25,5.333333333333333,
NL,EES,Eemnes,Eemnes,,RL,--3-----,,52.25,5.25,
NL,EEM,Eemshaven,Eemshaven,,AF,123-----,,53.436897349999995,6.868796322660889,true
NL,EMO,Eemsmond,Eemsmond,GR,RL,--3-----,,53.4,6.666666666666667,
NL,EEN,Eenrum,Eenrum,,AF,--3-----,,53.3640205,6.4608005,true
NL,EEE,Eerbeek,Eerbeek,,AF,--3-----,,52.1050018,6.0662773,true
NL,EWO,Eernewoude,Eernewoude,FR,RN,1-3-----,,53.13333333333333,5.933333333333334,
NL,QCT,Eersel,Eersel,,AF,--3-----,,51.3586373,5.3201315,true
NL,EGL,Egchel,Egchel,,AF,--3-----,,51.3126324,5.9704733,true
NL,EAD,Egmond aan den Hoef,Egmond aan den Hoef,NH,RL,--3-----,,52.61666666666667,4.65,
NL,EAZ,Egmond aan Zee,Egmond aan Zee,,AF,--3-----,,52.6183093,4.6256307,true
NL,EDB,Egmond-Binnen,Egmond-Binnen,NH,RL,--3-----,,52.6,4.65,
NL,EIB,Eibergen,Eibergen,,AF,--3-----,,52.1032685,6.6511683,true
NL,EYS,Eijsden,Eijsden,,AF,--3-----,,50.7782686,5.7075337,true
NL,EIJ,Eijsden-Margraten,Eijsden-Margraten,LI,RL,--3-----,,50.78333333333333,5.7,
NL,EIN,Eindhoven,Eindhoven,NB,AF,1234----,,51.45,5.466666666666667,
NL,EKK,Ekkersrijt,Ekkersrijt,NB,RL,1-3-----,,51.5,5.466666666666667,
NL,ELA,Elahuizen,Elahuizen,FR,RL,--3-----,,52.93333333333333,5.533333333333333,
NL,ELB,Elburg,Elburg,,AF,1-3-----,,52.4449771,5.8403894,true
NL,EDN,Elden,Elden,GE,RL,--3--6--,,51.96666666666667,5.883333333333333,
NL,ELX,Ell,Ell,LI,RN,1-3-----,,51.21666666666667,5.8,
NL,ELL,Ellecom,Ellecom,,AF,--3-----,,52.0320242,6.0860127,true
NL,EET,Ellemeet,Ellemeet,ZE,RL,--3-----,,51.733333333333334,3.8166666666666664,
NL,ELZ,Ellerhuizen,Ellerhuizen,GR,RN,--3-----,,53.28333333333333,6.616666666666667,
NL,ELS,Elsendorp,Elsendorp,,RL,--3-----,,51.583333333333336,5.766666666666667,
NL,BBT,Elshout,Elshout,NB,RL,--3-----,,51.7,5.133333333333334,
NL,ELO,Elsloo,Elsloo,LI,RL,--3-----,,50.95,5.766666666666667,
NL,ELT,Elspeet,Elspeet,GE,RL,--3-----,,52.28333333333333,5.783333333333333,
NL,QCU,Elst,Elst,,AF,1-3-----,,51.916666666666664,5.85,
NL,EML,Emmeloord,Emmeloord,,AF,--3-----,,52.7087448,5.7466367,true
NL,EMM,Emmen,Emmen,,AF,-23-----,,52.75286615,6.952513466208563,true
NL,EMC,Emmer-Compascuum,Emmer-Compascuum,,AF,--3-----,,52.8115315,7.046206,true
NL,EME,Emmer-Erfscheidenveen,Emmer-Erfscheidenveen,DR,AF,--3-----,,52.81666666666667,6.983333333333333,
NL,EMP,Empe,Empe,GE,RL,--3-----,,52.15,6.15,
NL,EPL,Empel,Empel,NB,RN,1-3-----,,51.733333333333334,5.333333333333333,
NL,ZAO,Emst,Emst,GE,RL,-----6--,,52.31666666666667,5.983333333333333,
NL,EGM,Engelum,Engelum,FR,RL,--3-----,,53.233333333333334,5.716666666666667,
NL,ENG,Engwierum,Engwierum,,AF,--3-----,,53.3212483,6.1356872,true
NL,ENK,Enkhuizen,Enkhuizen,,AF,1-3-----,,52.7036282,5.2901222,true
NL,ENX,Ens,Ens,,AF,--3-----,,52.6366994,5.8269247,true
NL,ENS,Enschede,Enschede,,AF,1234----,,52.27647,6.886697053199826,true
NL,ENP,Enspijk,Enspijk,,AF,--3-----,,51.8837507,5.2129943,true
NL,ENT,Enter,Enter,OV,RL,--3--6--,,52.3,6.583333333333333,
NL,EPE,Epe,Epe,,AF,--3-----,,52.3484545,5.9836383,true
NL,EPN,Epen,Epen,,AF,--3-----,,50.7766712,5.912373,true
NL,EPS,Epse,Epse,GE,RL,--3-----,,52.21666666666667,6.2,
NL,ERI,Eric,Eric,,RL,--3-----,,,,
NL,ERA,Erica,Erica,DR,RN,1-3-----,,52.71666666666667,6.933333333333334,
NL,ERM,Ermelo,Ermelo,,AF,--3-----,,52.300088,5.6231259,true
NL,ERP,Erp,Erp,,AF,--3-----,,51.6004767,5.6064592,true
NL,ESB,Esbeek,Esbeek,NB,RQ,-----6--,,51.78333333333333,5.133333333333334,
NL,ESP,Espel,Espel,,AF,--3-----,,52.7234688,5.6438935,true
NL,SET,Est,Est,GE,RQ,--3-----,,51.85,5.316666666666666,
NL,ET2,Etten,Etten,GE,RL,--3-----,,51.916666666666664,6.333333333333333,
NL,ETT,Etten Leur,Etten Leur,NB,AF,--3--6--,,51.56666666666667,4.666666666666667,
NL,EUR,Europoort,Europoort,,AI,123-----,,51.923061,4.189338,true
NL,EVD,Everdingen,Everdingen,ZH,RL,--3-----,,51.96666666666667,5.15,
NL,ANK,Everingen,Everingen,ZE,RL,1-------,,51.4,3.75,
NL,EVG,Everingen,Everingen,ZE,RL,--3-----,,51.38333333333333,3.783333333333333,
NL,EWK,Ewijk,Ewijk,GE,RN,1-3-----,,51.86666666666667,5.733333333333333,
NL,EXZ,Exmorrazijl,Exmorrazijl,FR,RN,1-3-----,,53.06666666666667,5.466666666666667,
NL,EYL,Eygelshoven,Eygelshoven,LI,RL,--3--6--,,50.9,6.05,
NL,EZI,Ezinge,Ezinge,GR,RL,--3-----,,53.31666666666667,6.45,
NL,FAR,Farmsum,Farmsum,,AF,1-3-----,,53.3226566,6.9286233,true
NL,FEE,Feerwerd,Feerwerd,,AF,--3-----,,53.3056571,6.4656801,true
NL,FWR,Ferwerd,Ferwerd,FR,RL,--3-----,,53.333333333333336,5.833333333333333,
NL,FWD,Ferwerderadeel,Ferwerderadeel,FR,RL,--3-----,,53.333333333333336,5.833333333333333,
NL,FFJ,Fijnaart,Fijnaart,,AF,--3-----,,51.6352829,4.4673134,true
NL,FIN,Finsterwolde,Finsterwolde,GR,RL,--3-----,,53.2,7.083333333333333,
NL,FGM,Firdgum,Firdgum,FR,RL,--3-----,,53.25,5.566666666666666,
NL,FLE,Fleringen,Fleringen,OV,RL,--3-----,,52.38333333333333,6.8,
NL,DFG,Fluitenberg,Fluitenberg,DR,RQ,-----6--,,52.733333333333334,63.166666666666664,
NL,FJA,Fonejacht,Fonejacht,FR,RQ,1-3-----,,,,
NL,FOR,Formerum,Formerum,FR,RQ,-----6--,,52.38333333333333,5.3,
NL,FOX,Foxhol,Foxhol,,AF,1-3-----,,53.1671992,6.7211866,true
NL,FKP,Fraamklap,Fraamklap,GR,RN,1-3-----,,53.333333333333336,6.633333333333333,
NL,FRK,Franeker,Franeker,,AF,--3-----,,53.1880505,5.5409648,true
NL,FKD,Franekeradeel,Franekeradeel,FR,RL,--3-----,,53.18333333333333,5.533333333333333,
NL,AAN,Gaanderen,Gaanderen,GE,RL,--3-----,,51.93333333333333,6.35,
NL,GKN,Gaarkeuken,Gaarkeuken,GR,RN,123-----,,53.25,6.316666666666666,
NL,GME,Gaastmeer,Gaastmeer,FR,RN,--3-----,,52.96666666666667,5.55,
NL,GAM,Gameren,Gameren,,AF,--3-----,,51.8000907,5.2057359,true
NL,GAR,Garderen,Garderen,,AF,--3-----,,52.2331839,5.714073,true
NL,GWO,Garmerwolde,Garmerwolde,GR,RN,1-3-----,,53.25,6.65,
NL,GRP,Garyp,Garyp,FR,RL,--3-----,,53.15,5.966666666666667,
NL,GAS,Gassel,Gassel,,AF,--3-----,,51.7404033,5.7805024,true
NL,GSS,Gasselternijveen,Gasselternijveen,DR,RL,1----6--,,52.983333333333334,60.85,
NL,GST,Gasteren,Gasteren,,AF,--3-----,,53.0365233,6.664137,true
NL,GTB,Geertruidenberg,Geertruidenberg,,AF,--3-----,,51.7008333,4.8611502,true
NL,GRV,Geervliet,Geervliet,,AF,--3-----,,51.8602806,4.2590568,true
NL,GSB,Geesbrug,Geesbrug,DR,AF,--3-----,,52.733333333333334,6.633333333333333,
NL,GES,Geesteren,Geesteren,OV,RQ,-----6--,,52.416666666666664,6.733333333333333,
NL,GWU,Geeuwenbrug,Geeuwenbrug,DR,RN,1-3-----,,52.86666666666667,6.366666666666666,
NL,GFN,Geffen,Geffen,NB,RL,--3-----,,51.733333333333334,5.466666666666667,
NL,GDM,Geldermalsen,Geldermalsen,,AF,1-3-----,,51.879931,5.2876361,true
NL,GLD,Geldrop,Geldrop,,AF,--3-----,,51.4226684,5.5607546,true
NL,GOM,Geldrop-Mierlo,Geldrop-Mierlo,NB,RL,--3-----,,51.416666666666664,5.566666666666666,
NL,GEE,Geleen,Geleen,,AF,--3-----,,50.9673322,5.8277007,true
NL,GEC,Gellicum,Gellicum,,AF,--3-----,,51.8777048,5.154988,true
NL,GEM,Gemert,Gemert,,AF,--3-----,,51.5589833,5.6864592,true
NL,GBA,Gemert-Bakel,Gemert-Bakel,NB,RL,--3-----,,51.55,5.683333333333334,
NL,GMD,Gemonde,Gemonde,NH,RL,-----6--,,51.61666666666667,5.35,
NL,GND,Genderen,Genderen,,AF,--3-----,,51.7359968,5.0889547,true
NL,GGN,Gendringen,Gendringen,,RQ,--3-----,,51.8722058,6.3750059,true
NL,GET,Gendt,Gendt,GE,RL,1-3-----,,51.88333333333333,5.966666666666667,
NL,GNM,Genemuiden,Genemuiden,,AF,--3-----,,52.6228834,6.0424311,true
NL,GEN,Gennep,Gennep,,AF,--3-----,,51.700959999999995,5.9678631520832495,true
NL,GLL,Geulle,Geulle,LI,RN,123-----,,50.916666666666664,5.733333333333333,
NL,GIB,Giesbeek,Giesbeek,,AF,--3-----,,51.9969828,6.0703053,true
NL,GIS,Giessen,Giessen,,AF,--3-----,,51.7910191,5.0318616,true
NL,GSM,Giessendam,Giessendam,,RQ,--3-----,,51.8297356,4.8435197,true
NL,GIE,Giessenlanden,Giessenlanden,ZH,RL,--3-----,,51.88333333333333,4.95,
NL,GTN,Gieten,Gieten,DR,RL,-----6--,,53.166666666666664,65,
NL,GHO,Giethoorn,Giethoorn,OV,RN,1-3-----,,52.733333333333334,6.066666666666666,
NL,GZE,Gilze,Gilze,,AF,--3-----,,51.5416528,4.9443857,true
NL,GIZ,Gilze En Rijen,Gilze En Rijen,NB,RL,--3-----,,51.583333333333336,4.916666666666667,
NL,GZR,Gilzerijen,Gilzerijen,,RQ,--3-----,,,,
NL,GLA,Glanerbrug,Glanerbrug,,AF,--3-----,,52.2155505,6.9701111,true
NL,GDR,Goedereede,Goedereede,,AF,1-------,,51.8181316,3.9776752,true
NL,GOF,Goeree-Overflakkee,Goeree-Overflakkee,ZH,RL,--3-----,,51.75,4.166666666666667,
NL,GOE,Goes,Goes,,AF,1-3-----,,51.51645295,3.8550722273550484,true
NL,GOJ,Goingarijp,Goingarijp,FR,RN,--3-----,,53.016666666666666,5.766666666666667,
NL,GOI,Goirle,Goirle,,AF,--3-----,,51.5231816,5.0660312,true
NL,GOO,Goor,Goor,,AF,1-3-----,,52.2321562,6.5809004,true
NL,GOR,Gorinchem,Gorinchem,,AF,123-----,,51.8421872,4.974600467260094,true
NL,DJJ,Gorredijk,Gorredijk,FR,RL,--3-----,,53,6.066666666666666,
NL,ESL,Gorssel,Gorssel,GE,RL,--3-----,,52.2,6.2,
NL,GOU,Gouda,Gouda,,AF,123-----,,52.018119350000006,4.711122134697802,true
NL,GDK,Gouderak,Gouderak,,RQ,--3-----,,51.9850806,4.6755692,true
NL,GUN,Goudriaan,Goudriaan,ZH,RL,1-3-----,,51.9,4.9,
NL,GOW,Goudswaard,Goudswaard,,AF,--3-----,,51.7935773,4.2793089,true
NL,GBG,Gramsbergen,Gramsbergen,OV,RN,123-----,,52.61666666666667,6.683333333333334,
NL,GHK,Grashoek,Grashoek,LI,RL,-----6--,,51.36666666666667,5.95,
NL,GAV,Grave,Grave,NB,RQ,--3-----,,51.75,5.733333333333333,
NL,GBC,Grevenbicht,Grevenbicht,,AF,--3-----,,51.0407469,5.7727611,true
NL,GRI,Grijpskerk,Grijpskerk,GR,AM,-23-----,,53.266666666666666,6.3,
NL,GRD,Groede,Groede,ZE,RL,-23-5-7-,,51.38333333333333,3.5,
NL,GNK,Groenekan,Groenekan,UT,RL,-23-----,,52.11666666666667,5.15,
NL,GRK,Groenendijk,Groenendijk,,AF,1-3-----,,52.13333333333333,4.566666666666666,
NL,GRW,Groeneweg,Groeneweg,ZH,RN,1-3-----,,51.983333333333334,4.6,
NL,GWD,Groenewoud,Groenewoud,NB,RN,1-3-----,,51.516666666666666,5.616666666666667,
NL,GRN,Groenlo,Groenlo,,AF,--3-----,,52.0425903,6.6170412,true
NL,ZAT,Groesbeek,Groesbeek,GE,RL,-----6--,,51.78333333333333,5.933333333333334,
NL,GRS,Groessen,Groessen,,AF,--3-----,,51.9320005,6.0289483,true
NL,GRQ,Groningen,Groningen,,AF,1234----,,53.2096623,6.5727542209199195,true
NL,ELD,Gronsveld,Gronsveld,LI,RL,--3-----,,50.81666666666667,5.733333333333333,
NL,GDO,Groot Dochteren,Groot Dochteren,GE,RN,123-----,,52.166666666666664,6.366666666666666,
NL,GRO,Groot-Ammers,Groot-Ammers,ZH,AF,--3--6--,,51.916666666666664,4.816666666666666,
NL,GOK,Grootebroek,Grootebroek,,RL,--3-----,,52.68333333333333,5.216666666666667,
NL,GTG,Grootegast,Grootegast,GR,RL,--3-----,,53.21666666666667,6.283333333333333,
NL,GRU,Grouw,Grouw,FR,RQ,--3-----,,53.1,5.833333333333333,
NL,GBV,Grubbenvorst,Grubbenvorst,,AF,--3-----,,51.4195305,6.1484221,true
NL,GPN,Gulpen,Gulpen,LI,RL,--3-----,,50.81666666666667,5.9,
NL,GJK,Gytsjerk,Gytsjerk,FR,RL,--3-----,,53.233333333333334,5.883333333333333,
NL,HFN,Haaften,Haaften,,RL,1-3-----,,51.81666666666667,5.216666666666667,
NL,HGG,Haag,Haag,LI,RL,--3-----,,51.516666666666666,5.916666666666667,
NL,HKH,Haaksbergen,Haaksbergen,,AF,--3-----,,52.1564581,6.740239,true
NL,HBK,Haaldersbroek,Haaldersbroek,NH,RN,1-3-----,,52.483333333333334,4.833333333333333,
NL,HRA,Haaren,Haaren,NB,RL,--3-----,,51.6,5.233333333333333,
NL,HAA,Haarlem,Haarlem,,AF,123-----,,52.383705750000004,4.643559696559635,true
NL,HLR,Haarlemmerliede,Haarlemmerliede,NH,RN,123-----,,52.38333333333333,4.683333333333334,
NL,HMM,Haarlemmermeer,Haarlemmermeer,NH,RL,--3-----,,52,4,
NL,ARL,Haarlo,Haarlo,GE,RL,--3-----,,52.18333333333333,6.933333333333334,
NL,HSE,Haarsteeg,Haarsteeg,NB,RL,--3-----,,51.71666666666667,5.2,
NL,HZS,Haarzuilens,Haarzuilens,UT,RQ,-----6--,,52.11666666666667,5,
NL,HCH,Haastrecht,Haastrecht,,AF,--3-----,,52.002042700000004,4.782095380737957,true
NL,HAE,Haelen,Haelen,,AF,1-3-----,,51.236691,5.9539366,true
NL,HSN,Hagestein,Hagestein,ZH,RN,--3-----,,51.983333333333334,5.116666666666666,
NL,HST,Haghorst,Haghorst,NB,RN,1-3-----,,51.5,5.216666666666667,
NL,HKG,Hakkelaarsbrug,Hakkelaarsbrug,NH,RN,-23-----,,52.31666666666667,5.1,
NL,HDB,Halderberge,Halderberge,NB,RL,--3-----,,51.583333333333336,4.533333333333333,
NL,HFW,Halfweg,Halfweg,,AF,--3-----,,53.2917087,6.2442631,true
NL,ALE,Halle,Halle,GE,RL,--3-----,,51.983333333333334,6.433333333333334,
NL,HLL,Hallum,Hallum,,AF,--3-----,,53.305006,5.7854458,true
NL,HAL,Halsteren,Halsteren,,AF,--3-----,,51.5230234,4.2729507,true
NL,HAD,Handel,Handel,NB,RQ,-----6--,,51.96666666666667,6.183333333333334,
NL,HNK,Hank,Hank,,AF,--3-----,,51.7360352,4.8986026,true
NL,HAN,Hansweert/Schore,Hansweert/Schore,,AF,1-3-----,,51.43333333333333,4,
NL,HAP,Hapert,Hapert,,AF,--3-----,,51.3709644,5.2518766,true
NL,HPS,Haps,Haps,NB,RL,--3-----,,51.68333333333333,5.866666666666667,
NL,HBH,Harbrinkhoek,Harbrinkhoek,OV,RL,--3-----,,52.38333333333333,6.716666666666667,
NL,HBG,Hardenberg,Hardenberg,,AF,1-3-----,,52.5754706,6.6188242,true
NL,HRD,Harderwijk,Harderwijk,,AF,1-3-----,,52.33599915,5.640271521392062,true
NL,HGS,Hardinxveld,Hardinxveld,ZH,RL,1-3-----,,51.81666666666667,4.866666666666667,
NL,HXG,Hardinxveld-Giessendam,Hardinxveld-Giessendam,ZH,RL,1-3-----,,51.81666666666667,4.833333333333333,
NL,HRE,Haren,Haren,GR,RN,1-3-----,,53.166666666666664,6.6,
NL,HAF,Harfsen,Harfsen,GE,RL,--3-----,,52.2,6.3,
NL,HKA,Harkema-Opeinde,Harkema-Opeinde,FR,RL,--3-----,,53.18333333333333,6.133333333333334,
NL,HAR,Harlingen,Harlingen,,AF,123-----,,53.18333333333333,5.433333333333334,
NL,HAM,Harmelen,Harmelen,,AF,--3-----,,52.0914501,4.9639631,true
NL,HVL,Harreveld,Harreveld,GE,RL,--3-----,,51.983333333333334,6.516666666666667,
NL,HSK,Harskamp,Harskamp,GE,RL,1----6--,,52.13333333333333,5.75,
NL,HKD,Haskerdijken,Haskerdijken,FR,RN,-23-----,,53,5.866666666666667,
NL,HKR,Haskerhorne,Haskerhorne,FR,RQ,-----6--,,52.95,5.816666666666666,
NL,HAS,Hasselt,Hasselt,,AF,--3-----,,52.5914949,6.0956717,true
NL,HTM,Hattem,Hattem,GE,RN,123-----,,52.46666666666667,6.066666666666666,
NL,HTK,Hattemerbroek,Hattemerbroek,,AF,--3-----,,52.4765252,6.0256402,true
NL,HAB,Haule,Haule,FR,RL,--3-----,,53.333333333333336,6.3,
NL,HAU,Haulerwijk,Haulerwijk,,AF,--3-----,,53.065367,6.3310325,true
NL,HVE,Havelte,Havelte,DR,RN,1-3-----,,52.766666666666666,6.25,
NL,HZK,Hazeldonk,Hazeldonk,NB,RL,123--6-B,,51.5,4.733333333333333,
NL,HAZ,Hazerswoude,Hazerswoude,,AF,--3-----,,52.095961,4.587155,true
NL,HWD,Hazerswoude-Dorp,Hazerswoude-Dorp,ZH,RL,--3-----,,52.1,4.583333333333333,
NL,HDG,Hedel,Hedel,GE,RL,--3-----,,51.75,5.266666666666667,
NL,HDL,Hedel,Hedel,,AF,1-3-----,,51.5193619,5.2984893,true
NL,HDN,Hedel,Hedel,NB,RL,--3-----,,51.516666666666666,5.3,
NL,HHU,Hedikhuizen,Hedikhuizen,NB,RL,--3-----,,51.71666666666667,5.166666666666667,
NL,HEG,Heeg,Heeg,,RL,--3-----,,52.96666666666667,5.6,
NL,HEE,Heel,Heel,,AF,1-3-----,,51.179622,5.8947908,true
NL,HSU,Heelsum,Heelsum,GE,RL,--3-----,,51.983333333333334,5.75,
NL,HMV,Heemserveen,Heemserveen,OV,RQ,-----6--,,52.583333333333336,6.566666666666666,
NL,HKE,Heemskerk,Heemskerk,,AF,--3-----,,52.51011775,4.635060887073173,true
NL,HMS,Heemstede,Heemstede,,AF,1-3-----,,52.3528406,4.6217323,true
NL,HDE,Heerde,Heerde,,RL,--3-----,,52.38333333333333,6.033333333333333,
NL,HRR,Heerde,Heerde,OV,RQ,-----6--,,52.38333333333333,6.033333333333333,
NL,HRV,Heerenveen,Heerenveen,,AF,1-3-----,QYZ,52.9568246,5.9270052,true
NL,HRW,Heerewaarden,Heerewaarden,,RL,1-3-----,,51.8182082,5.3894088,true
NL,HHW,Heerhugowaard,Heerhugowaard,,AF,--3-----,,52.6631484,4.8326672,true
NL,HKF,Heerjansdam,Heerjansdam,,RL,--3-----,,51.8353451,4.561677,true
NL,HLE,Heerle,Heerle,NB,RL,--3-----,,51.516666666666666,4.35,
NL,HEN,Heerlen,Heerlen,,RL,--3-----,,50.916666666666664,6.033333333333333,
NL,HRL,Heerlen-Autoweg,Heerlen-Autoweg,,AF,-23-----,,50.883447,5.979059,true
NL,HBN,Heesbeen,Heesbeen,NB,RL,--3-----,,51.733333333333334,5.116666666666666,
NL,HEC,Heesch,Heesch,,RQ,--3-----,,51.73519,5.5266331,true
NL,HSW,Heeswijk,Heeswijk,NB,RN,1-3-----,,51.65,5.466666666666667,
NL,HET,Heeten,Heeten,OV,RQ,--3-----,,52.31666666666667,6.266666666666667,
NL,HZE,Heeze,Heeze,,AF,--3-----,,51.3832098,5.5715902,true
NL,HEZ,Heeze-Leende,Heeze-Leende,NB,RL,--3-----,,51.38333333333333,5.583333333333333,
NL,HSM,Hegelsom,Hegelsom,LI,RL,-----6--,,51.43333333333333,6.033333333333333,
NL,HEB,Hei- en Boeicop,Hei- en Boeicop,ZH,RL,--3-----,,51.95,5.083333333333333,
NL,HCP,Heicop,Heicop,ZH,RL,--3-----,,51.95,5.1,
NL,HGN,Heigen,Heigen,LI,RQ,--3-----,,51.666666666666664,5.966666666666667,
NL,HEJ,Heijen,Heijen,,RL,123-----,,51.6742119,5.9805161,true
NL,HJY,Heijningen,Heijningen,,RL,--3-----,,51.65,4.4,
NL,HIJ,Heijplaat,Heijplaat,ZH,RQ,--3-----,,51.88333333333333,4.416666666666667,
NL,HKT,Heikant,Heikant,,RQ,--3-----,,51.2491943,4.0234522,true
NL,HEI,Heiligerlee,Heiligerlee,GR,RL,--3-----,,53.15,7.016666666666667,
NL,HLO,Heiloo,Heiloo,,AF,1-3-----,,52.6050033,4.7125066,true
NL,HNN,Heinen,Heinen,,AF,--3-----,,51.999351649999994,6.3500552552554375,true
NL,HOD,Heinenoord,Heinenoord,,AF,--3-----,,51.8269476,4.4800729,true
NL,HZA,Heinkensand,Heinkensand,ZE,AF,--3-----,,51.483333333333334,3.8166666666666664,
NL,HNO,Heino,Heino,,RQ,--3-----,,52.4361877,6.2337581,true
NL,HEK,Hekelingen,Hekelingen,ZH,RQ,-----6--,,51.81666666666667,4.333333333333333,
NL,HKO,Hekendorp,Hekendorp,ZH,RN,123-----,,52.016666666666666,4.816666666666666,
NL,HEL,Helden,Helden,,AF,--3-----,,51.3203339,6.000166,true
NL,HLD,Hellendoorn,Hellendoorn,OV,RQ,-----6--,,52.21666666666667,6.433333333333334,
NL,HSL,Hellevoetsluis,Hellevoetsluis,,AF,1-------,,51.833921,4.1436739,true
NL,HUW,Hellouw,Hellouw,GE,AA,--3-----,,51.833333333333336,5.166666666666667,
NL,HLM,Helmond,Helmond,,AF,123-----,,51.483333333333334,5.666666666666667,
NL,HVO,Helvoirt,Helvoirt,,AF,--3-----,,51.63834625,5.233552743589705,true
NL,HEM,Hem,Hem,NH,RQ,--3-----,,52.65,5.183333333333334,
NL,HPE,Hempens,Hempens,FR,RN,1-3-----,,53.18333333333333,5.833333333333333,
NL,HRI,Hemrik,Hemrik,FR,RL,--3-----,,53.03333333333333,6.133333333333334,
NL,HIA,Hendrik-Ido-Ambacht,Hendrik-Ido-Ambacht,ZH,AF,-23--6--,,51.85,4.633333333333333,
NL,HGL,Hengelo,Hengelo,,AF,123-----,QYH,52.2658726,6.7924049,true
NL,HNG,Hengelo,Hengelo,GE,RL,--3-----,,52.05,6.316666666666666,
NL,HEV,Hengevelde,Hengevelde,OV,RL,--3-----,,52.2,6.633333333333333,
NL,HNZ,Hengstdijk,Hengstdijk,ZE,RQ,1----6--,,51.35,4,
NL,HRK,Herkenbosch,Herkenbosch,,AF,--3-----,,51.1548896,6.0660056,true
NL,HKI,Herkingen,Herkingen,,RL,--3-----,,51.7103863,4.0873287,true
NL,HPN,Herpen,Herpen,NB,RL,--3-----,,51.766666666666666,5.65,
NL,ZAY,Herten,Herten,LI,RL,-----6--,,51.18333333333333,5.966666666666667,
NL,HRT,Hertme,Hertme,OV,RQ,--3-----,,52.31666666666667,6.766666666666667,
NL,HVD,Herveld,Herveld,,AF,--3-----,,51.9060926,5.7406415,true
NL,HER,Herven,Herven,NB,RL,-23--6--,,51.7,5.316666666666666,
NL,HWJ,Herwijnen,Herwijnen,GE,RL,--3-----,,51.81666666666667,5.133333333333334,
NL,HBT,het Bildt,het Bildt,FR,RL,--3-----,,53.28333333333333,5.666666666666667,
NL,HTR,Heteren,Heteren,,AF,1-3-----,,51.9554341,5.7573215,true
NL,HUK,Heukelum,Heukelum,GE,RQ,1----6--,,51.86666666666667,5.066666666666666,
NL,HUM,Heumen,Heumen,GE,RN,123-----,,51.766666666666666,5.85,
NL,HEU,Heurne,Heurne,,AF,--3-----,,51.8998856,6.5741663,true
NL,HES,Heusden,Heusden,,RL,--3-----,,51.733333333333334,5.133333333333334,
NL,HYY,Heythuysen,Heythuysen,,AF,--3-----,,51.2501987,5.9009266,true
NL,HKM,Hijkersmilde,Hijkersmilde,DR,RN,1-3-----,,52.93333333333333,6.433333333333334,
NL,HJM,Hijum,Hijum,FR,RL,--3-----,,53.3,4.766666666666667,
NL,HIL,Hillegom,Hillegom,,AF,1-3-----,,52.29482605,4.572971256401671,true
NL,HVK,Hilvarenbeek,Hilvarenbeek,NB,RL,1-3-----,,51.483333333333334,5.133333333333334,
NL,HVS,Hilversum,Hilversum,,AF,123-----,QYI,52.2241375,5.1719396,true
NL,HLP,Hindeloopen,Hindeloopen,FR,RN,--3-----,,52.95,5.4,
NL,HPH,Hippolytushoef,Hippolytushoef,NH,RL,--3-----,,52.9,4.966666666666667,
NL,ZAX,Hoek,Hoek,ZE,RL,-----6--,,51.31666666666667,3.7666666666666666,
NL,HVH,Hoek van Holland,Hoek van Holland,,AF,123-----,,51.96666666666667,4.116666666666666,
NL,HBR,Hoensbroek,Hoensbroek,,AF,--3-----,,50.9239397,5.9293862,true
NL,HZR,Hoenzadriel,Hoenzadriel,GE,RL,--3-----,,51.75,5.333333333333333,
NL,HOE,Hoevelaken,Hoevelaken,,AF,--3-----,,52.1757138,5.4577033,true
NL,HON,Hoeven,Hoeven,,AF,--34----,,51.5802562,4.5875432,true
NL,HTW,Hof Van Twente,Hof Van Twente,OV,RL,--3-----,,52.233333333333334,6.583333333333333,
NL,HBU,Hogebrug,Hogebrug,ZH,RN,-23-----,,52.03333333333333,4.8,
NL,HKN,Hollands Kroon,Hollands Kroon,NH,RL,--3-----,,52.86666666666667,4.816666666666666,
NL,HSO,Holsloot,Holsloot,DR,RN,1-3-----,,52.71666666666667,6.8,
NL,HOT,Holt,Holt,OV,RN,1-3-----,,52.53333333333333,6.333333333333333,
NL,HLT,Holten,Holten,,AF,--3-----,,52.2819676,6.4216444,true
NL,HME,Holtheme,Holtheme,OV,RN,123-----,,52.61666666666667,6.7,
NL,HLW,Holwerd,Holwerd,FR,RL,1-3-----,,53.38333333333333,5.883333333333333,
NL,HNS,Honselersdijk,Honselersdijk,,AF,--3-----,,52.0093169,4.2300007,true
NL,HTN,Hontenisse,Hontenisse,,AI,1-------,,51.29783,4.05267,true
NL,HFD,Hoofddorp,Hoofddorp,,AF,--3-----,QHZ,52.305554,4.6926644,true
NL,HPL,Hoofdplaat,Hoofdplaat,ZE,RQ,1-3-----,,51.36666666666667,3.65,
NL,HMD,Hooge Mierde,Hooge Mierde,NB,RL,--3-----,,51.38333333333333,5.116666666666666,
NL,HOZ,Hooge Zwaluwe,Hooge Zwaluwe,,AF,--3-----,,51.6841483,4.7492114,true
NL,HGX,Hooge-Hexel,Hooge-Hexel,,RL,--3-----,,52.4,6.55,
NL,HO2,Hoogeloon,Hoogeloon,NB,RL,--3-----,,51.38333333333333,5.266666666666667,
NL,HOH,Hoogerheide,Hoogerheide,,AF,--3-----,,51.424339,4.323838,true
NL,HMI,Hoogersmilde,Hoogersmilde,DR,RN,1-3-----,,52.9,6.4,
NL,HOV,Hoogeveen,Hoogeveen,,AF,1-34----,,52.73143385,6.515378494569234,true
NL,HZD,Hoogezand,Hoogezand,,AF,--3-----,,53.166666666666664,6.766666666666667,
NL,HGZ,Hoogezand-Sappemeer,Hoogezand-Sappemeer,GR,RL,--3-----,,53.15,6.75,
NL,HKP,Hoogkarspel,Hoogkarspel,,AF,--3-----,,52.6944258,5.1765794,true
NL,HKK,Hoogkerk,Hoogkerk,GR,RL,1-3-----,,53.21666666666667,6.5,
NL,HOL,Hoogland,Hoogland,,AF,--3-----,,52.1872469,5.3762224,true
NL,HOG,Hooglanderveen,Hooglanderveen,,AF,--3-----,,52.1876688,5.4323119,true
NL,HGM,Hoogmade,Hoogmade,ZH,RN,1-3-----,,52.166666666666664,4.583333333333333,
NL,HOS,Hoog-Soeren,Hoog-Soeren,GE,AA,--3-----,,52.21666666666667,5.883333333333333,
NL,HGV,Hoogvliet,Hoogvliet,,AF,--3-----,,51.8652855,4.3641111,true
NL,HOO,Hoogwoud,Hoogwoud,NH,RL,--3--6--,,52.71666666666667,4.933333333333334,
NL,HRN,Hoorn,Hoorn,,AF,123-----,,52.622545450000004,5.067726588147824,true
NL,HNA,Hoornaar,Hoornaar,,AF,--3-----,,51.8803846,4.9463797,true
NL,HPT,Hoptille,Hoptille,FR,RQ,1-3-----,,53.1688903,5.6836349,true
NL,HOR,Hordijkerveld,Hordijkerveld,,AF,--3-----,,51.8785625,4.5456902,true
NL,HOX,Horn,Horn,,RL,--3-----,,51.2,5.933333333333334,
NL,HSS,Horssen,Horssen,GE,RL,--3-----,,51.85,5.616666666666667,
NL,HRS,Horst,Horst,,AF,--3-----,,51.4525002,6.0539238,true
NL,HSA,Horst aan de Maas,Horst aan de Maas,LI,RL,--3-----,,51.45,6.05,
NL,HOU,Houten,Houten,,AF,1-3-----,,52.03061555,5.161216639426677,true
NL,HTH,Huis ter Heide,Huis ter Heide,,AF,--3-----,,52.114017,5.2593905,true
NL,HUS,Huissen,Huissen,GE,RL,--3-----,,51.93333333333333,5.933333333333334,
NL,HUI,Huizen,Huizen,,AF,--3-----,,52.296484449999994,5.240582040690262,true
NL,HLS,Hulsen,Hulsen,OV,RQ,--3-----,,52.36666666666667,6.466666666666667,
NL,OSR,Hulshorst,Hulshorst,GE,RL,--3-----,,52.36666666666667,5.733333333333333,
NL,HUL,Hulst,Hulst,,AF,--3-----,,51.2822909,4.0532016,true
NL,HML,Hummelo,Hummelo,GE,RL,--3-----,,52,6.233333333333333,
NL,HUN,Hunsel,Hunsel,LI,RN,1-3-----,,51.18333333333333,5.816666666666666,
NL,IDS,Idskenhuizen,Idskenhuizen,FL,RL,--3-----,,52.93333333333333,54.5,
NL,IJH,Ijhorst,Ijhorst,OV,RL,--3-----,,52.666666666666664,6.3,
NL,JST,IJlst,IJlst,FR,RL,--3-----,,53.016666666666666,5.616666666666667,
NL,IJM,IJmuiden/Velsen,IJmuiden/Velsen,,AF,123-----,,52.46666666666667,4.6,
NL,ISM,IJsselmuiden,IJsselmuiden,OV,RL,123-----,,52.56666666666667,5.916666666666667,
NL,IJI,IJsselstein,IJsselstein,,AF,--3-----,,52.016666666666666,5.05,
NL,SL7,Ijsselsteyn,Ijsselsteyn,LI,RL,1----6--,,51.483333333333334,5.9,
NL,IZD,IJzendijke,IJzendijke,,RL,--3--6--,,51.31666666666667,3.6166666666666667,
NL,ILO,Illikhoven,Illikhoven,LI,RN,1-3-----,,51.06666666666667,5.816666666666666,
NL,ILP,Ilpendam,Ilpendam,,AF,--3-----,,52.466399,4.9514315,true
NL,ING,Ingen,Ingen,GE,RL,--3-----,,51.96666666666667,5.483333333333333,
NL,ITR,Itteren,Itteren,LI,RN,1-3-----,,50.9,5.7,
NL,ITT,Ittervoort,Ittervoort,,AF,--3-----,,51.1766343,5.833411374922112,true
NL,JSP,Jisp,Jisp,NH,RL,--3-----,,52.5,4.833333333333333,
NL,JOU,Joure,Joure,,AF,--3-----,,52.9644286,5.8026709,true
NL,JLD,Julianadorp,Julianadorp,,AF,--3-----,,52.8907035,4.7446131,true
NL,JNE,Junne,Junne,OV,RN,--3-----,,52.516666666666666,6.5,
NL,KAG,Kaag,Kaag,,AF,--3-----,,52.2132601,4.5583307,true
NL,KAA,Kaag en Braassem,Kaag en Braassem,ZH,RL,--3-----,,52.2,4.633333333333333,
NL,KTS,Kaatsheuvel,Kaatsheuvel,,AF,--3-----,,51.6598038,5.0319484,true
NL,KKO,Kakeshoek,Kakeshoek,,RQ,1-3-----,,,,
NL,KMR,Kamerik,Kamerik,,AF,--3-----,,52.1112741,4.8935533,true
NL,KAM,Kampen,Kampen,,AF,123-----,,52.5511887,5.930496344615583,true
NL,KAD,Kamperland,Kamperland,ZE,RL,--3-----,,51.56666666666667,3.7,
NL,KTN,Kantens,Kantens,GR,RN,1-3-----,,53.36666666666667,6.633333333333333,
NL,KAV,Kapel-Avezaath,Kapel-Avezaath,GE,RL,--3--6--,,51.88333333333333,5.383333333333334,
NL,KPL,Kapelle,Kapelle,,RL,--3-----,,51.46666666666667,3.95,
NL,KAP,Kapellebrug,Kapellebrug,,AF,--3-----,,51.2525693,4.06573,true
NL,KTV,Katerveer,Katerveer,OV,RN,123-----,,52.5,6.066666666666666,
NL,KTJ,Katlijk,Katlijk,FR,RL,--3-----,,52.95,6.05,
NL,KAT,Kats,Kats,ZE,RQ,1-3-----,,51.56666666666667,3.8666666666666667,
NL,KWI,Katwijk,Katwijk,NB,RL,--3-----,,51.75,5.866666666666667,
NL,KWK,Katwijk,Katwijk,,RL,--3-----,,52.18985485,4.414558264500643,true
NL,KWR,Katwijk aan den Rijn,Katwijk aan den Rijn,ZH,RN,1-3-----,,52.2,4.416666666666667,
NL,KAZ,Katwijk aan Zee,Katwijk aan Zee,,AF,--3-----,,52.2,4.416666666666667,
NL,KWO,Katwoude,Katwoude,NH,RL,--3-----,,52.46666666666667,5.033333333333333,
NL,KNT,Keent,Keent,NB,RL,1-3-----,,51.7,5.7,
NL,KEB,Keijenborg,Keijenborg,,AF,--3-----,,52.0306125,6.2968665,true
NL,KZV,Keizersveer,Keizersveer,NB,RN,1-3-----,,51.71666666666667,4.9,
NL,KEK,Kekerdom,Kekerdom,,RL,--3-----,,51.86666666666667,6,
NL,KDK,Keldonk,Keldonk,NB,RL,--3-----,,51.583333333333336,5.583333333333333,
NL,KPE,Kelpen,Kelpen,LI,RN,1-3-----,,51.21666666666667,5.833333333333333,
NL,KRD,Kerkdriel,Kerkdriel,,RL,1-3-----,,51.766666666666666,5.333333333333333,
NL,KER,Kerkrade,Kerkrade,,AF,--3-----,,50.8654924,6.0632022,true
NL,KEW,Kerkwijk,Kerkwijk,GE,RL,--3-----,,51.78333333333333,5.216666666666667,
NL,KSL,Kessel,Kessel,,AF,1-3-----,,51.2912483,6.05734,true
NL,KST,Kesteren,Kesteren,,AF,1-3-----,,51.9363785,5.5740706,true
NL,KHV,Ketelhaven,Ketelhaven,FL,RN,1-3-----,,52.583333333333336,5.75,
NL,KIJ,Kinderdijk,Kinderdijk,,AF,--3-----,,51.8886955,4.6356972,true
NL,KLW,Klaaswaal,Klaaswaal,,AF,--3-----,,51.7683666,4.4444538,true
NL,KBK,Klarenbeek,Klarenbeek,GE,RL,--3-----,,52.166666666666664,6.083333333333333,
NL,KLZ,Klazienaveen,Klazienaveen,DR,AF,1-3-----,,52.733333333333334,7,
NL,KNZ,Klein-Zundert,Klein-Zundert,NB,RL,-----6--,,51.483333333333334,4.65,
NL,KLN,Klimmen,Klimmen,LI,RQ,-----6--,,50.88333333333333,5.883333333333333,
NL,KOT,Kloetinge,Kloetinge,ZE,RL,--3-----,,51.5,3.9166666666666665,
NL,KTL,Kloosterburen,Kloosterburen,,RL,-----6--,,53.15,5.983333333333333,
NL,KLV,Kloosterveen,Kloosterveen,DR,RN,1-3-----,,53,6.516666666666667,
NL,KLT,Kloosterzande,Kloosterzande,,RL,--3-----,,51.3675563,4.0105076,true
NL,KLU,Klundert,Klundert,,AI,1-------,,51.6627188,4.5346644,true
NL,KDJ,Koedijk,Koedijk,NH,RQ,--3-----,,52.666666666666664,4.75,
NL,KOE,Koekange,Koekange,DR,RL,--3-----,,52.7,6.316666666666666,
NL,KWT,Koewacht,Koewacht,,AF,--3-----,,51.2289816,3.9702283,true
NL,KOL,Koggenland,Koggenland,NH,RL,--3-----,,52.63333333333333,4.95,
NL,KHA,Kolham,Kolham,GR,RL,--3-----,,53.18333333333333,6.733333333333333,
NL,KHR,Kolhorn,Kolhorn,NH,RN,1-3-----,,52.8,4.883333333333333,
NL,KLM,Kollum,Kollum,FR,RN,1-3-----,,53.28333333333333,6.15,
NL,KUN,Kollumerland en Nieuwkruisland,Kollumerland en Nieuwkruisland,FR,RL,--3-----,,53.28333333333333,6.133333333333334,
NL,KML,Kommerzijl,Kommerzijl,GR,RN,--3-----,,53.28333333333333,6.333333333333333,
NL,KGH,Konigsbosch,Konigsbosch,,RL,--3-----,,51.05,5.95,
NL,KGT,Koningslust,Koningslust,LI,RL,-----6--,,51.35,6,
NL,KGZ,Koog aan de Zaan,Koog aan de Zaan,,AF,--3-----,,52.46666666666667,4.8,
NL,ZBB,Kootstertille,Kootstertille,FR,RL,-----6--,,53.21666666666667,6.1,
NL,KW2,Kootwijkerbroek,Kootwijkerbroek,GE,RL,--3-----,,52.15,5.666666666666667,
NL,KOI,Korendijk,Korendijk,ZH,RL,--3-----,,51.8,4.316666666666666,
NL,ZAN,Kornhorn,Kornhorn,GR,RL,-----6--,,53.18333333333333,6.25,
NL,KWZ,Kornwerderzand,Kornwerderzand,FR,RN,--3-----,,53.06666666666667,5.333333333333333,
NL,KHM,Kortehemmen,Kortehemmen,FR,RL,--3-----,,53.06666666666667,6.083333333333333,
NL,KTH,Kortenhoef,Kortenhoef,,AF,--3-----,,52.2401304,5.1130009,true
NL,KOG,Kortgene,Kortgene,,RL,--3-----,,51.5561698,3.8019249,true
NL,KOR,Koudekerk aan den Rijn,Koudekerk aan den Rijn,ZH,RL,--3-----,,52.13333333333333,4.6,
NL,KOK,Koudekerke,Koudekerke,,AF,--3-----,,51.4821967,3.5542879,true
NL,KDM,Koudum,Koudum,FR,RN,--3-----,,52.916666666666664,5.45,
NL,IJK,Krabbendijke,Krabbendijke,ZE,RL,123-----,,51.43333333333333,4.116666666666666,
NL,KGB,Kraggenburg,Kraggenburg,FL,RQ,--3-----,,52.65,5.883333333333333,
NL,KMS,Krammersluizen,Krammersluizen,ZE,RQ,1-3-----,,,,
NL,KRE,Kreil,Kreil,NH,RN,1-3-----,,52.8,4.866666666666667,
NL,KRP,Krimpen aan de Lek,Krimpen aan de Lek,,AF,--3-----,,51.9,4.633333333333333,
NL,KAI,Krimpen aan den IJssel,Krimpen aan den IJssel,,RL,1-3-----,,51.916666666666664,4.6,
NL,KDO,Kring van Dorth,Kring van Dorth,GE,RL,--3-----,,52.21666666666667,6.266666666666667,
NL,KRM,Krommenie,Krommenie,,AF,--3-----,,52.4954557,4.7664946,true
NL,KNG,Kronenberg,Kronenberg,LI,RL,-23-----,,51.416666666666664,6,
NL,KRU,Kruiningen,Kruiningen,,AF,--3-----,,51.4488064,4.0340991,true
NL,KLD,Kruisland,Kruisland,NB,RL,--3-----,,51.56666666666667,4.416666666666667,
NL,KDS,Kudelstaart,Kudelstaart,NH,RQ,--3-----,,52.233333333333334,4.75,
NL,KHO,Kuikhorne,Kuikhorne,FR,RN,1-3-----,,53.25,6.016666666666667,
NL,KWA,Kwadendamme,Kwadendamme,,AF,--3-----,,51.4325784,3.8776854,true
NL,KWJ,Kwadijk,Kwadijk,NH,RL,--3-----,,52.53333333333333,4.983333333333333,
NL,KWS,Kwintsheul,Kwintsheul,,AF,--3-----,,52.0152893,4.2555884,true
NL,LGK,Laag-Keppel,Laag-Keppel,GE,RL,--3-----,,52,6.216666666666667,
NL,LAA,Laarbeek,Laarbeek,NB,RL,--3-----,,51.53333333333333,5.633333333333333,
NL,LTS,Laatste Stuiver,Laatste Stuiver,,RQ,1-3-----,,,,
NL,LMI,Lage Mierde,Lage Mierde,NB,RL,--3--6--,,51.4,5.15,
NL,LAW,Lage Weide,Lage Weide,,AF,1-3-----,,52.11446255,5.068393570840623,true
NL,LZA,Lage Zwaluwe,Lage Zwaluwe,NB,RN,1-3-----,,51.71666666666667,4.733333333333333,
NL,LGD,Lageland,Lageland,GR,RN,1-3-----,,53.233333333333334,6.716666666666667,
NL,LWE,Lalleweer,Lalleweer,GR,RN,1-3-----,,53.28333333333333,7,
NL,LBG,Lambertschaag,Lambertschaag,NH,RL,--3-----,,52.75,5.016666666666667,
NL,LAD,Landerd,Landerd,NB,RL,--3-----,,51.7,5.666666666666667,
NL,LGB,Landgoed Baest,Landgoed Baest,,RQ,1-3-----,,51.4877633,5.2565278,true
NL,LAF,Landgraaf,Landgraaf,,AF,--3-----,,50.9080845,6.0264604,true
NL,LAM,Landsmeer,Landsmeer,,AF,--3-----,,52.44966555,4.9302029546875765,true
NL,LAK,Langbroek,Langbroek,UT,RL,--3-----,,52.016666666666666,5.35,
NL,LIK,Langedijk (Gemeente),Langedijk (Gemeente),NH,RL,--3-----,,52.68333333333333,4.8,
NL,LGI,Langelille,Langelille,FR,RN,1-3-----,,52.85,5.85,
NL,LGO,Langelo,Langelo,DR,RL,-----6--,,53.1,6.45,
NL,LAB,Langenboom,Langenboom,NB,RL,--3-----,,51.7,5.733333333333333,
NL,LAG,Langerak,Langerak,,AF,--3-----,,51.9374243,4.8913085,true
NL,LWG,Langeweg,Langeweg,NB,RQ,1-3-----,,51.65,4.666666666666667,
NL,LZG,Langezwaag,Langezwaag,,AF,--3-----,,52.9818571,6.006028,true
NL,LGW,Langweer,Langweer,FR,RL,--3-----,,52.96666666666667,5.716666666666667,
NL,LSG,Lansingerland,Lansingerland,ZH,RL,--3-----,,51.983333333333334,4.5,
NL,LAR,Laren,Laren,,AF,--3-----,,52.2565894,5.2251925,true
NL,LTU,Lathum,Lathum,GE,RL,--3-----,,51.983333333333334,6.016666666666667,
NL,LAN,Lauwersoog,Lauwersoog,,AF,1-------,,53.4036333,6.2142384,true
NL,LWI,Lauwerzijl,Lauwerzijl,GR,RN,--3-----,,53.31666666666667,6.3,
NL,LEE,Leek,Leek,,AF,--3-----,,53.1632327,6.377119,true
NL,NDE,Leende,Leende,NB,RL,--3-----,,51.35,5.55,
NL,LES,Leens,Leens,GR,RN,1-3-----,,53.36666666666667,6.383333333333334,
NL,LRB,Leerbroek,Leerbroek,ZH,RL,--3-----,,51.9,5.05,
NL,LRD,Leerdam,Leerdam,,AF,1-3-----,,51.8937356,5.0924352,true
NL,LER,Leersum,Leersum,UT,RL,--3-5---,,52.0102642,5.4332757,true
NL,LWR,Leeuwarden,Leeuwarden,,AF,1234----,,53.2250119,5.756570985712516,true
NL,LUW,Leeuwarderadeel,Leeuwarderadeel,FR,RL,--3-----,,53.266666666666666,5.766666666666667,
NL,LID,Leiden,Leiden,,AF,1234----,,52.1594747,4.4908843,true
NL,LDD,Leiderdorp,Leiderdorp,,AF,1-3-----,,52.15705765,4.543378647059756,true
NL,LDS,Leidschendam,Leidschendam,,AF,--3-----,,52.0861654,4.3946774,true
NL,LSV,Leidschendam-Voorburg,Leidschendam-Voorburg,ZH,RL,--3-----,,52.083333333333336,4.4,
NL,LMU,Leimuiden,Leimuiden,,AF,--3-----,,52.2239922,4.6724358,true
NL,LRU,Leimuiderbrug,Leimuiderbrug,NH,RN,1-3-----,,52.233333333333334,4.666666666666667,
NL,LEK,Lekkerkerk,Lekkerkerk,,AF,--3-----,,51.89904265,4.691540712934296,true
NL,LKK,Lekkum,Lekkum,FR,RL,-----6--,,53.233333333333334,5.816666666666666,
NL,LEY,Lelystad,Lelystad,,AF,1-34----,,52.4548912,5.520509513947877,true
NL,ELE,Lemelerveld,Lemelerveld,OV,RL,--3-----,,52.45,6.35,
NL,LMR,Lemmer,Lemmer,,AF,--3-----,,52.8444859,5.7099136,true
NL,LEM,Lemsterland,Lemsterland,,AI,1-------,,,,
NL,LNT,Lent,Lent,,AF,--3-----,,51.8644627,5.8670372,true
NL,LEO,Leons,Leons,FR,RN,1-3-----,,53.11666666666667,5.466666666666667,
NL,LEP,Lepelstraat,Lepelstraat,NB,AM,--3-----,,51.93333333333333,4.583333333333333,
NL,TTE,Lettele,Lettele,OV,RL,1----6--,,52.28333333333333,6.266666666666667,
NL,LED,Leudal,Leudal,LI,RL,--3-----,,51.85,5.9,
NL,LNN,Leunen,Leunen,LI,RL,--3-----,,51.516666666666666,5.983333333333333,
NL,LEU,Leusden,Leusden,,AF,--3-----,,52.1187668,5.417118899734083,true
NL,LTH,Leuth,Leuth,,AF,--3-----,,51.838195,5.9934728,true
NL,GEL,Leuvenheim,Leuvenheim,GE,RL,-23-----,,52.083333333333336,6.133333333333334,
NL,LEV,Leveroij,Leveroij,LI,RL,--3-----,,51.25,5.85,
NL,LWD,Lewedorp,Lewedorp,ZE,RQ,--3-----,,51.483333333333334,3.75,
NL,LXM,Lexmond,Lexmond,,AF,--3-----,,51.9631624,5.0364321,true
NL,LCV,Lichtenvoorde,Lichtenvoorde,,AF,--3-----,,51.9890577,6.5716944,true
NL,LMP,Liempde,Liempde,NB,AA,--3-----,,51.56666666666667,5.366666666666666,
NL,LIE,Lienden,Lienden,,AF,1-------,,51.9457517,5.5152908,true
NL,LEN,Lieren,Lieren,GE,RL,1-------,,52.166666666666664,60,
NL,LRP,Lierop,Lierop,NB,RQ,--3-----,,51.416666666666664,5.666666666666667,
NL,LSH,Lieshout,Lieshout,,RL,--3-----,,51.516666666666666,5.583333333333333,
NL,LSL,Liessel,Liessel,NB,RQ,--3-----,,51.4,5.816666666666666,
NL,LIJ,Lijnden,Lijnden,NH,RL,1-3-----,,52.35,4.766666666666667,
NL,LIM,Limbricht,Limbricht,LI,AA,--3-----,,51.016666666666666,5.833333333333333,
NL,LME,Limmel,Limmel,LI,RN,1-3-----,,50.86666666666667,5.7,
NL,LMM,Limmen,Limmen,,AF,--3-----,,52.5718803,4.6937182,true
NL,LIW,Lingewaal,Lingewaal,GE,RL,--3-----,,51.88333333333333,5.116666666666666,
NL,LIR,Lingewaard,Lingewaard,GE,RL,--3-----,,51.88333333333333,5.9,
NL,LIN,Linne,Linne,LI,RL,--3-----,,51.15,5.933333333333334,
NL,LSC,Linschoten,Linschoten,,AF,--3-----,,52.0643061,4.9128416,true
NL,LIO,Lintelo,Lintelo,GE,RL,--3-----,,51.93333333333333,63.166666666666664,
NL,LWO,Lippenwoude,Lippenwoude,FR,RN,1-3-----,,52.96666666666667,5.65,
NL,QDG,Lisse,Lisse,,AF,1-3-----,,52.2540183,4.541928029675811,true
NL,LBK,Lisserbroek,Lisserbroek,,RL,--3-----,,52.262540099999995,4.570869419370643,true
NL,LIT,Lith,Lith,,AF,1-------,,51.810386699999995,5.421069102424927,true
NL,LTO,Lithoijen,Lithoijen,NB,RL,1-3-----,,51.8,5.466666666666667,
NL,LIL,Littenseradeel,Littenseradeel,FR,RL,--3-----,,53.11666666666667,5.583333333333333,
NL,LOB,Lobith,Lobith,,AF,--3-----,,51.8615431,6.1176754,true
NL,LCH,Lochem,Lochem,,AF,--3-----,,52.158471,6.4144888,true
NL,LON,Loenen,Loenen,,AF,--3-----,,52.1174796,6.018526,true
NL,LAV,Loenen aan de Vecht,Loenen aan de Vecht,,AF,1-3-----,,52.2097841,5.0216458,true
NL,LNO,Loenersloot,Loenersloot,UT,RN,123-----,,52.233333333333334,5,
NL,LOM,Lomm,Lomm,,AF,--3-----,,51.4486337,6.1718143,true
NL,LOO,Loo,Loo,GE,RL,--3-----,,51.93333333333333,5.983333333333333,
NL,LOZ,loon op zand,loon op zand,NB,RL,--3-----,,51.63333333333333,5.083333333333333,
NL,LSB,Loosbroek,Loosbroek,NB,RQ,--3-----,,51.666666666666664,5.5,
NL,ZAQ,Loosdrecht,Loosdrecht,UT,RL,-----6--,,52.21666666666667,5.066666666666666,
NL,LPK,Lopik,Lopik,,AF,--3-----,,51.9745978,4.9493677,true
NL,LKL,Lopikerkapel,Lopikerkapel,UT,RL,--3-----,,52,5.05,
NL,LPM,Loppersum,Loppersum,GR,RL,--3-----,,53.333333333333336,6.75,
NL,LOS,Losser,Losser,,RL,--3-----,,52.2620369,7.0046452,true
NL,LTM,Lottum,Lottum,LI,RL,--3-----,,51.46666666666667,6.166666666666667,
NL,LTN,Lunteren,Lunteren,GE,RL,--3-----,,52.083333333333336,5.616666666666667,
NL,LJB,Lutjebroek,Lutjebroek,NH,RL,--3-----,,52.7,5.2,
NL,LWK,Lutjewinkel,Lutjewinkel,NH,RL,--3-----,,52.766666666666666,4.883333333333333,
NL,LGE,Luttelgeest,Luttelgeest,FL,RL,--3-----,,52.75,5.85,
NL,LTT,Luttenberg,Luttenberg,OV,AA,--3-----,,52.4,6.366666666666666,
NL,LYG,Luyksgestel,Luyksgestel,NB,RL,--3-----,,51.28333333333333,5.316666666666666,
NL,MHZ,Maarheeze,Maarheeze,NB,AF,--3-----,,51.31666666666667,5.6,
NL,MHU,Maarhuizen,Maarhuizen,GR,RN,1-3-----,,53.35,6.5,
NL,MAV,Maarn,Maarn,UT,RL,--3-----,,52.06666666666667,5.35,
NL,MAB,Maarsbergen,Maarsbergen,,AF,--3-----,,52.057368,5.4034953,true
NL,MSS,Maarssen,Maarssen,,AF,--3-----,,52.1384846,5.040082,true
NL,MRS,Maarssenbroek,Maarssenbroek,,AF,--3-----,,52.1329593,5.0260632,true
NL,MRT,Maartensdijk,Maartensdijk,,AF,--3-----,,52.158276,5.1731443,true
NL,MSB,Maasbracht,Maasbracht,,AF,1-------,,51.1428567,5.8830683,true
NL,ZBC,Maasbree,Maasbree,LI,RL,-----6--,,51.35,6.05,
NL,MSD,Maasdam,Maasdam,,AF,--3-----,,51.7900381,4.5591848,true
NL,MDK,Maasdijk,Maasdijk,ZH,RL,--3-----,,51.96666666666667,4.216666666666667,
NL,MDR,Maasdriel,Maasdriel,GE,RL,--3-----,,51.766666666666666,5.333333333333333,
NL,MGW,Maasgouw,Maasgouw,LI,RL,--3-----,,51.15,5.9,
NL,MAA,Maashees,Maashees,NB,RQ,-----6--,,51.56666666666667,6.033333333333333,
NL,MAL,Maasland,Maasland,,AF,--3-----,,51.9367248,4.2740314,true
NL,MSL,Maassluis,Maassluis,,AF,123-----,,51.9266671,4.244000657157326,true
NL,MST,Maastricht,Maastricht,,AF,1234----,,50.8512438,5.6909768,true
NL,MSV,Maasvlakte,Maasvlakte,,AF,1-3-----,,51.957913,4.044226,true
NL,MAC,Macharen,Macharen,NB,RL,--3-----,,51.8,53.5,
NL,QDJ,Made,Made,,AF,--3-----,,51.6773008,4.7931811,true
NL,MKG,Makkinga,Makkinga,FR,AA,--3-----,,52.983333333333334,6.216666666666667,
NL,MAK,Makkum,Makkum,FR,RL,1-3-----,,53.05,5.4,
NL,MAD,Malden,Malden,,AF,--3-----,,51.7802241,5.8539184,true
NL,MJA,Mandjeswaard,Mandjeswaard,OV,RN,1-3-----,,52.56666666666667,5.916666666666667,
NL,MTN,Mantinge,Mantinge,DR,RL,--3-----,,52.8,6.616666666666667,
NL,MRK,Maren-Kessel,Maren-Kessel,NB,RL,--3--6--,,51.8,5.4,
NL,ZBF,Margraten,Margraten,LI,RL,-----6--,,50.81666666666667,5.816666666666666,
NL,MHO,Mariahout,Mariahout,NB,RL,--3-----,,51.53333333333333,5.566666666666666,
NL,MAR,Markelo,Markelo,,AF,1-3-----,,52.2347139,6.4949852,true
NL,MKN,Marken,Marken,NH,RN,1-3-----,,52.46666666666667,5.1,
NL,MAN,Marknesse,Marknesse,,AF,--3-----,,52.7086116,5.8626733,true
NL,MRR,Marrum,Marrum,FR,RL,--3-----,,53.333333333333336,5.8,
NL,MRU,Marssum,Marssum,FR,RN,--3-----,,53.21666666666667,5.733333333333333,
NL,MRM,Marum,Marum,,RL,--3-----,,53.15,6.266666666666667,
NL,MAU,Maurik,Maurik,,AF,1-3-----,,51.9608641,5.4233334,true
NL,MEC,Mechelen,Mechelen,LI,RQ,-----6--,,50.78333333333333,5.916666666666667,
NL,MED,Meddo,Meddo,GE,RL,--3-----,,52.016666666666666,6.7,
NL,MDM,Medemblik,Medemblik,,AF,--3-----,,52.768691,5.106195,true
NL,MEK,Meeden,Meeden,GR,RL,--3-----,,53.13333333333333,6.933333333333334,
NL,MEE,Meer,Meer,,AF,--3-----,,51.3715355,5.3111026,true
NL,MKK,Meerkerk,Meerkerk,,RL,--3-----,,51.916666666666664,5,
NL,MEW,Meerlo-Wansum,Meerlo-Wansum,,AI,1-------,,51.512558,6.085218,true
NL,MES,Meers,Meers,,AF,--3-----,,50.9628931,5.7413473,true
NL,MRN,Meerssen,Meerssen,LI,RL,-23-----,,50.88333333333333,5.75,
NL,MWE,Meeuwen,Meeuwen,NB,RL,--3-----,,51.71666666666667,5,
NL,MEG,Megchelen,Megchelen,GE,RL,--3-----,,51.833333333333336,6.4,
NL,MGN,Megen,Megen,NB,RL,--3-----,,51.81666666666667,5.566666666666666,
NL,MEJ,Meijel,Meijel,LI,RL,--3-----,,51.35,5.883333333333333,
NL,MDO,Melderslo,Melderslo,,RL,-23--6--,,51.46666666666667,6.083333333333333,
NL,MCK,Melick,Melick,,AF,--3-----,,51.1568637,6.0136554,true
NL,MKU,Meliskere,Meliskere,ZE,RL,--3-----,,51.516666666666666,3.5166666666666666,
NL,MSA,Melissant,Melissant,ZH,RL,--3-----,,51.766666666666666,4.066666666666666,
NL,MNU,Menaldum,Menaldum,FR,RN,1-3-----,,53.21666666666667,5.666666666666667,
NL,MLD,Menaldumadeel,Menaldumadeel,FR,RL,--3-----,,53.21666666666667,5.666666666666667,
NL,MSW,Mensingeweer,Mensingeweer,GR,RN,1-3-----,,53.35,6.466666666666667,
NL,MTW,Menterwolde,Menterwolde,GR,RL,--3-----,,53.13333333333333,6.866666666666667,
NL,MEP,Meppel,Meppel,,AF,123-----,,52.711744350000004,6.197307325163717,true
NL,MEB,Merkelbeek,Merkelbeek,,AF,--3-----,,50.9545486,5.9338765,true
NL,MEH,Mesch,Mesch,LI,RQ,1-3-----,,50.7640157,5.7336876,true
NL,GE7,Meteren,Meteren,GE,RL,1----6--,,51.86666666666667,5.283333333333333,
NL,MTK,Meterik,Meterik,LI,RL,--3-----,,51.45,6.033333333333333,
NL,MLA,Middelaar,Middelaar,LI,RN,1-3-----,,51.733333333333334,5.916666666666667,
NL,MDB,Middelbeers,Middelbeers,,AF,--3-----,,51.4677566,5.2508063,true
NL,MDL,Middelburg,Middelburg,ZE,RL,--3-----,,51.5,3.6,
NL,MID,Middelburg,Middelburg,,AF,123-----,,51.5017183,3.642080782139768,true
NL,MIH,Middelharnis,Middelharnis,,AF,1-3-----,,51.7576172,4.1656476,true
NL,MVE,Middelie,Middelie,,RL,--3-----,,52.538075,5.0142215,true
NL,MDU,Middelstum,Middelstum,GR,RN,1-3-----,,53.35,6.65,
NL,MIZ,Midden Zeeland Apt,Midden Zeeland Apt,ZE,AC,---4----,,51.5,3.716666666666667,
NL,MDI,Middenbeemster,Middenbeemster,NH,RL,1----6--,,52.55,40.916666666666664,
NL,MDF,Midden-Delfland,Midden-Delfland,ZH,RL,--3-----,,51.983333333333334,4.316666666666666,
NL,MDD,Midden-Drenthe,Midden-Drenthe,DR,RL,--3-----,,52.86666666666667,6.516666666666667,
NL,ZBD,Middenmeer,Middenmeer,NH,RL,-----6--,,52.8,5,
NL,MWD,Midwolda,Midwolda,GR,RQ,1-------,,53.2,7,
NL,MIE,Mierlo,Mierlo,NB,AF,1-3-----,,51.43333333333333,5.616666666666667,
NL,MIJ,Mijdrecht,Mijdrecht,,AF,--3-----,,52.2060181,4.8648168,true
NL,MNH,Mijnsheerenland,Mijnsheerenland,,RQ,1-------,,51.8,4.483333333333333,
NL,MDT,Mildert,Mildert,LI,RQ,1-3-----,,51.24139,5.79501,true
NL,MZE,Milheeze,Milheeze,NB,RL,--3-----,,51.5,5.766666666666667,
NL,MLL,Mill,Mill,,AF,--3-----,,51.6863207,5.7841148,true
NL,MSH,Mill en Sint Hubert,Mill en Sint Hubert,NB,RL,--3-----,,51.68333333333333,5.783333333333333,
NL,MLR,Millingen aan de Rijn,Millingen aan de Rijn,GE,RN,1-3-----,,51.86666666666667,6.05,
NL,MBK,Milsbeek,Milsbeek,GE,RQ,--3--6--,,51.7243615,5.9499476,true
NL,M9G,Minnertsga,Minnertsga,FR,RL,--3-----,,53.25,5.6,
NL,MOE,Moerdijk,Moerdijk,,AF,123-----,,51.68333333333333,4.566666666666666,
NL,MGS,Moergestel,Moergestel,NB,RL,--3-----,,51.55,5.183333333333334,
NL,MKP,Moerkapelle,Moerkapelle,,AF,--3-----,,52.0428304,4.5760986,true
NL,MSN,Moerstraten,Moerstraten,NB,RL,--3-----,,51.53333333333333,4.35,
NL,MOG,Molenaarsgraaf,Molenaarsgraaf,,AF,--3-----,,51.8782056,4.8281412,true
NL,MGT,Molengat,Molengat,NH,RQ,1-3-----,,53.05,4.65,
NL,MOL,Molenhoek,Molenhoek,LI,RL,123-----,,51.766666666666666,5.866666666666667,
NL,MOT,Molenschot,Molenschot,NB,RL,--3-----,,51.56666666666667,4.883333333333333,
NL,MLW,Molenwaard,Molenwaard,ZH,RL,--3-----,,51.86666666666667,4.783333333333333,
NL,MWU,Molkwerum,Molkwerum,FR,RL,--3-----,,52.9,5.4,
NL,MNN,Monnickendam,Monnickendam,,AF,--3-----,,52.4570766,5.0373214,true
NL,MON,Monster,Monster,,AF,--3-----,,52.0223028,4.1715344,true
NL,MTL,Montferland,Montferland,GE,RL,--3-----,,51.93333333333333,6.133333333333334,
NL,MNT,Montfoort,Montfoort,,AF,--3-----,,52.0387833,4.956087684635074,true
NL,MOK,Mook,Mook,LI,RN,1-3-----,,51.75,5.883333333333333,
NL,MHK,Mookhoek,Mookhoek,ZH,RL,--3-----,,51.75,4.616666666666667,
NL,MOO,Moordrecht,Moordrecht,,AF,--3-----,,51.9865065,4.6698314,true
NL,MUD,Muiden,Muiden,NH,RN,1-3-----,,52.333333333333336,5.066666666666666,
NL,MDG,Muiderberg,Muiderberg,NH,RN,123-----,,52.333333333333336,5.116666666666666,
NL,MUN,Munein,Munein,FR,RL,--3-----,,53.25,5.916666666666667,
NL,MKE,Munnekeburen,Munnekeburen,FR,RN,1-3-----,,52.85,5.883333333333333,
NL,MKZ,Munnekezijl,Munnekezijl,FR,RN,--3-----,,53.3,6.266666666666667,
NL,MTD,Muntendam,Muntendam,GR,RL,--3-----,,53.13333333333333,6.866666666666667,
NL,MUS,Musselkanaal,Musselkanaal,GR,RQ,-----6--,,52.916666666666664,7.016666666666667,
NL,NAW,Naaldwijk,Naaldwijk,,AF,1-3-----,,51.9930016,4.2074197,true
NL,NAA,Naarden,Naarden,,AF,--3-----,,52.2957628,5.1633636,true
NL,NLG,Nagele,Nagele,,AF,--3-----,,52.6469683,5.7223334,true
NL,NEC,Neck,Neck,NH,RN,1-3-----,,52.516666666666666,4.916666666666667,
NL,NST,Nederasselt,Nederasselt,,RL,1-3-----,,51.766666666666666,5.75,
NL,NBW,Neder-Betuwe,Neder-Betuwe,,RL,-23-----,,51.93333333333333,5.566666666666666,
NL,ZBA,Nederhemert,Nederhemert,GE,RL,-----6--,,51.766666666666666,5.166666666666667,
NL,NDB,Nederhorst den Berg,Nederhorst den Berg,,AF,1-3-----,,52.266666666666666,5.05,
NL,NRW,Nederweert,Nederweert,,AF,--3-----,,51.2856418,5.7496037,true
NL,NEE,Neede,Neede,GE,RL,--3-----,,52.13333333333333,6.616666666666667,
NL,NTJ,Neeltje Jans,Neeltje Jans,ZE,RL,1-------,,53.63333333333333,3.7,
NL,NER,Neer,Neer,,AF,--3-----,,51.2620493,5.9883704,true
NL,NEJ,Neerijnen,Neerijnen,GE,RL,--3-----,,51.833333333333336,5.283333333333333,
NL,EER,Neeritter,Neeritter,LI,RL,--3-----,,51.166666666666664,5.8,
NL,NES,Nes,Nes,FR,RN,123-----,,53.05,5.85,
NL,NSA,Nes aan de Amstel,Nes aan de Amstel,NH,RN,1-3-----,,52.266666666666666,4.883333333333333,
NL,NSU,Nessersluis,Nessersluis,UT,RN,1-3-----,,52.25,4.866666666666667,
NL,NTD,Netterden,Netterden,,RQ,--3-----,,51.85,6.316666666666666,
NL,NXO,Nibbixwoud,Nibbixwoud,NH,RL,--3-----,,52.7,5.066666666666666,
NL,NAM,Nieuw-Amsterdam,Nieuw-Amsterdam,DR,RN,123--6--,,52.71666666666667,6.866666666666667,
NL,NIB,Nieuw-Bergen,Nieuw-Bergen,LI,RQ,--3-----,,51.6,6.05,
NL,NB3,Nieuw-Buinen,Nieuw-Buinen,DR,RL,--3-----,,52.95,6.933333333333334,
NL,NIU,Nieuwdorp,Nieuwdorp,ZE,RL,1-3-----,,51.46666666666667,3.7333333333333334,
NL,NBU,Nieuwe Brug,Nieuwe Brug,NH,RN,1-3-----,,52.36666666666667,4.666666666666667,
NL,NPK,Nieuwe Pekela,Nieuwe Pekela,GR,RN,--3-----,,53.083333333333336,6.983333333333333,
NL,NSB,Nieuwe Schans,Nieuwe Schans,,AF,--3----B,,51.833333333333336,5.5,
NL,NSZ,Nieuwe Statenzijl,Nieuwe Statenzijl,GR,RN,1-3-----,,53.233333333333334,7.2,
NL,NDI,Nieuwediep,Nieuwediep,DR,AF,--3-----,,53.05,6.85,
NL,NWG,Nieuwegein,Nieuwegein,,AF,1-3-----,,52.0298704,5.0929333789192395,true
NL,NHM,Nieuwehorne,Nieuwehorne,FR,RN,--3-----,,52.95,6.05,
NL,NIH,Nieuwenhagen,Nieuwenhagen,LI,RL,--3-----,,50.9,6.033333333333333,
NL,NBG,Nieuwerbrug,Nieuwerbrug,ZH,RN,123-----,,52.083333333333336,4.816666666666666,
NL,NRK,Nieuwerkerk,Nieuwerkerk,ZE,RL,--3-----,,51.7,3.9,
NL,NIE,Nieuwerkerk aan den IJssel,Nieuwerkerk aan den IJssel,ZH,RL,1-3-----,,51.96666666666667,4.616666666666667,
NL,N8W,Nieuwerkerke,Nieuwerkerke,ZE,RL,1-------,,51.7,3.9,
NL,NSC,Nieuweschans,Nieuweschans,GR,AF,-23-----,,53.18333333333333,7.2,
NL,NWT,Nieuwe-Tonge,Nieuwe-Tonge,ZH,RL,--3-----,,51.71666666666667,4.166666666666667,
NL,NWK,Nieuwkoop,Nieuwkoop,,AF,--3-----,,52.1405891,4.786696497900001,true
NL,NKU,Nieuwkuijk,Nieuwkuijk,NB,RL,--3-----,,51.68333333333333,5.183333333333334,
NL,NIL,Nieuwland,Nieuwland,ZH,RQ,-----6--,,51.9,5,
NL,NUW,Nieuwland,Nieuwland,UT,RL,--3-----,,52.2,5.383333333333334,
NL,NLK,Nieuw-Lekkerland,Nieuw-Lekkerland,,AF,--3-----,,51.88333333333333,4.666666666666667,
NL,NWL,Nieuwleusen,Nieuwleusen,,RL,--3-----,,52.583333333333336,6.3,
NL,LSR,Nieuw-Loosdrecht,Nieuw-Loosdrecht,,AF,--3-----,,52.1997662,5.1391839,true
NL,NMG,Nieuw-Millingen,Nieuw-Millingen,GE,RQ,--3-----,,52.21666666666667,5.766666666666667,
NL,NWO,Nieuwolda,Nieuwolda,GR,RN,1-3-----,,53.25,6.983333333333333,
NL,NWP,Nieuwpoort,Nieuwpoort,,AF,--3-----,,51.9353893,4.868505,true
NL,NSD,Nieuw-Scheemda,Nieuw-Scheemda,GR,RN,1-3-----,,53.2,6.933333333333334,
NL,NWS,Nieuwstadt,Nieuwstadt,,RL,--3-----,,51.0375846,5.8607207,true
NL,NWV,Nieuwveen,Nieuwveen,,RL,-23-----,,52.1966234,4.7562198,true
NL,NVP,Nieuw-Vennep,Nieuw-Vennep,,AF,--3-----,,52.266666666666666,4.633333333333333,
NL,NVO,Nieuw-Vossemeer,Nieuw-Vossemeer,NB,RN,--3--6--,,51.583333333333336,4.216666666666667,
NL,WEE,Nieuw-Weerdinge,Nieuw-Weerdinge,DR,RL,--3-----,,52.86666666666667,6.983333333333333,
NL,NZI,Niezijl,Niezijl,GR,RN,--3-----,,53.266666666666666,6.35,
NL,NFK,Niftrik,Niftrik,GE,RQ,--3--6--,,51.8,5.666666666666667,
NL,NGV,Nigtevecht,Nigtevecht,UT,RL,1-3-----,,52.28333333333333,5.033333333333333,
NL,NGA,Nijega,Nijega,,RQ,--3-----,,53.13333333333333,6.016666666666667,
NL,NHE,Nijehaske,Nijehaske,,RL,--3-----,,52.95,5.883333333333333,
NL,NMD,Nijemirdum,Nijemirdum,FR,RL,--3-----,,52.85,5.566666666666666,
NL,JEV,Nijeveen,Nijeveen,DR,RQ,-----6--,,52.733333333333334,6.166666666666667,
NL,NZJ,Nijezijl,Nijezijl,FR,RN,1-3-----,,53,5.616666666666667,
NL,NKK,Nijkerk,Nijkerk,,AF,1-3-----,,52.2219471,5.4824871,true
NL,NKV,Nijkerkerveen,Nijkerkerveen,,AF,--3-----,,52.195727,5.4673875,true
NL,NIJ,Nijmegen,Nijmegen,,AF,123-----,,51.842574850000005,5.838960628748229,true
NL,ZBG,Nijnsel,Nijnsel,NB,RL,-----6--,,51.55,5.483333333333333,
NL,NVD,Nijverdal,Nijverdal,,AF,--3-----,,52.359431,6.466514,true
NL,NIS,Nispen,Nispen,,AF,--3-----,,51.4823484,4.4616139,true
NL,NSS,Nisse,Nisse,,RQ,--3-----,,51.4572483,3.8537696,true
NL,NBN,Nissewaard,Nissewaard,ZH,RL,--3-----,,51.81666666666667,4.266666666666667,
NL,NTR,Nistelrode,Nistelrode,NB,RL,--3-----,,51.7,5.566666666666666,
NL,NGD,Nooit Gedacht,Nooit Gedacht,DR,RL,--3-----,,52.96666666666667,6.666666666666667,
NL,NMT,Noordbeemster,Noordbeemster,NH,RL,--3-----,,52.583333333333336,4.95,
NL,OOG,Noordbergum,Noordbergum,FR,RL,--3-----,,53.21666666666667,6.016666666666667,
NL,NOQ,Noord-Beveland,Noord-Beveland,ZE,RL,--3-----,,51.583333333333336,3.75,
NL,EOR,Noordbroek,Noordbroek,GR,RL,--3-----,,53.2,6.866666666666667,
NL,NZ8,Noordeloos,Noordeloos,ZH,RL,1----6--,,51.9,4.95,
NL,NDN,Noorden,Noorden,ZH,RL,--3-----,,52.166666666666664,4.833333333333333,
NL,NOV,Noordenveld,Noordenveld,DR,RL,--3-----,,53.13333333333333,6.433333333333334,
NL,NWE,Noordgouwe,Noordgouwe,ZE,RL,--3-----,,51.7,3.95,
NL,NDH,Noordhoek,Noordhoek,NB,RL,--3-----,,51.65,4.533333333333333,
NL,NHR,Noordhorn,Noordhorn,GR,AA,--3-----,,53.43333333333333,6.566666666666666,
NL,NOP,Noordoostpolder,Noordoostpolder,FL,RL,--3-----,,52.71666666666667,5.75,
NL,NSW,Noord-Scharwoude,Noord-Scharwoude,,AF,--3-----,,52.7031261,4.8111118,true
NL,NWJ,Noordwelle,Noordwelle,ZE,RL,1----6--,,51.71666666666667,3.8,
NL,NDW,Noordwijk,Noordwijk,GR,RL,--3-----,,53.166666666666664,6.25,
NL,NDL,Noordwijk aan Zee,Noordwijk aan Zee,,AF,1-------,,52.25,4.433333333333334,
NL,NOJ,Noordwijkerhout,Noordwijkerhout,,AF,--3-----,,52.2629093,4.490519,true
NL,NWD,Noordwolde,Noordwolde,FR,RQ,--3--6--,,52.88333333333333,6.133333333333334,
NL,NDP,Nootdorp,Nootdorp,,AF,--3-----,,52.0426094,4.3930456,true
NL,NRG,Norg,Norg,,RQ,123-5---,,53.05,6.45,
NL,NGN,Nuenen,Nuenen,NB,RL,--3-----,,51.46666666666667,5.55,
NL,NNN,Nuenen,Nuenen,,AF,--3-----,,51.4743021,5.5490439,true
NL,NUI,Nuis,Nuis,,AF,--3-----,,53.1514836,6.3011876,true
NL,NUL,Nuland,Nuland,NB,RQ,-----6--,,51.71666666666667,5.433333333333334,
NL,NUD,Numansdorp,Numansdorp,,AF,--3-----,,51.7266233,4.4374377,true
NL,NNM,Nunhem,Nunhem,LI,RQ,--3-----,,51.233333333333334,5.95,
NL,NUN,Nunspeet,Nunspeet,,AF,--3-----,,52.378571,5.780886,true
NL,NTH,Nuth,Nuth,,AF,--3-----,,50.9171887,5.8838254,true
NL,OBD,Obdam,Obdam,,RL,--3-----,,52.6761592,4.9083961,true
NL,OCC,Ochten,Ochten,,AF,--3-----,,51.9075735,5.5670692,true
NL,ODK,Odijk,Odijk,,AF,--3-----,,52.0493994,5.2345455,true
NL,ODL,Odiliapeel,Odiliapeel,NB,RQ,1----6--,,51.65,5.7,
NL,ODN,Odoorn,Odoorn,,RL,--3-----,,52.85,6.85,
NL,OGE,Oegstgeest,Oegstgeest,,AF,1-3-----,,52.1833669,4.472129402976295,true
NL,OGW,Offingawier,Offingawier,FR,RL,--3-----,,53.03333333333333,5.7,
NL,OEL,Ohï¿½ en Laak,Ohe en Laak,LI,RL,--3-----,,51.11666666666667,5.85,
NL,OIL,Oirlo,Oirlo,LI,RL,-23-----,,51.516666666666666,6.033333333333333,
NL,OIH,Oirschot,Oirschot,,AF,1-3-----,,51.5035638,5.310242,true
NL,OIW,Oisterwijk,Oisterwijk,,AF,--3-----,,51.5778742,5.1938101,true
NL,OBE,Olburgen,Olburgen,GE,RL,--3-----,,52.03333333333333,6.116666666666666,
NL,OWI,Oldambt,Oldambt,OV,RL,--3-----,,53.15,7.033333333333333,
NL,OLD,Oldeberkoop,Oldeberkoop,,AF,--3-----,,52.9384572,6.1301707,true
NL,OLB,Oldebroek,Oldebroek,GE,RL,--3-----,,52.43333333333333,5.883333333333333,
NL,ODD,Oldeholtpade,Oldeholtpade,FR,RL,-----6--,,52.9,6.05,
NL,OLE,Oldehove,Oldehove,GR,RL,--3-----,,53.3,6.4,
NL,OLK,Oldemarkt,Oldemarkt,,RL,--3-----,,52.8217263,5.9734672,true
NL,OLZ,Oldenzaal,Oldenzaal,,AF,-23-----,,52.30853685,6.914603743122237,true
NL,OWE,Oldeouwer,Oldeouwer,FL,RL,--3-----,,52.916666666666664,5.8,
NL,OSI,Olst,Olst,OV,RL,-23--6--,,52.333333333333336,6.116666666666666,
NL,OBK,Olst-Wijhe,Olst-Wijhe,LI,RL,--3-----,,52.333333333333336,6.116666666666666,
NL,OML,Ommel,Ommel,NB,RL,--3-----,,51.416666666666664,5.75,
NL,OMM,Ommen,Ommen,,AF,--3-----,,52.5208023,6.4251941,true
NL,ORE,Ommeren,Ommeren,GE,RQ,-----6--,,51.93333333333333,5.483333333333333,
NL,OOW,Onderbanken,Onderbanken,FR,RL,--3-----,,50.96666666666667,5.983333333333333,
NL,OOY,Ooij,Ooij,,AF,--3-----,,51.8544267,5.9389526,true
NL,OGP,Ooltgensplaat,Ooltgensplaat,ZH,RN,1-3-----,,51.68333333333333,4.35,
NL,OPT,Oost Gelre,Oost Gelre,FR,RL,--3-----,,51.983333333333334,6.566666666666666,
NL,OBG,Oostburg,Oostburg,ZE,RL,--3-----,,51.333333333333336,3.5,
NL,OSD,Oostdijk,Oostdijk,,AF,--3-----,,51.3433264,4.006308,true
NL,OOE,Oosteind,Oosteind,NB,RQ,-----6--,,51.63333333333333,4.9,
NL,OSB,Oosterbeek,Oosterbeek,,AF,--3-----,,51.9884489,5.8420484,true
NL,OSM,Oosterbierum,Oosterbierum,FR,RL,--3-----,,53.233333333333334,5.516666666666667,
NL,OER,Oosterblokker,Oosterblokker,NH,RL,--3-----,,52.666666666666664,5.116666666666666,
NL,OOD,Oosterend,Oosterend,NH,RL,--3-----,,53.083333333333336,4.883333333333333,
NL,OHN,Oosterhesselen,Oosterhesselen,DR,RN,--3-----,,52.75,6.733333333333333,
NL,OOS,Oosterhout,Oosterhout,NB,AF,1-3-----,,51.65,4.883333333333333,
NL,OTH,Oosterhout,Oosterhout,GE,RL,--3-----,,51.88333333333333,5.833333333333333,
NL,OTL,Oosterland,Oosterland,,RL,--3-----,,52.93333333333333,5,
NL,OLS,Oosterlittens,Oosterlittens,FR,RN,1-3-----,,53.13333333333333,5.65,
NL,OME,Oostermeer,Oostermeer,FR,RN,1-3-----,,53.166666666666664,6.05,
NL,OTK,Oosterstreek,Oosterstreek,FR,RQ,--3-----,,52.916666666666664,6.166666666666667,
NL,OSW,Oosterwolde,Oosterwolde,,RL,--3-----,,53,6.3,
NL,OHM,Oosthem,Oosthem,FR,RN,123-----,,53.016666666666666,5.6,
NL,OHZ,Oosthuizen,Oosthuizen,NH,RN,123-----,,52.56666666666667,5,
NL,OMH,Oostmahorn,Oostmahorn,FR,RL,1-3-----,,53.38333333333333,6.166666666666667,
NL,OST,Oostrum,Oostrum,FR,AM,--3-----,,51.5291637,6.0184647,true
NL,OTR,Oostrum,Oostrum,LI,AM,--3-----,,51.53333333333333,6.016666666666667,
NL,OSO,Oost-Souburg,Oost-Souburg,ZE,RL,--3-----,,51.46666666666667,3.6,
NL,OOL,Ooststellingwerf,Ooststellingwerf,GE,RL,--3-----,,53,6.3,
NL,OVN,Oostvoorne,Oostvoorne,,AF,--3-----,,51.914271,4.1038932,true
NL,NHO,Oostwoud,Oostwoud,NH,RL,--3-----,,52.733333333333334,55.083333333333336,
NL,OSZ,Oostzaan,Oostzaan,,RL,--3-----,,52.45,4.866666666666667,
NL,OOT,Ootmarsum,Ootmarsum,,AF,--3-----,,52.4075801,6.8968922,true
NL,ZBI,Ooy,Ooy,GE,RL,-----6--,,51.86666666666667,5.916666666666667,
NL,OPE,Opeinde,Opeinde,FR,RN,--3-----,,53.13333333333333,6.066666666666666,
NL,OPG,Opende,Opende,GR,RL,--3-----,,53.166666666666664,6.2,
NL,OPH,Ophemert,Ophemert,GE,RQ,-----6--,,52.4,5.633333333333333,
NL,OPD,Opheusden,Opheusden,GE,RL,--3-----,,51.93333333333333,5.633333333333333,
NL,OPL,Oploo,Oploo,NB,RL,--3-----,,51.6,5.883333333333333,
NL,ZBQ,Opmeer,Opmeer,NH,RL,-----6--,,52.7,4.95,
NL,OPP,Opperdoes,Opperdoes,NH,RL,--3-----,,52.766666666666666,5.083333333333333,
NL,OUT,Opsterland,Opsterland,GE,RL,--3-----,,53.06666666666667,6.083333333333333,
NL,OSP,Ospel,Ospel,,AF,--3-----,,51.29770375,5.774527928847776,true
NL,OSS,Oss,Oss,NB,AF,123-----,,51.766666666666666,5.533333333333333,
NL,OSH,Ossendrecht,Ossendrecht,,RL,--3--6--,,51.4,4.333333333333333,
NL,OZL,Ossenzijl,Ossenzijl,OV,RN,1-3-----,,52.8,5.916666666666667,
NL,ORL,Oterleek,Oterleek,NH,RN,1-3-----,,52.63333333333333,4.833333333333333,
NL,OUA,Oud Ade,Oud Ade,ZH,RQ,-----6--,,52.18333333333333,4.55,
NL,OGN,Oud Gein,Oud Gein,,RQ,1-3-----,,50.85417,5.85417,true
NL,A2Z,Oud-Alblas,Oud-Alblas,ZH,RL,1----6--,,51.85,4.7,
NL,OBL,Oud-Beijerland,Oud-Beijerland,,AF,1-3-----,,51.8214436,4.4164728,true
NL,ODU,Ouddorp,Ouddorp,ZH,RL,--3-----,,51.81666666666667,3.9333333333333336,
NL,OBZ,Oude Bildtzijl,Oude Bildtzijl,FR,RQ,-----6--,,53.3,5.716666666666667,
NL,OAT,Oude Ijsselstreek,Oude Ijsselstreek,NH,RL,--3-----,,51.88333333333333,6.383333333333334,
NL,PRW,Oude Leije,Oude Leije,FR,RL,--3-----,,53.3,5.733333333333333,
NL,ZBH,Oude Leye,Oude Leye,FR,RL,-----6--,,53.28333333333333,5.716666666666667,
NL,OUM,Oude Meer,Oude Meer,NH,RL,--3-----,,52.28333333333333,4.766666666666667,
NL,6LN,Oude Niedorp,Oude Niedorp,NH,RL,--3-----,,52.71666666666667,4.866666666666667,
NL,ODP,Oude Pekela,Oude Pekela,,AF,--3-----,,53.1074318,7.013857,true
NL,OHW,Oude Schouw,Oude Schouw,FR,RN,123-----,,53.06666666666667,5.816666666666666,
NL,OWG,Oude Wetering,Oude Wetering,OV,RL,-----6--,,52.56666666666667,6.033333333333333,
NL,OGA,Oudega,Oudega,,RL,123--6--,,53,5.55,
NL,OHE,Oudehaske,Oudehaske,FR,RL,--3-----,,52.95,5.866666666666667,
NL,OMR,Oudemirdum,Oudemirdum,FR,RL,--3-----,,52.85,5.516666666666667,
NL,OMO,Oudemolen,Oudemolen,NB,RL,--3-----,,51.65,4.466666666666667,
NL,OBO,Oudenbosch,Oudenbosch,,AF,--3-----,,51.5889415,4.5278916,true
NL,ODJ,Oudendijk,Oudendijk,NH,RQ,--3-----,,52.6,4.966666666666667,
NL,ODH,Oudenhoorn,Oudenhoorn,,AF,--3-----,,51.827767,4.191577,true
NL,ORJ,Oudenrijn,Oudenrijn,UT,RN,123-----,,52.083333333333336,5.066666666666666,
NL,ODR,Ouderkerk aan de Amstel,Ouderkerk aan de Amstel,NH,RN,123-----,,52.3,4.9,
NL,OAI,Ouderkerk aan den IJssel,Ouderkerk aan den IJssel,ZH,AF,--3--6--,,51.93333333333333,4.633333333333333,
NL,OHI,Oudeschild,Oudeschild,NH,RN,1-3-----,,53.03333333333333,4.866666666666667,
NL,OSL,Oudesluis,Oudesluis,ZH,RN,-23-----,,51.766666666666666,4.45,
NL,ODT,Oude-Tonge,Oude-Tonge,,AF,--3-----,,51.6914369,4.2138731,true
NL,ODW,Oudewater,Oudewater,,AF,--3-----,,52.02015625,4.896559775204166,true
NL,OUG,Oud-Gastel,Oud-Gastel,,AF,--3-----,,51.583333333333336,4.466666666666667,
NL,OKP,Oudkarspel,Oudkarspel,NH,RL,--3-----,,52.7,4.8,
NL,OLO,Oud-Loosdrecht,Oud-Loosdrecht,NH,RL,--3-----,,52.21666666666667,5.083333333333333,
NL,OUD,Oudorp,Oudorp,NH,RQ,-----6--,,52.63333333333333,4.766666666666667,
NL,OSG,Oud-Sabbinge,Oud-Sabbinge,ZE,RN,1-3-----,,51.53333333333333,3.8,
NL,OVM,Oud-Vossemeer,Oud-Vossemeer,,AF,--3-----,,51.5701636,4.1988617,true
NL,OVR,Oud-Vroenhoven,Oud-Vroenhoven,,AF,--3-----,,50.833333333333336,5.65,
NL,OZU,Oud-Zuilen,Oud-Zuilen,UT,RN,123-----,,52.13333333333333,5.066666666666666,
NL,OWK,Ouwerkerk,Ouwerkerk,ZE,RL,--3-----,,51.63333333333333,3.9833333333333334,
NL,OAS,Overasselt,Overasselt,GE,RQ,--3-----,,51.75,5.783333333333333,
NL,OVG,Overberg,Overberg,UT,RQ,1----6--,,52.03333333333333,5.5,
NL,OOV,Overdinkel,Overdinkel,OV,RQ,--3--6--,,52.233333333333334,7.033333333333333,
NL,OVL,Overloon,Overloon,,RL,--3-----,,51.56666666666667,5.95,
NL,OSK,Overschild,Overschild,GR,RN,1-3-----,,53.28333333333333,6.783333333333333,
NL,OVE,Overvecht,Overvecht,UT,RL,--3-----,,52.11666666666667,5.116666666666666,
NL,OVV,Overveen,Overveen,NH,RQ,-----6--,,52.38333333333333,4.6,
NL,OVZ,Ovezande,Ovezande,,AF,--3-----,,51.4287982,3.8244515,true
NL,PHL,Panheel,Panheel,,RL,1-3-----,,51.18333333333333,5.866666666666667,
NL,PNN,Pannerden,Pannerden,GE,RL,--3-----,,51.88333333333333,6.05,
NL,PAN,Panningen,Panningen,,AF,--3-----,,51.3287995,5.9819406,true
NL,PAP,Papendrecht,Papendrecht,,AF,1-3-----,QYT,51.834666999999996,4.704688255674374,true
NL,PAT,Paterswolde,Paterswolde,DR,RL,--3-----,,53.166666666666664,6.566666666666666,
NL,PEE,Peel en Maas,Peel en Maas,LI,RL,--3-----,,51.333333333333336,5.983333333333333,
NL,PET,Peest,Peest,DR,RL,--3-----,,53.06666666666667,6.5,
NL,PIZ,Peize,Peize,DR,RL,-----6--,,53.15,6.5,
NL,PEK,Pekela,Pekela,GR,RL,--3-----,,53.1,7,
NL,PER,Pernis,Pernis,ZH,AF,123-----,,51.88333333333333,4.383333333333334,
NL,PSE,Pesse,Pesse,DR,RL,--3-----,,52.766666666666666,6.45,
NL,PTT,Petten,Petten,,AF,--3-----,,52.7685974,4.6626091,true
NL,ZBM,Philippine,Philippine,ZE,RL,-----6--,,51.28333333333333,3.7666666666666666,
NL,PSI,Piershil,Piershil,ZH,RL,--3-----,,51.8,4.316666666666666,
NL,PZI,Pieterzijl,Pieterzijl,GR,RN,1-3-----,,53.28333333333333,6.266666666666667,
NL,PIJ,Pijnacker,Pijnacker,,AF,--3-----,,52.0200581,4.434186,true
NL,PIN,Pijnacker-Nootdorp,Pijnacker-Nootdorp,ZH,RL,--3-----,,52.016666666666666,4.433333333333334,
NL,ZBN,Pingjum,Pingjum,FR,RL,-----6--,,53.11666666666667,5.433333333333334,
NL,PDJ,Poederoijen,Poederoijen,,RL,--3--6--,,51.78333333333333,5.083333333333333,
NL,PDK,Poeldijk,Poeldijk,,AF,--3-----,,52.0225167,4.218242,true
NL,UTP,Polsbroek,Polsbroek,UT,RQ,-----6--,,51.983333333333334,45.166666666666664,
NL,PTG,Poortugaal,Poortugaal,ZH,RL,123--6--,,51.86666666666667,4.4,
NL,PVT,Poortvliet,Poortvliet,,RL,--3-----,,51.544873,4.1439401,true
NL,PRB,Prinsenbeek,Prinsenbeek,,AF,--3-----,,51.6003459,4.718556,true
NL,PUM,Purmerend,Purmerend,,AF,1-3-----,,52.5422,4.904963585746188,true
NL,PUT,Putte,Putte,,AF,--3-----,,51.3593981,4.3957625,true
NL,PTN,Putten,Putten,,RL,--3-----,,52.25,5.6,
NL,PTK,Puttershoek,Puttershoek,ZH,RL,-----6--,,51.8,4.566666666666666,
NL,QDS,Raalte,Raalte,,AF,1-3-----,,52.385675,6.271781,true
NL,RAA,Raamsdonksveer,Raamsdonksveer,NB,AF,--3-----,,51.7,4.9,
NL,RDK,Ramsdonk,Ramsdonk,NB,RL,--3-----,,51.68333333333333,4.916666666666667,
NL,RPL,Ramspol,Ramspol,OV,RQ,1-3-----,,52.6092319,5.8439096,true
NL,RAS,Ravenstein,Ravenstein,,AF,1-3-----,,51.797005,5.6515519,true
NL,REK,Reek,Reek,NB,RL,--3-----,,51.75,5.683333333333334,
NL,RUW,Reeuwijk,Reeuwijk,,AF,--3-----,,52.0449873,4.7224789,true
NL,REI,Reid,Reid,FR,RL,--3-----,,53.21666666666667,5.583333333333333,
NL,REW,Reimerswaal,Reimerswaal,,AI,1-------,,51.44300185,4.101441031156753,true
NL,RNS,Renesse,Renesse,ZE,RQ,-----6--,,51.71666666666667,3.7666666666666666,
NL,RNK,Renkum,Renkum,,AF,1-3-----,,51.9751065,5.7335691,true
NL,RWD,Renswoude,Renswoude,UT,RL,--3-----,,52.083333333333336,5.533333333333333,
NL,NLD,Ressen,Ressen,GE,RL,-----6--,,51.9,5.866666666666667,
NL,RET,Retranchement,Retranchement,ZE,AA,--3-----,,51.35,3.3833333333333333,
NL,RDM,Reusel-De Mierden,Reusel-De Mierden,NB,RL,--3-----,,51.36666666666667,5.166666666666667,
NL,REU,Reuver,Reuver,,AF,--3-----,,51.2839322,6.0779742,true
NL,RHD,Rheden,Rheden,,AF,1-3-----,,52.0043836,6.0302806,true
NL,RHE,Rhenen,Rhenen,,AF,--3-----,,51.980847600000004,5.5745623668309925,true
NL,RHO,Rhoon,Rhoon,,AF,--3-----,,51.8569948,4.4236815,true
NL,RID,Ridderkerk,Ridderkerk,,AF,1-3-----,,51.8709913,4.592647897485351,true
NL,RED,Ried,Ried,NB,RN,1-3-----,,51.516666666666666,5.016666666666667,
NL,RIE,Riel,Riel,,AF,--3-----,,51.5258394,5.023454,true
NL,RTH,Riethoven,Riethoven,,RL,--3-----,,51.35,5.383333333333334,
NL,RJE,Rijen,Rijen,,AF,--3-----,,51.5879873,4.9194511,true
NL,RJV,Rijkevoort,Rijkevoort,,RQ,--3-----,,51.6576195,5.885017,true
NL,RSW,Rijnsaterwoude,Rijnsaterwoude,,RQ,1-------,,52.2,4.666666666666667,
NL,RBG,Rijnsburg,Rijnsburg,,AF,1-3-----,,52.1893268,4.438952,true
NL,RIW,Rijnwaarden,Rijnwaarden,GE,RL,--3-----,,51.86666666666667,6.116666666666666,
NL,RWI,Rijpwetering,Rijpwetering,ZH,RL,--3--6--,,52.2,4.583333333333333,
NL,RIJ,Rijs,Rijs,FR,RL,1-3-----,,52.86666666666667,5.5,
NL,RYB,Rijsbergen,Rijsbergen,,AF,--3-----,,52.2844986,5.2439745,true
NL,RSH,Rijsenhout,Rijsenhout,,RL,1-3-----,,52.25,4.716666666666667,
NL,RJS,Rijssen,Rijssen,,AF,--3-----,,52.3080276,6.5213004,true
NL,RIH,Rijssen-Holten,Rijssen-Holten,OV,RL,--3-----,,52.3,6.516666666666667,
NL,RYS,Rijswijk,Rijswijk,,AF,1-3-----,,52.0446265,4.3188215,true
NL,RLA,Rilland,Rilland,ZE,RN,123-----,,51.416666666666664,4.183333333333334,
NL,RGT,Rinsumageest,Rinsumageest,FR,RL,--3-----,,53.3,5.95,
NL,XXX,RIS Inland waterways,RIS Inland waterways,,AI,1-------,,,,
NL,RTT,Ritthem,Ritthem,ZE,RL,--3-----,,51.45,3.6333333333333333,
NL,RBO,Robbenoord,Robbenoord,NH,RQ,1-3-----,,,,
NL,ROC,Rockanje,Rockanje,ZH,RL,1-3-----,,51.86666666666667,4.066666666666666,
NL,ROD,Roden,Roden,,AF,--3-----,,53.1405378,6.4275196,true
NL,ROR,Rodenrijs,Rodenrijs,,AF,--3-----,,51.99221,4.477005,true
NL,RAV,Roelofarendsveen,Roelofarendsveen,,AF,--3-----,,52.2027173,4.6312402,true
NL,ROE,Roerdalen,Roerdalen,LI,RL,--3-----,,51.15,6,
NL,OMD,Roermond,Roermond,,AF,1-3-----,,51.20866975,6.017502562991365,true
NL,RG2,Rogat,Rogat,DR,RL,--3-----,,52.68333333333333,6.266666666666667,
NL,ROG,Roggel,Roggel,,AF,--3-----,,51.2641488,5.9254491,true
NL,ROL,Rolde,Rolde,,RQ,--3-5---,,52.983333333333334,6.633333333333333,
NL,RDS,Roodeschool,Roodeschool,GR,RL,--3-----,,53.416666666666664,6.766666666666667,
NL,RSL,Roompotsluis,Roompotsluis,,AF,1-3-----,,,,
NL,RDH,Roordahuizum,Roordahuizum,FR,RL,--3-----,,53.11666666666667,5.8,
NL,ROO,Roosendaal,Roosendaal,NB,AF,-23-5---,ZYO,51.53333333333333,4.466666666666667,
NL,RST,Roosteren,Roosteren,LI,RN,1-3-----,,51.083333333333336,5.816666666666666,
NL,RMA,Rosmalen,Rosmalen,,AF,--3-----,,51.71866,5.3629244,true
NL,GRM,Rossum,Rossum,GE,RL,--3-----,,51.8,5.333333333333333,
NL,RTM,Rotterdam,Rotterdam,ZH,AF,12345---,,51.916666666666664,4.5,
NL,RTU,Rottum,Rottum,FR,RL,--3-----,,52.93333333333333,5.9,
NL,REE,Rouveen,Rouveen,OV,RL,--3-----,,52.61666666666667,6.183333333333334,
NL,ROZ,Rozenburg,Rozenburg,,AF,1-------,,51.918645850000004,4.190111147794226,true
NL,RZG,Rozenburg,Rozenburg,NH,RL,--3-----,,52.28333333333333,4.733333333333333,
NL,RZD,Rozendaal,Rozendaal,,AF,--3-----,,52.0030774,5.9601408,true
NL,RCP,Rucphen,Rucphen,,AF,--3-----,,51.5330913,4.5589604,true
NL,RUI,Ruinen,Ruinen,DR,RL,--3-5---,,52.766666666666666,6.35,
NL,RWO,Ruinerwold,Ruinerwold,DR,RL,--3-----,,52.71666666666667,6.25,
NL,RUM,Rumpt,Rumpt,,AF,--3-----,,51.885759,5.1762105,true
NL,RTG,Rustenburg,Rustenburg,NH,RN,1-3-----,,52.63333333333333,4.883333333333333,
NL,RUT,Rutten,Rutten,FL,RN,1-3-----,,52.8,5.7,
NL,RRO,Ruurlo,Ruurlo,GE,RL,--3-----,,52.083333333333336,6.45,
NL,HAK,S Heer Arendskerke,S Heer Arendskerke,ZE,RQ,-----6--,,51.5,4,
NL,SVE,Saasveld,Saasveld,OV,RL,--3-----,,52.333333333333336,6.816666666666666,
NL,SAB,Saba,Saba,,RL,1-------,,17.633333333333333,-63.233333333333334,
NL,SMB,Sambeek,Sambeek,NB,RN,-23-----,,51.63333333333333,5.966666666666667,
NL,STC,Santpoort-Noord,Santpoort-Noord,NH,RL,--3-----,,52.43333333333333,4.633333333333333,
NL,SAP,Sappemeer,Sappemeer,,AF,--3-----,,53.1642791,6.7960954,true
NL,SVG,Sas van Gent,Sas van Gent,,AF,1-3-----,,51.233333333333334,3.8,
NL,SAS,Sassenheim,Sassenheim,,AF,--3-----,,52.2246356,4.5199218,true
NL,SCH,Schagen,Schagen,,RL,1-3-----,,52.78333333333333,4.783333333333333,
NL,SBU,Schagerbrug,Schagerbrug,NH,RN,1-3-----,,52.8,4.766666666666667,
NL,SCJ,Schaijk,Schaijk,NB,RQ,--3--6--,,51.75,5.633333333333333,
NL,SKW,Schalkwijk,Schalkwijk,UT,RN,1-3-----,,51.983333333333334,5.183333333333334,
NL,SRD,Scharendijke,Scharendijke,ZE,RL,1-3-----,,51.733333333333334,3.85,
NL,SFR,Scharnegoutum,Scharnegoutum,FR,RL,--3-----,,53.06666666666667,5.683333333333334,
NL,SBG,Scharsterbrug,Scharsterbrug,FR,RL,--3-----,,52.93333333333333,5.766666666666667,
NL,SMD,Scheemda,Scheemda,,AF,1-3-----,,53.177619,6.971654,true
NL,SMZ,Scheemderzwaag,Scheemderzwaag,GR,RN,123-----,,53.18333333333333,6.95,
NL,SLH,Schellinkhout,Schellinkhout,,RQ,-----6--,,52.63333333333333,5.116666666666666,
NL,SLN,Schelluinen,Schelluinen,ZH,RQ,--3-----,,51.833333333333336,4.916666666666667,
NL,SHO,Schermerhorn,Schermerhorn,NH,RN,1-3-----,,52.6,4.883333333333333,
NL,ZE5,Scherpenisse,Scherpenisse,ZE,RL,1----6--,,51.55,4.1,
NL,SRP,Scherpenzeel,Scherpenzeel,,AF,--3-----,,52.083333333333336,5.483333333333333,
NL,SCE,Scheveningen,Scheveningen,,AF,1-3-----,,52.1,4.25,
NL,SCI,Schiedam,Schiedam,,AF,123-----,,51.9300454,4.386451052615731,true
NL,SMO,Schiermonnikoog,Schiermonnikoog,FR,RL,1-3-----,,53.483333333333334,6.166666666666667,
NL,SCY,Schijf,Schijf,NB,RQ,-----6--,,51.483333333333334,4.55,
NL,SND,Schijndel,Schijndel,,AF,1-3-----,,51.6176954,5.4362541,true
NL,SDW,Schildwolde,Schildwolde,GR,RN,1-3-----,,53.233333333333334,6.816666666666666,
NL,SCM,Schimmert,Schimmert,LI,RL,--3-----,,50.916666666666664,5.833333333333333,
NL,SOG,Schin op Geul,Schin op Geul,,AF,--3-----,,50.85,5.883333333333333,
NL,SCN,Schinnen,Schinnen,,AF,--3-----,,50.9425257,5.8861938,true
NL,SVD,Schinveld,Schinveld,LI,RL,--3-----,,50.96666666666667,5.983333333333333,
NL,SPL,Schiphol,Schiphol,,AF,--3-----,,52.3080392,4.7621975,true
NL,SRK,Schiphol-Rijk,Schiphol-Rijk,,RQ,--3-----,,52.280731599999996,4.762470711580527,true
NL,SCT,Schiphorst,Schiphorst,DR,RL,--3-----,,52.68333333333333,6.25,
NL,SCP,Schipluiden,Schipluiden,,RL,--3-----,,51.983333333333334,4.3,
NL,SCO,Schoondijke,Schoondijke,ZE,RL,--3-----,,51.35,3.55,
NL,SCB,Schoonebeek,Schoonebeek,,AF,--3-----,,52.6642696,6.8847692,true
NL,SHH,Schoonhoven,Schoonhoven,,AF,1-3-----,,51.9463984,4.8516431,true
NL,SC2,Schoonoord,Schoonoord,DR,RL,--3-----,,52.85,6.75,
NL,SOR,Schoor,Schoor,LI,RN,--3-----,,51.5,6,
NL,SRL,Schoorl,Schoorl,NH,RL,1-------,,52.733333333333334,4.633333333333333,
NL,SZL,Schoterzijl,Schoterzijl,OV,RN,1-3-----,,52.81666666666667,5.8,
NL,SWD,Schouwen-Duiveland,Schouwen-Duiveland,ZE,RL,--3-----,,51.65,6.916666666666667,
NL,SWL,Schouwerzijl,Schouwerzijl,GR,RN,1-3-----,,53.333333333333336,6.45,
NL,SER,Serooskerke,Serooskerke,ZE,RL,--3-----,,51.55,3.6,
NL,SVM,Sevenum,Sevenum,LI,RL,--3-----,,51.416666666666664,6.033333333333333,
NL,SBM,Sexbierum,Sexbierum,FL,RL,--3-----,,53.21666666666667,5.483333333333333,
NL,SGL,'s-Graveland,'s-Graveland,NH,RL,--3-----,,52.233333333333334,5.116666666666666,
NL,GRA,'s-Gravendeel,'s-Gravendeel,ZH,AF,1-------,,51.78333333333333,4.616666666666667,
NL,SGM,'s-Gravenmoer,'s-Gravenmoer,NB,AF,--3-----,,51.666666666666664,4.8,
NL,SGP,'s-Gravenpolder,'s-Gravenpolder,ZE,AF,--3--6--,,51.45,3.9,
NL,GRZ,'s-Gravenzande,'s-Gravenzande,ZH,AF,1-3-----,,52,4.166666666666667,
NL,HDR,'s-Heer-Arendskerke,'s-Heer-Arendskerke,ZE,RL,--3-----,,51.5,3.8166666666666664,
NL,HRB,'s-Heerenberg,'s-Heerenberg,GE,AF,--3--6-B,,51.88333333333333,6.25,
NL,SHB,'s-Heerenbroek,'s-Heerenbroek,OV,AF,--3-----,,52.53333333333333,6.016666666666667,
NL,SHE,'s-Heerenhoek,'s-Heerenhoek,ZE,AF,--3-----,,51.45,3.7666666666666666,
NL,SHR,s-Heer-Hendrikskinderen,s-Heer-Hendrikskinderen,ZE,RL,--3-----,,51.5,3.8666666666666667,
NL,HTB,'s-Hertogenbosch,'s-Hertogenbosch,NB,AF,123-----,,51.7,5.316666666666666,
NL,SDD,Siddeburen,Siddeburen,GR,RL,--3-----,,53.25,6.866666666666667,
NL,SRB,Sijbrandaburen,Sijbrandaburen,FR,RL,--3-----,,53.06666666666667,5.716666666666667,
NL,SBS,Sijbrandahuis,Sijbrandahuis,FR,RN,1-3-----,,53.31666666666667,5.966666666666667,
NL,SIV,Silvolde,Silvolde,,AF,--3-----,,51.9134729,6.386857,true
NL,SIM,Simpelveld,Simpelveld,LI,RL,-23-----,,50.833333333333336,5.983333333333333,
NL,SAR,Sint Andries,Sint Andries,GE,RN,1-3-----,,51.8,5.35,
NL,SAN,Sint Annaparochie,Sint Annaparochie,FR,RL,--3-----,,53.28333333333333,5.666666666666667,
NL,SIN,Sint Anthonis,Sint Anthonis,NB,RL,--3-----,,51.63333333333333,5.883333333333333,
NL,SUD,Sint Cloud,Sint Cloud,,RL,--3-----,,51.627053,5.881301,true
NL,SJP,Sint Jacobiparochie,Sint Jacobiparochie,FR,RL,--3-----,,53.266666666666666,5.6,
NL,TEE,Sint Jansteen,Sint Jansteen,ZE,RQ,-----6--,,51.2620302,4.0520276,true
NL,SMN,Sint Maarten,Sint Maarten,NH,RL,--3-----,,52.766666666666666,4.75,
