country,location,name,nameWoDiacritics,subdivision,status,function,iata,lat,lon,geocoded
PG,ABW,Abau,Abau,,AI,1--4----,,,,
PG,AFR,Afore,Afore,,AI,---4----,,-9.138344750000002,148.39097141857889,true
PG,AUP,Agaun,Agaun,,AI,---4----,,-9.9274741,149.39037940175524,true
PG,AHO,Ahioma,Ahioma,,RL,1-------,,-10.3237242,150.5028902,true
PG,AIA,Aiambak,Aiambak,WPD,RL,1-------,,-7.35,141.26666666666668,
PG,AIE,Aiome,Aiome,,AI,---4----,,-5.138756600000001,144.73309968326924,true
PG,ATP,Aitape,Aitape,,AI,---4----,,-3.1413163500000003,142.34649996759546,true
PG,AYU,Aiyura,Aiyura,,AI,---4----,,-6.3366412,145.90298982972382,true
PG,AKI,Akinum,Akinum,,QQ,1-------,,-6.2687334,149.7345298,true
PG,ALC,Alcester Island,Alcester Island,MBA,RQ,1-------,,-9.566666666666666,152.45,
PG,GUR,Alotau,Alotau,,AI,1--4----,,-10.3060931,150.4464005,true
PG,AMF,Ama,Ama,,AI,---4----,,-4.1015945,141.6703234132665,true
PG,AMU,Amanab,Amanab,,AI,---4----,,-3.58802465,141.21486283256857,true
PG,AZB,Amazon Bay,Amazon Bay,,AI,---4----,,-10.25,150.41667,true
PG,AMG,Amboin,Amboin,,AI,---4----,,-4.5968995,143.52293596367795,true
PG,AUJ,Ambunti,Ambunti,,AI,---4----,,-4.21622725,142.82368032181216,true
PG,AMI,Amio,Amio,EBR,RL,1-------,,-6.116666666666666,150.75,
PG,ADC,Andakombe,Andakombe,,RL,---4----,,-7.133333333333334,145.73333333333332,
PG,ANB,Anewa Bay,Anewa Bay,NSB,RL,1-------,,-6.2,155.55,
PG,AGG,Angoram,Angoram,,AI,---4----,,-4.0576345,144.07379299928292,true
PG,AKG,Anguganak,Anguganak,,AI,---4----,,-3.5607298,142.21748412326326,true
PG,AOB,Annanberg,Annanberg,,AI,---4----,,-4.88874,144.61601,true
PG,APR,April River,April River,,AI,---4----,,-4.6761605,142.53987197608575,true
PG,ARP,Aragip,Aragip,,AI,---4----,,-9.87328915,149.48306667669368,true
PG,RAW,Arawa,Arawa,,AI,---45---,,-6.216666666666667,155.55,
PG,AOA,Aroa,Aroa,,AI,---4----,,-9.05,146.8,true
PG,AON,Arona,Arona,,AI,---4----,,-6.2664027,146.0211838,true
PG,APP,Asapa,Asapa,,AI,---4----,,-8.97966935,148.1030075389151,true
PG,AEK,Aseki,Aseki,,AI,---4----,,-7.35184505,146.19432916826815,true
PG,ASZ,Asirim,Asirim,,AI,---4----,,-6.0101495499999995,150.36918934182904,true
PG,ABP,Atkamba,Atkamba,,AI,---4----,,-6.0647021500000005,141.09521515526734,true
PG,AUI,Aua Island,Aua Island,,AI,---4----,,,,
PG,AUV,Aumo,Aumo,,AI,---4----,,-5.7278249,148.4458293285261,true
PG,AWB,Awaba,Awaba,,AI,---4----,,-8.012969250000001,142.75219131515533,true
PG,AWR,Awar,Awar,,AI,---4----,,-4.1432493,144.8421025,true
PG,BAP,Baibara,Baibara,,AI,---4----,,,,
PG,VMU,Baimuru,Baimuru,,AI,---4----,,-7.4972747,144.82143109558854,true
PG,BDZ,Baindoung,Baindoung,,AI,---4----,,-6.346974149999999,146.94186235339149,true
PG,BAJ,Bali,Bali,,AI,---4----,,-3.61503,142.92355,true
PG,OPU,Balimo,Balimo,,AI,---4----,,-8.050463350000001,142.9373403906789,true
PG,BCP,Bambu,Bambu,,AI,---4----,,-5.8632507,146.49327607781856,true
PG,BMZ,Bamu,Bamu,,AI,---4----,,,,
PG,BNZ,Banz,Banz,,AI,---4----,,-5.7998015,144.6283045,true
PG,BPD,Bapi,Bapi,,AI,---4----,,-7.7435241999999995,147.02074083466863,true
PG,BWJ,Bawan,Bawan,,AI,---4----,,-6.3989861,146.8891735,true
PG,BSP,Bensbach,Bensbach,,AI,---4----,,,,
PG,BEA,Bereina,Bereina,,AI,---4----,,-8.6377859,146.5107874,true
PG,BWP,Bewani,Bewani,,AI,---4----,,-3.0210571,141.16460270691974,true
PG,BAA,Bialla,Bialla,,AI,---4----,,-5.3315012500000005,151.00962156530997,true
PG,BPK,Biangabip,Biangabip,,RL,---4----,,-6.066666666666666,144.93333333333334,
PG,BRP,Biaru,Biaru,,AI,---4----,,-8.50302,146.32549,true
PG,BIJ,Biliau,Biliau,,AI,---4----,,-5.209680349999999,145.78660452599757,true
PG,BIZ,Bimin,Bimin,,AI,---4----,,-5.2744497500000005,142.03363388716463,true
PG,XBN,Biniguni,Biniguni,,AI,---4----,,-9.6510036,149.305459,true
PG,BNV,Boana,Boana,,AI,---4----,,-6.4319278,146.8238559,true
PG,BOV,Boang,Boang,,AI,---4----,,-3.38254995,153.28074279237575,true
PG,BNM,Bodinumu,Bodinumu,,AI,---4----,,-9.13600595,147.669050853269,true
PG,BOI,Boigu Island,Boigu Island,WPD,RQ,1-------,,-9.266666666666667,142.21666666666667,
PG,BOQ,Boku,Boku,,AI,---4----,,-6.54143,155.3430531,true
PG,BVP,Bolovip,Bolovip,,AI,---4----,,,,
PG,BMH,Bomai,Bomai,,AI,---4----,,-6.3744634,144.63666874532348,true
PG,BPB,Boridi,Boridi,,AI,---4----,,-9.079483750000001,147.60162335436354,true
PG,BOR,Boroko,Boroko,,AI,1---5---,,-9.4701132,147.1992404,true
PG,BOT,Boset,Boset,,AI,---4----,,,,
PG,BRH,Brahman,Brahman,,AI,---4----,,-5.74096895,145.37853070906428,true
PG,UBI,Buin,Buin,,AI,---4----,,-6.7318647,155.68458178648177,true
PG,BUA,Buka,Buka,,AI,1--4----,,-5.4221082,154.6732872176393,true
PG,BUL,Bulolo,Bulolo,,AI,---4----,,-7.2157428,146.65089345011148,true
PG,BNA,Buna,Buna,,QQ,1-------,,-3.974879,141.2640262,true
PG,BNT,Bundi,Bundi,,AI,---4----,,-5.7415262,145.2278315116041,true
PG,BXZ,Bunsil,Bunsil,,AI,---4----,,-5.7239684,147.86660611449997,true
PG,CGC,Cape Gloucester,Cape Gloucester,,AI,---4----,,-10.23267,150.86382,true
PG,CPI,Cape Orford,Cape Orford,,AI,---4----,,-10.23267,150.86382,true
PG,CPN,Cape Rodney,Cape Rodney,,AI,---4----,,-10.23267,150.86382,true
PG,CVL,Cape Vogel,Cape Vogel,,AI,---4----,,-10.23267,150.86382,true
PG,CAU,Caution Bay,Caution Bay,CPM,RL,1-------,,-9.333333333333334,146.93333333333334,
PG,CVB,Chungribu,Chungribu,,AI,---4----,,-4.80661,144.7151467882967,true
PG,CFG,Conflict Group,Conflict Group,MBA,RQ,1-------,,-10.783333333333333,151.8,
PG,DAO,Dabo,Dabo,,RQ,---4----,,13.133333333333333,42.166666666666664,
PG,DLB,Dalbertis,Dalbertis,,AI,---4----,,,,
PG,DAU,Daru,Daru,,AI,1--4----,,-9.0867784,143.20802798076775,true
PG,DGG,Daugo,Daugo,,AI,---4----,,,,
PG,DAF,Daup,Daup,,AI,---4----,,-4.7415706,145.9494677,true
PG,DBP,Debepare,Debepare,,AI,---4----,,,,
PG,DBL,Deboyne Lagoon,Deboyne Lagoon,MBA,RQ,1-------,,-10.783333333333333,152.4,
PG,DER,Derim,Derim,,AI,---4----,,-6.144745,147.1069249842426,true
PG,DNU,Dinangat,Dinangat,,AI,---4----,,-6.154976,146.67772983119903,true
PG,DOS,Dios,Dios,,AI,---4----,,-5.5341134,154.9648731,true
PG,DDM,Dodoima,Dodoima,,AI,---4----,,,,
PG,DOI,Doini,Doini,,AI,---4----,,,,
PG,DOO,Dorobisoro,Dorobisoro,,AI,---4----,,,,
PG,DPU,Dumpu,Dumpu,,AI,---4----,,-5.8547291,145.7342515,true
PG,EFG,Efogi,Efogi,,AI,---4----,,-9.15387675,147.65978633948168,true
PG,EIA,Eia,Eia,,AI,---4----,,-8.10818,147.61359,true
PG,EPT,Eliptamin,Eliptamin,,AI,---4----,,-5.04175185,141.67831062764958,true
PG,EMS,Embessa,Embessa,,AI,---4----,,-9.446403199999999,148.7633086644547,true
PG,EMI,Emirau,Emirau,,AI,---4----,,-1.65217065,149.96822611350206,true
PG,EMO,Emo,Emo,,AI,---4----,,-6.60047,145.449,true
PG,EGA,Engati,Engati,,AI,---4----,,-6.917968050000001,146.10562831870763,true
PG,ERE,Erave,Erave,,AI,---4----,,-6.6073534,143.90287710768456,true
PG,ERU,Erume,Erume,,AI,---4----,,,,
PG,ESA,Esa'ala,Esa'ala,,AI,---4----,,-9.7390575,150.8181695,true
PG,FNE,Fane,Fane,,AI,---4----,,-8.54911885,147.08610861555798,true
PG,FRQ,Feramin,Feramin,,AI,---4----,,-5.207921750000001,141.69865841991543,true
PG,FIN,Finschhafen,Finschhafen,,AI,1--4----,,-6.6207767,147.85379949905618,true
PG,FAQ,Freida River,Freida River,,AI,---4----,,,,
PG,FUB,Fulleborn,Fulleborn,,AI,1--4----,,-6.13333,150.63333,true
PG,FUM,Fuma,Fuma,,AI,---4----,,,,
PG,GAR,Garaina,Garaina,,AI,---4----,,-7.8745389,147.14071717301604,true
PG,GRL,Garasa,Garasa,,AI,---4----,,-7.9802105999999995,147.213266295251,true
PG,GRH,Garuahi,Garuahi,,AI,---4----,,-10.2160503,150.4840535,true
PG,GMI,Gasmata Island,Gasmata Island,,AI,1--4----,,,,
PG,GBC,Gasuke,Gasuke,,AI,---4----,,-6.10224325,141.7395892708135,true
PG,GAW,Gawa Island,Gawa Island,MBA,RQ,1-------,,-8.966666666666667,151.98333333333332,
PG,GEW,Gewoia,Gewoia,,AI,---4----,,-9.22519895,148.49594372617423,true
PG,GIL,Gilau,Gilau,,QQ,1-------,,-5.5019,149.03669,true
PG,GWN,Gnarowein,Gnarowein,,AI,---4----,,,,
PG,GOE,Gonalia,Gonalia,,AI,---4----,,,,
PG,GOC,Gora,Gora,,AI,---4----,,-9.0008926,148.2352491,true
PG,GKA,Goroka,Goroka,,AI,---4----,,-6.0838886500000005,145.3914780251942,true
PG,GEI,Green Islands,Green Islands,,AI,1--4----,,,,
PG,GVI,Green River,Green River,,AI,---4----,,-3.9006542499999997,141.18025559521902,true
PG,GUG,Guari,Guari,,AI,---4----,,-8.12893305,146.87311402712703,true
PG,GAZ,Guasopa,Guasopa,,AI,---4----,,-9.22622835,152.944893548431,true
PG,GLP,Gulgubip,Gulgubip,,AI,---4----,,,,
PG,GUE,Guriaso,Guriaso,,AI,---4----,,-3.58032505,141.59135339610415,true
PG,GAP,Gusap,Gusap,,AI,---4----,,-5.9696291,145.882813,true
PG,HBD,Habi,Habi,,RL,---4----,,-6.283333333333333,145.36666666666667,
PG,HEO,Haelogo,Haelogo,,AI,---4----,,-9.13662165,147.59857131851487,true
PG,HAZ,Hatzfeldthaven,Hatzfeldthaven,,AI,---4----,,,,
PG,HWA,Hawabango,Hawabango,,AI,---4----,,,,
PG,HYF,Hayfields,Hayfields,,AI,---4----,,,,
PG,HNI,Heiweni,Heiweni,,AI,---4----,,-7.4212564,146.42800616065742,true
PG,HIT,Hivaro,Hivaro,,AI,---4----,,-7.07375,143.17508,true
PG,HNN,Honinabi,Honinabi,,AI,---4----,,-6.24587545,142.17666466546314,true
PG,HKN,Hoskins,Hoskins,,AI,1--4----,,-5.46145235,150.40481931573086,true
PG,IMA,Iamalele,Iamalele,,AI,---4----,,,,
PG,IAU,Iaura,Iaura,,AI,---4----,,-9.77952,148.10327,true
PG,IBI,Iboki,Iboki,,AI,---4----,,-5.5576338,149.1971994,true
PG,IHU,Ihu,Ihu,,AI,---4----,,-7.898111050000001,145.39741327631762,true
PG,ILX,Ileg,Ileg,,AI,---4----,,-5.4911427,145.8008773,true
PG,IMN,Imane,Imane,,AI,---4----,,-6.75219205,146.1075338070703,true
PG,IMD,Imonda,Imonda,,AI,---4----,,-3.3277903,141.15701814238318,true
PG,IDN,Indagen,Indagen,,AI,---4----,,-6.22667575,147.2432451093463,true
PG,IUS,Inus,Inus,,AI,---4----,,-5.727265,155.1697719,true
PG,IOK,Iokea,Iokea,,AI,---4----,,-8.4065393,146.2697261,true
PG,IOP,Ioma,Ioma,,AI,---4----,,-8.3616843,147.8395120075492,true
PG,ITK,Itogama,Itogama,,AI,--34----,,-9.183333333333334,148.25,
PG,JAC,Jacksons,Jacksons,,AI,----5---,,-9.4488392,147.2147387,true
PG,JAQ,Jacquinot Bay,Jacquinot Bay,,AI,---4----,,-10.25,150.41667,true
PG,JOP,Josephstaal,Josephstaal,,AI,---4----,,-4.74841855,145.00650776801166,true
PG,KBM,Kabwum,Kabwum,,AI,---4----,,-6.15514545,147.19193034942586,true
PG,KGW,Kagi,Kagi,,AI,---4----,,-5.1055458,145.474281,true
PG,AGK,Kagua,Kagua,,AI,---4----,,-6.3971214,143.854313,true
PG,KIA,Kaiapit,Kaiapit,,AI,---4----,,-6.2664228,146.2651383,true
PG,KAI,Kaibola,Kaibola,MBA,RL,1-------,,-8.416666666666666,151.1,
PG,KZF,Kaintiba,Kaintiba,,AI,---4----,,-7.50059285,146.0337509004765,true
PG,KRK,Kairuku,Kairuku,CPM,RL,1-3-----,,-8.833333333333334,146.53333333333333,
PG,KPP,Kakapo,Kakapo,,QQ,1-------,,,,
PG,KLO,Kalo,Kalo,,QQ,1-------,,-10.0446072,147.7863564,true
PG,KDQ,Kamberatoro,Kamberatoro,,AI,---4----,,-3.6006247,141.05177324474255,true
PG,KMF,Kamina,Kamina,,AI,---4----,,-7.6495727,145.95832771261757,true
PG,KJU,Kamiraba,Kamiraba,,AI,---4----,,,,
PG,KAQ,Kamulai,Kamulai,,AI,---4----,,,,
PG,KUY,Kamusi,Kamusi,,AI,---4----,,-7.4206315499999995,143.1218040600831,true
PG,KEX,Kanabea,Kanabea,,AI,---4----,,-7.537096399999999,145.90620817481198,true
PG,KNE,Kanainj,Kanainj,,AI,---4----,,-5.2889783999999995,144.7094910680782,true
PG,KDP,Kandep,Kandep,,AI,---4----,,-5.84057595,143.50714258950853,true
PG,KDR,Kandrian,Kandrian,,AI,---4----,,-6.19242395,149.54813702599384,true
PG,KTK,Kanua,Kanua,,AI,---4----,,,,
PG,KPL,Kapal,Kapal,,RL,---4----,,-8.633333333333333,142.85,
PG,KAK,Kar,Kar,,AI,---4----,,-6.2431602,143.5509523,true
PG,KAF,Karato,Karato,,AI,---4----,,-6.2633557,155.3059847,true
PG,KRJ,Karawari,Karawari,,AI,---4----,,-4.5968995,143.52293596367795,true
PG,KMR,Karimui,Karimui,,AI,---4----,,-6.4929206,144.82494980981994,true
PG,KRX,Karkar Is,Karkar Is,,AI,1-34----,,-4.633333333333333,145.96666666666667,
PG,KXR,Karoola,Karoola,,AI,---4----,,-5.1422,154.59525,true
PG,KSB,Kasanombe,Kasanombe,,AI,---4----,,-6.381604,146.98554333179055,true
PG,KVG,Kavieng,Kavieng,,AI,1--4----,,-2.57738425,150.8052784188705,true
PG,KWO,Kawito,Kawito,,AI,---4----,,-7.974456999999999,142.82112597918348,true
PG,KEG,Keglsugl,Keglsugl,,AI,---4----,,-5.8323535,145.09748820624446,true
PG,KNL,Kelanoa,Kelanoa,,AI,---4----,,-6.0128888,147.499762,true
PG,KRU,Kerau,Kerau,,AI,---4----,,-8.2709847,147.07180272949768,true
PG,KMA,Kerema,Kerema,,AI,1--4----,,-7.9632784999999995,145.77134686530968,true
PG,KII,Kibuli,Kibuli,,RL,---4----,,-8.883333333333333,142.78333333333333,
PG,KIE,Kieta,Kieta,,AI,1--4----,,-6.2187295,155.6362617,true
PG,KIZ,Kikinonda,Kikinonda,,AI,---4----,,-8.51617,147.9343,true
PG,KRI,Kikori,Kikori,,AI,---4----,,-7.425448749999999,144.25099038108027,true
PG,KIM,Kimbe,Kimbe,,QQ,1-------,,-5.5562921,150.1529513,true
PG,KIQ,Kira,Kira,,AI,---4----,,-6.4142059,143.8104582,true
PG,KSG,Kisengan,Kisengan,,AI,---4----,,-6.3587004,146.7049056,true
PG,KVE,Kitava,Kitava,,AI,---4----,,-8.6291057,151.32723100666547,true
PG,UNG,Kiunga,Kiunga,,AI,1--4----,,-6.1256628,141.28091127831226,true
PG,KWX,Kiwai Island,Kiwai Island,,AI,---4----,,,,
PG,KMB,Koinambe,Koinambe,,AI,---4----,,-5.48775365,144.60743674932806,true
PG,KKD,Kokoda,Kokoda,,AI,---4----,,-8.8852451,147.73129469652469,true
PG,KOR,Kokoro,Kokoro,,AI,---4----,,,,
PG,KQL,Kol,Kol,,AI,---4----,,-5.7301306,144.84612084342132,true
PG,KCJ,Komaio,Komaio,,AI,---4----,,-7.27080535,143.59523545643594,true
PG,HOC,Komako,Komako,,AI,---4----,,-7.39866185,145.88281121996727,true
PG,KOM,Komo-Manda,Komo-Manda,,AI,---4----,,-6.06775515,142.85950403211268,true
PG,KPM,Kompiam,Kompiam,,AI,---4----,,-5.38204195,143.92438104337458,true
PG,KPF,Kondubol,Kondubol,,RL,---4----,,-10.2,149.7,
PG,KGB,Konge,Konge,,AI,---4----,,-6.22432205,147.21515933056276,true
PG,KOP,Kopi,Kopi,GPK,RL,1-------,,-7.3,144.18333333333334,
PG,KPA,Kopiago,Kopiago,,AI,---4----,,-5.38834245,142.49774086615085,true
PG,KDE,Koroba,Koroba,,AI,---4----,,-5.6954202,142.7444630326167,true
PG,KSP,Kosipe,Kosipe,,AI,---4----,,-8.452157450000001,147.21180245603995,true
PG,KUL,Kumul,Kumul,,RL,1-----7-,,-8.1,144.56666666666666,
PG,CMU,Kundiawa,Kundiawa,,AI,---4----,,-6.0242193,144.97041470350763,true
PG,KGM,Kungum,Kungum,,AI,---4----,,,,
PG,KUP,Kupiano,Kupiano,,AI,---4----,,-10.073804249999998,148.21849324897232,true
PG,KUQ,Kuri,Kuri,,AI,---4----,,-7.13503285,143.27564941023678,true
PG,KWV,Kurwina,Kurwina,,AI,---4----,,,,
PG,KUX,Kuyol,Kuyol,,RL,---4----,,38.483333333333334,126.03333333333333,
PG,LAB,Lablab,Lablab,,AI,---4----,,-5.72072485,148.05677937030845,true
PG,LAE,Lae,Lae,,AI,1--4----,,-6.7301976,147.0008109,true
PG,LGM,Laiagam,Laiagam,,AI,---4----,,-5.4934941,143.4888686,true
PG,LMY,Lake Murray,Lake Murray,,AI,---4----,,-7.01048885,141.49422073079435,true
PG,LAK,Lakuramau,Lakuramau,NIK,RQ,1-------,,-2.8833333333333333,151.25,
PG,LMG,Lamassa,Lamassa,,AI,---4----,,-4.6746806,152.7468538,true
PG,LAM,Lambom Island,Lambom Island,NIK,RQ,1-------,,-4.8,152.83333333333334,
PG,LNM,Langimar,Langimar,,AI,---4----,,-7.22214215,146.21679472212242,true
PG,LLA,Laughlan Atoll,Laughlan Atoll,MBA,RQ,1-------,,-9.283333333333333,153.66666666666666,
PG,LHP,Lehu,Lehu,,AI,---4----,,,,
PG,LTF,Leitre,Leitre,,AI,---4----,,-2.8333213,141.62480460905633,true
PG,LNC,Lengbati,Lengbati,,AI,---4----,,-6.3844947,147.3688609027392,true
PG,LPN,Leron Plains,Leron Plains,,AI,---4----,,-6.3906165,146.3410038,true
PG,LNG,Lese,Lese,,AI,---4----,,-8.27665185,146.27347437294435,true
PG,LNV,Lihir Island,Lihir Island,,AI,1--4----,,,,
PG,LGN,Linga Linga,Linga Linga,,AI,---4----,,,,
PG,LNQ,Loani,Loani,,AI,---4----,,-10.58121,150.59392,true
PG,LOL,Loloho,Loloho,,QQ,1-------,,-6.1864914,155.5430938,true
PG,LOM,Lombrum,Lombrum,MRL,RQ,1-------,,-2.033333333333333,147.36666666666667,
PG,LDT,Londolovit,Londolovit,,RL,1-3-----,,-3.066666666666667,152.61666666666667,
PG,LSJ,Long Island,Long Island,,AI,---4----,,,,
PG,LOR,"""Lorengau"," Manus Island""","""Lorengau"," Manus Island""",,1-------,-2.0329567,147.2789185,true
PG,LSA,Losuia,Losuia,,AI,---4----,,-8.504174299999999,151.0791029829549,true
PG,LWI,Lowai,Lowai,,AI,---4----,,-6.334537,146.6456924465819,true
PG,LMI,Lumi,Lumi,,AI,---4----,,-3.4765865,142.03998065812146,true
PG,MAG,Madang,Madang,MPM,AI,1--4----,,-5.216666666666667,145.78333333333333,
PG,MPG,Makini,Makini,,AI,---4----,,-6.53268525,147.65200036416735,true
PG,MMV,Mal,Mal,,AI,---4----,,,,
PG,MLQ,Malalaua,Malalaua,,AI,---4----,,-8.0711642,146.1557257302948,true
PG,MQO,Malam,Malam,,RL,---4----,,-8.716666666666667,142.65,
PG,MKN,Malekolon,Malekolon,,AI,---4----,,,,
PG,MAP,Mamai,Mamai,,AI,---4----,,-10.3,149.53333,true
PG,MAM,Manam Island,Manam Island,,QQ,1-------,,-4.077508,145.03595563266623,true
PG,MRM,Manare,Manare,,AI,---4----,,,,
PG,MAN,Manda,Manda,,RL,--34----,KOM,-7,141.15,
PG,MVI,Manetai,Manetai,,AI,---4----,,-6.0901263,155.4188895,true
PG,MGP,Manga,Manga,,AI,---4----,,-4.144787,153.0176143,true
PG,MFO,Manguna,Manguna,,AI,---4----,,-5.57744085,151.79214334828256,true
PG,UUU,Manumu,Manumu,,AI,---4----,,-9.074221600000001,147.57370917089958,true
PG,MAS,Manus Island,Manus Island,,AI,---4----,,-2.0513304,146.985147,true
PG,MPF,Mapoda,Mapoda,,AI,---4----,,,,
PG,MPU,Mapua,Mapua,,AI,---4----,,-2.808543,151.9943478,true
PG,MWI,Maramuni,Maramuni,,AI,---4----,,-5.12833785,143.4844028111116,true
PG,MWG,Marawaka,Marawaka,,AI,---4----,,-6.97124115,145.8867163839057,true
PG,MGG,Margarima,Margarima,,AI,---4----,,-5.9805591,143.3596999,true
PG,MNP,Maron,Maron,,AI,---4----,,,,
PG,MBV,Masa,Masa,,AI,---4----,,-6.3452645,147.5910079872877,true
PG,MRH,May River,May River,,AI,---4----,,-4.3183358,141.792294,true
PG,MDU,Mendi,Mendi,,AI,---4----,,-6.1485757,143.6571820031493,true
PG,MYX,Menyamya,Menyamya,,AI,---4----,,-7.2118918999999995,146.01938490925158,true
PG,MFZ,Mesalia,Mesalia,,AI,---4----,,,,
PG,MIE,Mielelek,Mielelek,,QQ,1-------,,-6.1,149.05,true
PG,MXK,Mindik,Mindik,,AI,---4----,,-6.471895399999999,147.44127639611452,true
PG,MZN,Minj,Minj,,AI,---4----,,-5.9068175,144.6873618,true
PG,MIS,Misima Island,Misima Island,,AI,1--4----,,,,
PG,MPX,Miyanmin,Miyanmin,,AI,---4----,,,,
PG,MJJ,Moki,Moki,,AI,---4----,,,,
PG,MHY,Morehead,Morehead,,AI,---4----,,-8.71391225,141.64240961225028,true
PG,MXH,Moro,Moro,,AI,---4----,,-5.84251725,146.11251870935195,true
PG,OBM,Morobe,Morobe,,AI,---4----,,-7.7585388,147.5959303,true
PG,MTK,Motukea Island,Motukea Island,NCD,RL,1-------,,-9.433333333333334,147.1,
PG,GUV,Mougulu,Mougulu,,AI,---4----,,-6.2801053499999995,142.4206322970511,true
PG,UAE,Mount Aue,Mount Aue,,AI,---4----,,-6.23028875,144.66450798802197,true
PG,HGU,Mount Hagen,Mount Hagen,,AI,---4----,,-5.858784,144.2316365,true
PG,LNF,Munbil,Munbil,,AI,---4----,,,,
PG,MDM,Munduku,Munduku,,AI,---4----,,-4.61988395,143.45113340977514,true
PG,MWU,Mussau,Mussau,,AI,---4----,,-1.56042975,149.62993053338022,true
PG,NDN,Nadunumu,Nadunumu,,AI,---4----,,,,
PG,ATN,Namatanai,Namatanai,,AI,1--4----,,-3.66958625,152.43814978543128,true
PG,NBA,Nambaiyufa,Nambaiyufa,,AI,---4----,,-6.2406806,145.2438306,true
PG,NDI,Namudi,Namudi,,AI,---4----,,-9.4734003,148.33004021596548,true
PG,NKN,Nankina,Nankina,,AI,---4----,,-5.83661015,146.45337018945597,true
PG,NOO,Naoro,Naoro,,AI,---4----,,-9.2643701,147.6119785,true
PG,NAP,Napa Napa,Napa Napa,NCD,RQ,1-------,,-9.45,147.11666666666667,
PG,GBF,Negarbo,Negarbo,,AI,---4----,,-6.56774825,144.7040875277135,true
PG,NGR,Ningerum,Ningerum,,AI,---4----,,-5.669441,141.14348428224332,true
PG,NPG,Nipa,Nipa,,AI,---4----,,-6.1436875,143.4499071,true
PG,IIS,Nissan Island,Nissan Island,,AI,---4----,,,,
PG,NOM,Nomad River,Nomad River,,AI,---4----,,-6.2939573,142.23412449302776,true
PG,NMN,Nomane,Nomane,,AI,---4----,,-6.3203273499999995,145.0719024645478,true
PG,NWT,Nowata,Nowata,,AI,---4----,,-9.98549835,149.72788924937038,true
PG,NUG,Nuguria,Nuguria,,AI,---4----,,,,
PG,UKU,Nuku,Nuku,,AI,---4----,,-5.4662807,145.48434,true
PG,NUT,Nutuve,Nutuve,,AI,---4----,,-5.3342162,151.6621743,true
PG,OBX,Obo,Obo,,AI,---4----,,-7.5917752499999995,141.32379172432985,true
PG,OGE,Ogeranang,Ogeranang,,AI,---4----,,-6.466775800000001,147.3642043078189,true
PG,OKV,Okao,Okao,,RL,---4----,,-3.9166666666666665,116.2,
PG,OKP,Oksapmin,Oksapmin,,AI,---4----,,-5.22568895,142.22318631792555,true
PG,OLQ,Olsobip,Olsobip,,AI,---4----,,-5.39086425,141.5152932177745,true
PG,OML,Omkalai,Omkalai,,AI,---4----,,-6.17804,144.97021,true
PG,OSE,Omora,Omora,,AI,---4----,,-9.7751097,149.857621,true
PG,ONB,Ononge,Ononge,,AI,---4----,,-8.54772455,147.25395091465032,true
PG,OPB,Open Bay,Open Bay,,AI,---4----,,-4.79380245,151.69636440959044,true
PG,RAX,Oram,Oram,,AI,---4----,,,,
PG,OTY,Oria,Oria,,AI,---4----,,-6.5775218,155.7697693,true
PG,ROR,Orobay,Orobay,,QQ,1-------,,,,
PG,OSG,Ossima,Ossima,,AI,---4----,,-2.9149077500000002,141.29673088184072,true
PG,PLE,Paiela,Paiela,,AI,---4----,,-5.37205995,142.97577353384767,true
PG,PAW,Pambwa,Pambwa,,AI,---4----,,-11.404,154.015,true
PG,PGN,Pangia,Pangia,,AI,---4----,,-6.38673255,144.10892320614667,true
PG,PGB,Pangoa,Pangoa,,AI,---4----,,-7,141.61667,true
PG,PPX,Param,Param,,AI,---4----,,-9.99051465,149.4766904774491,true
PG,PMP,Pimaga,Pimaga,,AI,---4----,,-6.53452,143.46251,true
PG,PDI,Pindiu,Pindiu,,AI,---4----,,-6.44498105,147.51619732767898,true
PG,PDO,Pondo Harbour,Pondo Harbour,EBR,RL,1-------,,-4.566666666666666,151.61666666666667,
PG,PNP,Popondetta,Popondetta,,AI,---4----,,-8.7667424,148.2375057,true
PG,RGE,Porgera,Porgera,,AI,---4----,,-5.4795227,143.1230921,true
PG,POM,Port Moresby,Port Moresby,,AI,1--4----,,-9.4743301,147.1599504,true
PG,PUA,Puas,Puas,,AI,---4----,,-2.388304,150.226668,true
PG,PMN,Pumani,Pumani,,AI,---4----,,-9.7468692,149.47683737569784,true
PG,PUI,Pureni,Pureni,,AI,---4----,,-5.83238,142.82312,true
PG,RBP,Rabaraba,Rabaraba,,AI,---4----,,-9.97045405,149.83225321668996,true
PG,RAB,Rabaul,Rabaul,,AI,1--4----,,-4.1984592,152.1728287,true
PG,RAA,Rakanda,Rakanda,,AI,---4----,,-4.1982676,152.468973,true
PG,RAM,Rambutyo Island,Rambutyo Island,,QQ,1-------,,-2.2947261,147.8336318273677,true
PG,RNR,Robinson River,Robinson River,,AI,1--4----,,-3.9006542499999997,141.18025559521902,true
PG,RMN,Rumginae,Rumginae,,AI,---4----,,-5.89821015,141.27230178055032,true
PG,RVI,Russel Island,Russel Island,,QQ,1-------,,-10.707,150.25713,true
PG,RUU,Ruti,Ruti,,AI,---4----,,,,
PG,SBV,Sabah,Sabah,,AI,---4----,,,,
PG,SFU,Safia,Safia,,AI,---4----,,-9.59415635,148.6388419595231,true
PG,SGJ,Sagarai,Sagarai,,AI,---4----,,-10.4319221,150.1890273,true
PG,SAI,Saibai,Saibai,WPD,RQ,1-------,,-9.383333333333333,142.61666666666667,
PG,SDI,Saidor,Saidor,,AI,---4----,,-5.626823399999999,146.4623309746595,true
PG,SMU,Salamaua,Salamaua,,QQ,1-------,,-7.055984,147.0482725,true
PG,SAM,Salamo,Salamo,,AI,---4----,,-9.67046925,150.79049960378973,true
PG,SQT,Samarai,Samarai,,AI,1--4----,,-10.633333333333333,150.63333333333333,
PG,SGK,Sangapi,Sangapi,,AI,---4----,,-5.124412749999999,144.32291446625854,true
PG,SMH,Sapmanga,Sapmanga,,AI,---4----,,-6.07466345,146.81116035007892,true
PG,SWG,Satwag,Satwag,,AI,---4----,,-6.13944535,147.278789285137,true
PG,SXW,Sauren,Sauren,,AI,---4----,,-5.9699953,148.85398714921018,true
PG,SCH,Schauten,Schauten,,QQ,1-------,,,,
PG,SXH,Sehulea,Sehulea,,AI,---4----,,,,
PG,SBC,Selbang,Selbang,,AI,---4----,,-5.3150675,141.75214688111683,true
PG,SPV,Sepik Plains,Sepik Plains,,AI,---4----,,-6.42005,146.42029,true
PG,SXA,Sialum,Sialum,,AI,---4----,,-6.0936225,147.5999280248746,true
PG,SSS,Siassi,Siassi,,AI,---4----,,-5.5971687,147.81102083962213,true
PG,SIL,Sila,Sila,,AI,---4----,,-9.0642189,148.36341006122825,true
PG,SWR,Silur,Silur,,AI,---4----,,-4.5264034,153.0504881,true
PG,SMJ,Sim,Sim,,AI,---4----,,-7.749083199999999,146.92778845767265,true
PG,SIM,Simbai,Simbai,,AI,---4----,,-5.2784417999999995,144.54444343387604,true
PG,NIS,Simberi Island,Simberi Island,,AI,---4----,,-2.6615339000000002,151.9954795447534,true
PG,SGB,Singaua,Singaua,,AI,---4----,,-6.7042061,147.1256787,true
PG,SPL,Sipul,Sipul,,QQ,1-------,,-5.8483584,148.7548567,true
PG,SIZ,Sissano,Sissano,,AI,---4----,,-3.0025179,142.0514247,true
PG,SWE,Siwea,Siwea,,AI,---4----,,-6.2840761,147.58245151900186,true
PG,SOI,Sokar Island,Sokar Island,,QQ,1-------,,,,
PG,SPH,Sopu,Sopu,,AI,---4----,,-7.9995989,147.5910822,true
PG,SMP,Stockholm,Stockholm,,AI,---4----,,,,
PG,SBE,Suabi,Suabi,,AI,---4----,,-6.08333,143.6,true
PG,SKC,Suki,Suki,,AI,---4----,,-8.045778550000001,141.72191732030672,true
PG,ULE,Sule,Sule,,AI,---4----,,-4.9687145,151.3114804,true
PG,SUZ,Suria,Suria,,AI,---4----,,,,
PG,TBA,Tabibuga,Tabibuga,,AI,---4----,,-5.5696214,144.6596498,true
PG,TBG,Tabubil,Tabubil,,AI,---4----,,-5.279681249999999,141.22708058939207,true
PG,TGL,Tagula,Tagula,,AI,1--4----,,-11.33264355,153.20404274654186,true
PG,TLW,Talasea,Talasea,,AI,1--4----,,-5.2729392,150.00892880835073,true
PG,TAM,Tambanum,Tambanum,ESW,RQ,1-------,,-4.2,143.6,
PG,TAI,Tambutyo Island,Tambutyo Island,,QQ,1-------,,,,
PG,TMI,Tami Island,Tami Island,MPL,RQ,1-------,,-6.766666666666667,147.9,
PG,TPI,Tapini,Tapini,,AI,---4----,,-8.3565839,146.98948275662508,true
PG,TBQ,Tarabo,Tarabo,,AI,---4----,,-6.4663094,145.5319466329433,true
PG,TRJ,Tarakbits,Tarakbits,,AI,---4----,,,,
PG,TIZ,Tari,Tari,,AI,---4----,,-5.8446016,142.94694677779594,true
PG,TSK,Taskul,Taskul,,AI,---4----,,-2.5516545,150.4532127,true
PG,TAU,Taugu Island,Taugu Island,,QQ,1-------,,,,
PG,TUT,Tauta,Tauta,,AI,---4----,,-5.8312987,145.9372404,true
PG,TWY,Tawa,Tawa,,AI,---4----,,,,
PG,TKB,Tekadu,Tekadu,,AI,---4----,,-7.68129255,146.5503408810951,true
PG,TKW,Tekin,Tekin,,AI,---4----,,-5.22568895,142.22318631792555,true
PG,TFM,Telefomin,Telefomin,,AI,---4----,,-5.1264641,141.6413359319776,true
PG,TEP,Teptep,Teptep,,AI,---4----,,-5.95527825,146.56263265220366,true
PG,TEO,Terapo,Terapo,,AI,---4----,,,,
PG,TDB,Tetebedi,Tetebedi,,AI,--34----,,-9.15,148.05,
PG,TFA,Tilfalmin,Tilfalmin,,AI,---4----,,,,
PG,TBE,Timbunke,Timbunke,,AI,---4----,,-4.1902833,143.5184106688759,true
PG,TCK,Tinboli,Tinboli,,AI,---4----,,-4.09138555,143.38676722096318,true
PG,TIG,Tingwon,Tingwon,,AI,---4----,,-2.6050585,149.7058986,true
PG,TLO,Tol,Tol,,AI,---4----,,-4.98093375,152.01007939285967,true
PG,TOI,Tolokiwa Island,Tolokiwa Island,,QQ,1-------,,-5.3137241,147.5911629034585,true
PG,TON,Tonu,Tonu,,AI,---4----,,-6.655135,155.43279482441648,true
PG,TCJ,Torembi,Torembi,,AI,---4----,,-4.0136809499999995,143.1359235397892,true
PG,TOK,Torokina,Torokina,,AI,---4----,,-6.246289,155.042206,true
PG,TSW,Tsewi,Tsewi,,AI,---4----,,-7.069341,146.1282208377014,true
PG,TSI,Tsili Tsili,Tsili Tsili,,AI,---4----,,,,
PG,TFI,Tufi,Tufi,,AI,1--4----,,-9.075992800000002,149.31981992421777,true
PG,TLP,Tumolbil,Tumolbil,,AI,---4----,,-4.7744129,141.012953774115,true
PG,ULA,Ulamona,Ulamona,WBK,RQ,1-------,,-5,151.25,
PG,UMC,Umba,Umba,,AI,---4----,,-7.021325,145.96630039886003,true
PG,UPR,Upiara,Upiara,,AI,---4----,,-8.5411937,142.6505324452277,true
PG,URU,Uroubi,Uroubi,,AI,---4----,,,,
PG,USO,Usino,Usino,,AI,---4----,,-5.5623836,145.3565798,true
PG,UVO,Uvol,Uvol,,AI,---4----,,-6.0179013,150.9555567867026,true
PG,VLA,Vailala,Vailala,GPK,RL,1-3-----,,-7.95,145.45,
PG,VAI,Vanimo,Vanimo,,AI,1--4----,,-2.69423265,141.30481467120597,true
PG,VIV,Vivigani,Vivigani,,AI,---4----,,-9.3049251,150.32038398599968,true
PG,WAB,Wabag,Wabag,,AI,---4----,,-5.491944,143.721667,true
PG,WAO,Wabo,Wabo,,AI,---4----,,,,
PG,WGU,Wagau,Wagau,,AI,---4----,,-6.8529701,146.800178,true
PG,WKN,Wakunai,Wakunai,,AI,---4----,,-5.8604274499999995,155.22238548987872,true
PG,AGL,Wanigela,Wanigela,,AI,---4----,,-10.073804249999998,148.21849324897232,true
PG,WTT,Wantoat,Wantoat,,AI,---4----,,-6.13239655,146.46786950777351,true
PG,WNU,Wanuma,Wanuma,,AI,---4----,,-4.8954626,145.32212982756005,true
PG,WBM,Wapenamanda,Wapenamanda,,AI,---4----,,-5.635423599999999,143.8922603983255,true
PG,WBC,Wapolu,Wapolu,,AI,---4----,,-9.569186,150.4940249,true
PG,WSU,Wasu,Wasu,,AI,---4----,,-5.96176075,147.19901119149043,true
PG,WSA,Wasua,Wasua,,AI,---4----,,-8.2833059,142.8702531822964,true
PG,WUM,Wasum,Wasum,,AI,---4----,,-6.04938985,149.33863657437524,true
PG,WAT,Watabung,Watabung,EHG,RL,1-3-----,,-6.083333333333333,145.21666666666667,
PG,WUG,Wau,Wau,,AI,---4----,,-7.34524895,146.7189733015495,true
PG,WAJ,Wawoi Falls,Wawoi Falls,,AI,---4----,,-6.9526050999999995,142.65620796024382,true
PG,WEP,Weam,Weam,,AI,---4----,,-8.617866549999999,141.13858356801475,true
PG,WED,Wedau,Wedau,,AI,---4----,,-10.096037500000001,150.08200930177608,true
PG,WWK,Wewak,Wewak,,AI,1--4----,,-3.58317905,143.66715297255132,true
PG,WPM,Wipim,Wipim,,AI,---4----,,-8.85424,142.91832,true
PG,WIU,Witu,Witu,,AI,---4----,,-4.6897932,149.44122869011983,true
PG,WTP,Woitape,Woitape,,AI,---4----,,-8.54772455,147.25395091465032,true
PG,WOA,Wonenara,Wonenara,,AI,---4----,,-6.79699265,145.89235983278377,true
PG,WOK,Woodlark,Woodlark,,QQ,1-------,,,,
PG,WUV,Wuvulu Is,Wuvulu Is,,AI,---4----,,,,
PG,KYX,Yalumet,Yalumet,,AI,---4----,,-6.08900395,147.01227038300024,true
PG,KPE,Yapsiei,Yapsiei,,AI,---4----,,-4.6278315,141.09349362177517,true
PG,KSX,Yasuru,Yasuru,,AI,---4----,,-6.6028871,146.1800796,true
PG,PGE,Yegepa,Yegepa,,AI,---4----,,,,
PG,XYR,Yellow River,Yellow River,,AI,---4----,,,,
PG,YEQ,Yenkis,Yenkis,,AI,---4----,,,,
PG,YEN,Yentchan,Yentchan,ESW,RL,1-------,,-4.133333333333334,143.25,
PG,YVD,Yeva,Yeva,,AI,---4----,,-7.5493875,146.18817001949634,true
PG,KGH,Yongai,Yongai,,AI,---4----,,,,
PG,RKU,Yule Island,Yule Island,,AI,1--4----,,,,
PG,ZEN,Zenag,Zenag,,AI,---4----,,-6.9480432,146.5984516,true