country,location,name,nameWoDiacritics,subdivision,status,function,iata,lat,lon,geocoded
TH,SHT,Actu-lum,Actu-lum,11,AA,1-------,,13.65,100.55,
TH,CAN,Amnat Charoen,Amnat Charoen,,RL,--3-----,,15.8640232,104.6278059,true
TH,ATH,Ang Thong,Ang Thong,15,RL,--3-----,,14.583333333333334,100.45,
TH,ARA,Aranyaprathet,Aranyaprathet,27,AA,--3-----,,13.666666666666666,102.55,
TH,AYU,Ayutthaya,Ayutthaya,10,RL,--3-----,,14.333333333333334,100.53333333333333,
TH,BND,Ban Don,Ban Don,84,AA,1-------,,9.183333333333334,99.36666666666666,
TH,BNK,Ban Kantang,Ban Kantang,92,AA,1-3-----,,7.416666666666667,99.5,
TH,BKH,Ban Khai,Ban Khai,21,RL,--3-----,,9.683333333333334,100.05,
TH,BNL,Ban Laem,Ban Laem,76,AA,1-------,,13.116666666666667,100.11666666666666,
TH,BPG,Ban Pong,Ban Pong,,RQ,123-----,,13.8,99.86666666666666,
TH,BPK,Ban Prakop Customs House,Ban Prakop Customs House,90,AA,1-3-----,,6.466666666666667,100.71666666666667,
TH,BTP,Ban Talat Takua Pa,Ban Talat Takua Pa,82,RL,1-3-----,,8.833333333333334,98.36666666666666,
TH,BAN,Bang Khen,Bang Khen,10,RL,--3-----,,13.866666666666667,100.6,
TH,BNP,Bang Nam Prieo,Bang Nam Prieo,24,RL,--3-----,,13.85,101.06666666666666,
TH,BPH,Bang Phli,Bang Phli,11,RL,--3-----,,13.6,100.71666666666667,
TH,BRK,Bang Rak,Bang Rak,10,RL,-23-----,,13.733333333333333,100.53333333333333,
TH,BSP,Bang Saphan,Bang Saphan,,RL,123-----,,11.2,99.51666666666667,
TH,BKK,Bangkok,Bangkok,10,AI,12345---,,13.75,100.51666666666667,
TH,BMT,Bangkok Modern Terminals/Bangkok,Bangkok Modern Terminals/Bangkok,,RQ,1-3-----,,13.6,100.58333333333333,
TH,BNG,Bangnara,Bangnara,96,AA,1-------,,6.433333333333334,101.83333333333333,
TH,BTC,Bangpakong Terminal,Bangpakong Terminal,24,AA,1-------,,13.466666666666667,100.98333333333333,
TH,BAI,Bangpoomai,Bangpoomai,,RL,1-3-----,,13.5,100.6,
TH,BSE,Bangsu,Bangsu,10,RL,-23-----,,13.8,100.21666666666667,
TH,BEN,Benchamas,Benchamas,,RQ,1-------,,10.516666666666667,101.31666666666666,
TH,BET,Betong,Betong,95,AA,--3-----,,5.766666666666667,101.06666666666666,
TH,BUK,Bueng Kan Customs House,Bueng Kan Customs House,38,AA,--3-----,,18.366666666666667,103.61666666666666,
TH,BKT,Buketa Customs House,Buketa Customs House,96,AA,--3-----,,5.833333333333333,101.88333333333334,
TH,BFV,Buri Ram Apt,Buri Ram Apt,31,AA,---4----,,15.233333333333333,103.25,
TH,CSD,Chachoengsao,Chachoengsao,24,RL,--3-----,,13.7,101.08333333333333,
TH,CHN,Chai Nat,Chai Nat,35,RQ,--3-----,,15.166666666666666,100.11666666666666,
TH,CYM,Chaiyaphum,Chaiyaphum,22,RQ,--3-----,,15.783333333333333,102.03333333333333,
TH,CHA,Chanthaburi,Chanthaburi,22,AA,1-------,,12.3,102.23333333333333,
TH,CHD,Chiang Dao Customs House,Chiang Dao Customs House,50,AA,--3-----,,19.383333333333333,98.96666666666667,
TH,CKH,Chiang Khan Customs House,Chiang Khan Customs House,42,AA,--3-----,,17.9,101.66666666666667,
TH,CHK,Chiang Khong Customs House,Chiang Khong Customs House,57,AA,--3-----,,20.266666666666666,100.36666666666666,
TH,CNX,Chiang Mai International Apt,Chiang Mai International Apt,50,AA,---4----,,18.766666666666666,98.96666666666667,
TH,CHS,Chiang Saen Customs House,Chiang Saen Customs House,57,AA,1-3-----,,20.316666666666666,100.06666666666666,
TH,CHB,Chon Buri,Chon Buri,,RL,--3-----,QHI,13.3662087,100.9872185,true
TH,CHO,Chonburi,Chonburi,,RQ,-----6--,,13.366666666666667,100.98333333333333,
TH,CHC,Chong Chom Customs House,Chong Chom Customs House,32,AA,--3-----,,14.45,103.68333333333334,
TH,CHM,Chong Mek Customs House,Chong Mek Customs House,34,AA,--3-----,,15.133333333333333,105.46666666666667,
TH,CHU,Chumphon,Chumphon,86,AA,1-3-----,,10.433333333333334,99.26666666666667,
TH,CJM,Chumphon Apt,Chumphon Apt,86,AA,---4----,,10.716666666666667,99.36666666666666,
TH,DMK,Don Mueang International Apt,Don Mueang International Apt,10,AA,---4----,,13.916666666666666,100.6,
TH,ECT,Ekachai Container Terminal,Ekachai Container Terminal,74,AA,1-------,,13.583333333333334,100.31666666666666,
TH,ERA,Erawan,Erawan,,RQ,1-------,,9.066666666666666,101.4,
TH,HDY,Hat Yai International Apt,Hat Yai International Apt,90,AA,---4----,,6.933333333333334,100.4,
TH,HOP,Hoping,Hoping,,RQ,1-------,,24.266666666666666,121.73333333333333,
TH,HHQ,Hua Hin Apt,Hua Hin Apt,77,AA,---4----,,12.633333333333333,99.95,
TH,KAB,Kabin Buri,Kabin Buri,25,RL,--3-----,,13.983333333333333,101.71666666666667,
TH,KLN,Kalasin,Kalasin,46,RQ,--3-----,,16.416666666666668,103.5,
TH,KPT,Kamphaeng Phet,Kamphaeng Phet,,RL,1-3-----,,16.466666666666665,99.51666666666667,
TH,KPS,Kamphaeng Saen,Kamphaeng Saen,73,RQ,--3-----,,14,100,
TH,KAM,Kamuting,Kamuting,10,RQ,--3-----,,,,
TH,KCB,Kanchanaburi,Kanchanaburi,71,AA,--3-----,,14.016666666666667,99.51666666666667,
TH,KAN,Kantang,Kantang,92,AA,123-----,,7.4,99.51666666666667,
TH,KHA,Khanom,Khanom,80,AA,1-------,,9.2,99.88333333333334,
TH,KMR,Khemarat Customs House,Khemarat Customs House,34,AA,--3-----,,16.033333333333335,105.2,
TH,KHL,Khlong Luang Truck Terminal,Khlong Luang Truck Terminal,13,AA,--3-----,,14.083333333333334,100.7,
TH,KLY,Khlong Yai,Khlong Yai,23,AA,1-3-----,,11.766666666666667,102.9,
TH,KKM,Khok Kathiam Apt,Khok Kathiam Apt,16,AA,---4----,,14.866666666666667,100.66666666666667,
TH,KHB,Khon Buri,Khon Buri,30,RQ,--3-----,,14.516666666666667,102.25,
TH,KKC,Khon Kaen,Khon Kaen,40,AI,-234-6--,,16.433333333333334,102.83333333333333,
TH,KLA,Ko Lanta,Ko Lanta,81,AA,1-------,,8.05,98.9,
TH,KSM,Ko Samui,Ko Samui,84,AA,1-------,,9.533333333333333,99.93333333333334,
TH,KSI,Ko Sichang,Ko Sichang,20,AA,1-------,,13.133333333333333,100.81666666666666,
TH,KYO,Ko Yao,Ko Yao,82,AA,1-------,,7.9,98.6,
TH,KRV,Krabi,Krabi,81,AA,1-------,,8.066666666666666,98.73333333333333,
TH,KBV,Krabi Apt,Krabi Apt,81,AA,---4----,,8.1,98.98333333333333,
TH,KRN,Krathum Baen,Krathum Baen,74,RL,--3-----,,13.65,100.26666666666667,
TH,LCH,Laem Chabang,Laem Chabang,20,RL,1-3-----,,13.083333333333334,100.88333333333334,
TH,LPT,Lampang Apt,Lampang Apt,52,AA,---4----,,18.266666666666666,99.5,
TH,LPN,Lamphun,Lamphun,51,RL,--3-----,,18.583333333333332,99.01666666666667,
TH,LAS,Lang Suan,Lang Suan,86,AA,1-------,,9.95,99.15,
TH,LKR,Lat Krabang,Lat Krabang,10,AA,-23--6--,,13.75,100.76666666666667,
TH,LOE,Loei Apt,Loei Apt,42,AA,---4----,,17.433333333333334,101.71666666666667,
TH,CEI,Mae Fah Luang - Chiang Rai International Apt,Mae Fah Luang - Chiang Rai International Apt,57,AA,---4----,,19.95,99.88333333333334,
TH,HGN,Mae Hong Son Apt,Mae Hong Son Apt,58,AA,---4----,,19.3,97.98333333333333,
TH,MEK,Mae Klong,Mae Klong,75,AA,1-------,,13.366666666666667,99.98333333333333,
TH,MSA,Mae Sai Customs House,Mae Sai Customs House,57,AA,--3-----,,20.45,99.88333333333334,
TH,MAS,Mae Sariang Customs House,Mae Sariang Customs House,58,AA,--3-----,,18.166666666666668,97.95,
TH,MAQ,Mae Sot Apt,Mae Sot Apt,63,AA,---4----,,16.7,98.55,
TH,MST,Mae Sot Customs House,Mae Sot Customs House,63,AA,--3-----,,16.7,98.51666666666667,
TH,MSM,Maha Sarakham,Maha Sarakham,22,RL,--3-----,,16.183333333333334,103.3,
TH,MAT,Map Ta Phut,Map Ta Phut,21,AA,1-3-----,,12.65,101.3,
TH,MIN,Min Buri,Min Buri,10,RL,--3-----,,13.816666666666666,100.73333333333333,
TH,MDN,Mukdahan,Mukdahan,21,RQ,--3-----,,16.533333333333335,104.71666666666667,
TH,MDH,Mukdahan Customs House,Mukdahan Customs House,49,AA,--3-----,,16.6,104.73333333333333,
TH,NNK,Nakhon Nayok,Nakhon Nayok,26,RQ,--3-----,,14.2,101.2,
TH,NPM,Nakhon Pathom,Nakhon Pathom,,RL,--3-----,,13.816666666666666,100.05,
TH,KOP,Nakhon Phanom Apt,Nakhon Phanom Apt,48,AA,---4----,,17.383333333333333,104.65,
TH,NAK,Nakhon Ratchasima Apt,Nakhon Ratchasima Apt,30,AA,---4----,,14.95,102.31666666666666,
TH,NSA,Nakhon Sawan,Nakhon Sawan,60,RL,-23-----,,15.683333333333334,100.11666666666666,
TH,NKT,Nakhon Si Thammarat,Nakhon Si Thammarat,80,AA,1-------,,9.233333333333333,99.86666666666666,
TH,NST,Nakhon Si Thammarat Apt,Nakhon Si Thammarat Apt,80,AA,---4----,,8.533333333333333,99.95,
TH,NSH,Nakhon Si Thammarat Customs House,Nakhon Si Thammarat Customs House,80,AA,--3-----,,8.533333333333333,99.95,
TH,NNT,Nan Nakhon Apt,Nan Nakhon Apt,55,AA,---4----,,18.8,100.78333333333333,
TH,NRW,Narathiwat,Narathiwat,96,AA,1-------,,6.416666666666667,101.81666666666666,
TH,NAW,Narathiwat Apt,Narathiwat Apt,96,AA,---4----,,6.516666666666667,101.75,
TH,NHP,NH Prosperity,NH Prosperity,10,AA,1-------,,13.183333333333334,100.8,
TH,NIM,Nim Port,Nim Port,11,AA,1-------,,13.6,100.56666666666666,
TH,NBO,Nong Bua Lamphu,Nong Bua Lamphu,,RL,--3-----,,17.166666666666668,102.56666666666666,
TH,NGK,Nong Khae,Nong Khae,19,RL,--3-----,,14.333333333333334,100.86666666666666,
TH,NON,Nong Khaem,Nong Khaem,,RL,--3-----,,13.683333333333334,100.35,
TH,NOK,Nong Khai Customs House,Nong Khai Customs House,43,AA,--3-----,,17.85,102.73333333333333,
TH,NTB,Nonthaburi,Nonthaburi,12,RL,-23-----,,13.833333333333334,100.48333333333333,
TH,PDB,"""Padang Besar"," Thailand""","""Padang Besar"," Thailand""",90,-23-----,6.666866,100.319418,true
TH,PAI,Pai,Pai,58,RQ,--3-----,,19.316666666666666,98.45,
TH,PYY,Pai Apt,Pai Apt,58,AA,---4----,,19.366666666666667,98.43333333333334,
TH,PCH,Pak Chong,Pak Chong,,RL,-23-----,,14.683333333333334,101.41666666666667,
TH,PKR,Pak Kret,Pak Kret,12,RL,--3-----,,13.916666666666666,100.5,
TH,PKN,Pak Nam,Pak Nam,11,AA,1-------,,13.6,100.56666666666666,
TH,PKP,Pak Phanang,Pak Phanang,80,AA,1-------,,9.2,99.88333333333334,
TH,PKB,Pakbara,Pakbara,91,AA,1-------,,6.866666666666667,99.71666666666667,
TH,PAT,Pat Bangkok,Pat Bangkok,,RL,--3-----,,13.7,100.56666666666666,
TH,PTH,Pathum Thani,Pathum Thani,13,RL,--3-----,,14.016666666666667,100.53333333333333,
TH,PTN,Pattani,Pattani,94,AA,1-------,,6.883333333333333,101.26666666666667,
TH,PAN,Pattani Apt,Pattani Apt,94,AA,---4----,,6.783333333333333,101.15,
TH,PYX,Pattaya,Pattaya,20,RQ,-234----,,12.933333333333334,100.88333333333334,
TH,PYT,Phahon Yothin Customs House,Phahon Yothin Customs House,10,AA,12------,,13.8,100.53333333333333,
TH,PHT,Phan Thong,Phan Thong,20,RL,--3-----,,13.466666666666667,101.1,
TH,PHA,Phang-Nga,Phang-Nga,82,AA,1-------,,8.4,98.51666666666667,
TH,PTG,Phatthalung,Phatthalung,93,RQ,--3-----,,7.616666666666667,100.06666666666666,
TH,PYO,Phayao,Phayao,56,RQ,--3-----,,19.166666666666668,99.9,
TH,PHE,Phet Buri,Phet Buri,76,RL,-23-----,,13.1,99.95,
TH,PHY,Phetchabun,Phetchabun,67,AA,---4----,,16.683333333333334,101.2,
TH,PBM,Phibun Mangsahan,Phibun Mangsahan,34,AA,--3-----,,15.25,105.23333333333333,
TH,PHI,Phichit,Phichit,66,RQ,--3-----,,16.433333333333334,100.33333333333333,
TH,PHS,Phitsanulok Apt,Phitsanulok Apt,65,AA,---4----,,16.783333333333335,100.28333333333333,
TH,PTR,Photharam,Photharam,70,RL,123-----,,13.683333333333334,99.85,
TH,KRU,Phra Khanong,Phra Khanong,10,RL,1-3-----,,13.7,100.6,
TH,PNA,Phra Nakhon si Ayutthaya,Phra Nakhon si Ayutthaya,,RQ,--3-----,,14.3535427,100.5645684,true
TH,PPA,Phra Pradaeng,Phra Pradaeng,11,AA,1-3-----,,13.616666666666667,100.55,
TH,PRH,Phrae Apt,Phrae Apt,54,AA,---4----,,18.133333333333333,100.16666666666667,
TH,PHK,Phuket Customs House,Phuket Customs House,83,AA,--3-----,,7.866666666666667,98.4,
TH,HKT,Phuket International Apt,Phuket International Apt,83,AA,---4----,,8.116666666666667,98.31666666666666,
TH,PKT,Phuket Port,Phuket Port,83,AA,1-------,,7.816666666666666,98.4,
TH,PTM,Phutthamonthon Truck Terminal,Phutthamonthon Truck Terminal,73,AA,--3-----,,13.783333333333333,100.28333333333333,
TH,PLA,Platong,Platong,,RQ,1-------,,9.65,101.46666666666667,
TH,PDG,Pluak Daeng,Pluak Daeng,21,RL,--3-----,,12.966666666666667,101.21666666666667,
TH,PNB,Prachin Buri,Prachin Buri,25,RQ,--3-----,,14.05,101.36666666666666,
TH,PKK,Prachuap Khiri Khan,Prachuap Khiri Khan,77,AA,--3-----,,11.816666666666666,99.8,
TH,PPC,Prachuap Port,Prachuap Port,77,AA,1-------,,11.2,99.58333333333333,
TH,PBR,Pran Buri,Pran Buri,77,RL,--3-----,,12.383333333333333,99.91666666666667,
TH,RNN,Ranong,Ranong,85,AA,1-------,,9.966666666666667,98.63333333333334,
TH,UNN,Ranong Apt,Ranong Apt,85,AA,---4----,,9.783333333333333,98.58333333333333,
TH,RAT,Ratchaburi,Ratchaburi,70,RL,-23-----,,13.533333333333333,99.8,
TH,RYG,Rayong,Rayong,,RL,--3-----,,12.6817905,101.277765,true
TH,ROI,Roi Et Apt,Roi Et Apt,45,AA,---4----,,16.116666666666667,103.76666666666667,
TH,RKL,Rom Klao Truck Terminal,Rom Klao Truck Terminal,10,AA,--3-----,,13.733333333333333,100.76666666666667,
TH,SAO,Sadao Customs House,Sadao Customs House,90,AA,-23-----,,6.55,100.41666666666667,
TH,SCS,Sahathai Coastal Seaport,Sahathai Coastal Seaport,11,RQ,1-3-----,,13.65,100.53333333333333,
TH,SNO,Sakon Nakhon Apt,Sakon Nakhon Apt,47,AA,---4----,,17.2,104.11666666666666,
TH,SAN,Sam Phran,Sam Phran,73,RL,--3-----,,13.716666666666667,100.21666666666667,
TH,SAM,Samphanthawong,Samphanthawong,,RL,-23-----,,13.733333333333333,100.5,
TH,USM,Samui Apt,Samui Apt,84,AA,---4----,,9.55,100.06666666666666,
TH,SAS,Samulsakom,Samulsakom,10,RQ,--3-----,,,,
TH,SAP,Samut Prakan,Samut Prakan,11,RQ,-----6--,,13.6,100.6,
TH,SAU,"""Samut Sakhon"," Changwat""","""Samut Sakhon"," Changwat""",74,-23-----,13.5497782,100.2742813,true
TH,SSM,Samut Songkhram,Samut Songkhram,75,RQ,--3-----,,13.4,100,
TH,SPK,Samuthprakarn,Samuthprakarn,11,RQ,--3-----,,13.6,100.6,
TH,SBR,Sangkhla Buri Customs House,Sangkhla Buri Customs House,71,AA,--3-----,,15.183333333333334,98.46666666666667,
TH,SBI,Sara Buri,Sara Buri,,RL,--3-----,,14.5,100.91666666666667,
TH,SAT,Sattahip,Sattahip,20,AA,1-------,,12.633333333333333,100.91666666666667,
TH,SNT,Satun,Satun,91,AA,1-3-----,,6.616666666666667,100.06666666666666,
TH,SRI,Si Racha,Si Racha,20,AA,123--6--,,13.166666666666666,100.88333333333334,
TH,SBP,Siam Bangkok Port,Siam Bangkok Port,,RL,1-3-----,,13.65,100.55,
TH,SCT,Siam Container Terminal,Siam Container Terminal,11,AA,--3-----,,13.566666666666666,100.83333333333333,
TH,SSW,Siamgas and Petrochemicals,Siamgas and Petrochemicals,11,AA,1-------,,13.633333333333333,100.55,
TH,SIC,Sichon,Sichon,80,AA,1-------,,9.016666666666667,99.91666666666667,
TH,SIB,Sing Buri,Sing Buri,17,RQ,--3-----,,14.883333333333333,100.4,
TH,SSK,Sisaket,Sisaket,33,RQ,--3-----,,15.1,104.31666666666666,
TH,SGK,Songkhla,Songkhla,90,AA,1-3-----,,7.233333333333333,100.56666666666666,
TH,SKW,Sre Kaew,Sre Kaew,,RQ,--3-----,,18.688457,98.988575,true
TH,THS,Sukhothai Apt,Sukhothai Apt,64,AA,---4----,,17.233333333333334,99.81666666666666,
TH,SKL,Su-ngai Kolok Customs House,Su-ngai Kolok Customs House,96,AA,--3-----,,6.033333333333333,101.96666666666667,
TH,SUB,Suphan Buri,Suphan Buri,72,RQ,--3-----,,14.466666666666667,100.11666666666666,
TH,URT,Surat Thani,Surat Thani,84,AA,1--4----,,9.133333333333333,99.13333333333334,
TH,SNR,Surin,Surin,32,RL,--3-----,,14.816666666666666,103.41666666666667,
TH,SIA,Suvarnabhumi International Apt,Suvarnabhumi International Apt,11,RL,--34----,,13.716666666666667,100.78333333333333,
TH,I6C,T S Transport and Logistics,T S Transport and Logistics,11,AA,1-------,,13.65,100.56666666666666,
TH,TKT,Tak Apt,Tak Apt,63,AA,---4----,,16.9,99.25,
TH,TAB,Tak Bai Customs House,Tak Bai Customs House,96,AA,1-3-----,,6.25,102.05,
TH,TKH,Takhli Apt,Takhli Apt,60,AA,---4----,,15.283333333333333,100.3,
TH,TTE,Tantawan Terminal,Tantawan Terminal,,RL,------7-,,10.083333333333334,101.41666666666667,
TH,TAC,Tha Chaleap,Tha Chaleap,22,AA,1-------,,12.583333333333334,101.88333333333334,
TH,THL,Tha Li Customs House,Tha Li Customs House,42,AA,--3-----,,17.683333333333334,101.4,
TH,THA,Tha Sala,Tha Sala,80,AA,1-------,,8.666666666666666,99.95,
TH,TPT,Thai prosperity terminal,Thai prosperity terminal,,RQ,--3-----,,13.6528804,100.55667801593444,true
TH,TCH,Thung Chang Customs House,Thung Chang Customs House,55,AA,--3-----,,19.516666666666666,100.91666666666667,
TH,TSG,Thung Song,Thung Song,80,RL,--3-----,,8.15,99.73333333333333,
TH,CCP,Tips Container Terminal,Tips Container Terminal,10,RL,--3-----,,13.1,100.88333333333334,
TH,TRG,Trang,Trang,92,AA,1-------,,7.55,99.6,
TH,TST,Trang Apt,Trang Apt,92,AA,---4----,,7.516666666666667,99.61666666666666,
TH,TRT,Trat,Trat,23,RQ,--3-----,,12.233333333333333,102.5,
TH,TDX,Trat Apt,Trat Apt,23,AA,---4----,,12.283333333333333,102.31666666666666,
TH,TPP,Tungprong Pt,Tungprong Pt,20,RQ,1-------,,12.7,100.83333333333333,
TH,UBP,Ubon Ratchathani Apt,Ubon Ratchathani Apt,34,AA,---4----,,15.25,104.86666666666666,
TH,UTH,Udon Thani Apt,Udon Thani Apt,41,AA,---4----,,17.383333333333333,102.78333333333333,
TH,UCT,Unithai Container Terminal,Unithai Container Terminal,11,AA,1-3-----,,13.583333333333334,100.58333333333333,
TH,UTP,U-Tapao Rayong Pattaya International Apt,U-Tapao Rayong Pattaya International Apt,21,AA,---4----,,12.683333333333334,101,
TH,WPJ,Wang Prachan Customs House,Wang Prachan Customs House,91,AA,--3-----,,6.7,100.18333333333334,
TH,YAL,Yala,Yala,,RL,--3-----,,6.5567245,101.2902517,true
TH,YAN,Yan Nawa,Yan Nawa,10,RL,--3-----,,13.716666666666667,100.53333333333333,
TH,YNT,Yasothon,Yasothon,35,RL,--3-----,,15.783333333333333,104.13333333333334,